latitude,longitude,name,gu_name,dong_name
33.47809990776395,124.85060858181971,경춘선숲길,,
35.33980111345073,127.05017208214008,월천근린공원,담양군,금성면 봉서리
37.43661588830112,127.01202395326928,서울대공원,과천시,막계동
37.44532523712111,127.05485554003307,청계산도시자연공원,서초구,원지동
37.44662987681007,126.9041883215188,금천문화회공연장,금천구,시흥동
37.44782815958836,126.96464259769056,악산공원,관악구,신림동
37.44878189512925,126.90235936924395,문화공간 아이원,금천구,시흥동
37.44930090796776,126.90504474377492,금천폭포근린공원,금천구,시흥동
37.45066316152658,126.90871947581935,수상한창고,금천구,시흥동
37.45102215699632,127.06744644832789,인능산도시자연공원,서초구,내곡동
37.4568176005023,126.89540859918792,금나래아트홀,금천구,시흥동
37.46692297496539,126.939231073074,샘말공원(악산근린공원 샘말구),관악구,신림동
37.46751513332951,126.94480540457248,악아트홀,관악구,신림동
37.46846293023016,126.89443212297634,금천뮤컬센터,금천구,독산동
37.46880222137476,126.93564084768846,광태소극장,관악구,신림동
37.469347197103616,127.05452950186606,구룡산도시자연공원,강남구,개포동
37.469408247442345,126.89745288778592,"롯데시네마 독산 제, 롯데시네마독산 제",금천구,독산동
37.46945567673651,127.03127570454568,문화예술공원,서초구,양재동
37.47013870784281,126.9072635102705,구민문화체육센터극장,금천구,독산동
37.47059461289128,126.89571324103024,레미어린이극장,금천구,독산동
37.47076253047653,126.9091469166253,금천체육공원(악산),금천구,독산동
37.47092948612962,126.90887041824612,감로천생태공원(악산),금천구,독산동
37.47111438549769,127.04383787535087,SCC 선 아트홀,서초구,양재동
37.47185296537226,126.89592934057114,문화정원 아트홀,금천구,독산동
37.47271834223091,127.0372660561047,매헌시민의숲,서초구,양재동
37.47368907887588,127.05294800370189,M극장(DTM),강남구,개포동
37.47414857025698,127.00921803128844,우면산도시자연공원,서초구,방배동
37.477226809977154,126.97984697437698,광인 성악 연구회,동작구,사당동
37.47726034618834,126.91037904784902,만수천공원(악산),금천구,독산동
37.47758297525385,126.88908469530156,롯데시네마 가산디털(제),금천구,가산동
37.47764951255564,127.124996445227,"CGV 송파, CGV송파4DX, CGV 송파 SPHERE X",송파구,문정동
37.47764987921624,127.01044774807924,한국예술종합학교 이강숙홀,서초구,서초동
37.47913399270944,126.9806255221258,도깨비 나라 인형극단,동작구,사당동
37.48009904711252,126.89112279119028,태양비디오소극장,구로구,가리봉동
37.48019699893179,126.89056582743127,가리봉비디오,구로구,가리봉동
37.48047731015237,127.038405539855,영산양재홀,서초구,양재동
37.48060558932544,127.12366649346798,메가박스 송파파크하비오(),송파구,문정동
37.48102656735341,126.95220753993576,"롯데시네마 서울대입구제, 롯데시네마 서울대입구",관악구,봉천동
37.48108712083635,127.0152453937302,"예술의전당 인춘아트홀, 국립국악원 우면당, 예술의전당 토월극장, IBK기업은행 챔버홀, 국립국악원 연희마당, 국립국악원 예악당, 국립국악원 풍류사랑방, 예술의전당 오페라극장, 예술의전당 리사이틀홀, 예술의전당 자유소극장, 예술의전당 콘서트홀",서초구,서초동
37.48168913546101,127.0358258330944,서초문화예술회아트홀,서초구,양재동
37.4817445710468,127.0144814268677,SCC Hall 서초,서초구,서초동
37.481801596003095,127.01318541381826,Sound360,서초구,서초동
37.48217092519118,126.8988986718802,"칸태움극장, 칸테움극장",구로구,구로동
37.48220495963495,126.97709031526166,가스펠,동작구,사당동
37.48222022598518,127.01266539992804,페리홀,서초구,서초동
37.48246116278118,127.012651813272,라율아트홀,서초구,서초동
37.48247398414134,127.07538702878205,대모산도시자연공원,강남구,개포동
37.4831462798553,127.01029836753963,"로데아트센터 국악전용 소극장, 로데아트센터 오케스트라실 국악공연장, 로데아트센터 콘서트홀, 로데아트센터 체임버홀",서초구,서초동
37.48373382644053,127.04637539992268,오유아트홀,강남구,도곡동
37.48383649316738,126.93017379365894,롯데시네마 신림 제,관악구,신림동
37.48443315518589,126.98046515358324,뮤직앤아트스튜디오,동작구,사당동
37.48476182584653,126.98152076437708,"메가박스(주) 이수, 아트나인",동작구,사당동
37.48495567145094,126.97259833499848,티엔씨,동작구,사당동
37.48511279503873,126.96817884534764,곽종목,동작구,사당동
37.48513716880941,127.13025733889285,장근린공원,송파구,문정동
37.485329627828456,126.82430847025252,푸른수목원,구로구,항동
37.48548758497285,126.97613945438223,극단예절,동작구,사당동
37.485502253673786,126.96974783708968,센무회,동작구,사당동
37.48561089947159,126.85074439063662,떼아뜨르 이동영화,구로구,개봉동
37.48566855784896,126.9721002032439,극단 교주,동작구,사당동
37.48570005796155,127.0279982055583,한전아트센터,서초구,서초동
37.48577264677007,127.08231944241804,세라믹팔레스홀,강남구,일원동
37.48624763033606,126.98166105525256,이수 소극장,동작구,사당동
37.48631754588156,126.90522984828422,롯데시네마 신대방,동작구,신대방동
37.486420995433214,127.0045483553475,모차르트 콘서트홀,서초구,서초동
37.48687185873082,127.0154069309395,IPAC아트홀,서초구,서초동
37.48688291291853,126.97921908907068,서울 초등 교사 풍물 연구회[훈장],동작구,사당동
37.48702104902242,127.0219546816468,서초아트센터,서초구,서초동
37.48716589544001,126.96676665428753,김상건 민족 예술단,동작구,사당동
37.487251111708325,126.96426684739453,까치산근린공원,동작구,사당동
37.48745427522367,127.0471316549054,롯데컬처웍스(주) 도곡,강남구,도곡동
37.487581969604086,126.91103643992042,에이레레 드라마 연구소,동작구,신대방동
37.48761043759956,126.9801106416932,이양순 피아노 리싸이틀,동작구,사당동
37.487754916164754,126.96977972347456,서경프로덕션,동작구,사당동
37.487981513249615,127.01053796292624,WOONGs HALL(웅스홀),서초구,서초동
37.48845277082902,126.91192956498168,극단 이,동작구,신대방동
37.488754045271165,126.98032627219344,극단 무궁화,동작구,사당동
37.48878824175559,126.90945237476905,김길동 가무단,동작구,신대방동
37.4888393254963,126.97511097518662,삼일근린공원,동작구,사당동
37.48908834257404,127.02617789265352,CGV Salon 서초,서초구,서초동
37.48963980396449,126.9759403628531,김문애 부동산,동작구,사당동
37.48972086377809,126.88655400581276,꿈나무극장,구로구,구로동
37.49024689832335,126.90867420820794,한국 음악 예술 연구회,동작구,신대방동
37.49025765730515,126.90826256394348,조은빛 기획,동작구,신대방동
37.4903095553716,126.84657294700324,개웅산근린공원,구로구,오류동
37.49038610894553,126.98114507991195,"한국성악회, 윤문",동작구,사당동
37.49061156270714,127.13131331681396,문정근린공원,송파구,문정동
37.490761950530434,126.96712654474616,총신 대학,동작구,사당동
37.49140797891373,126.9687794665452,밀라노,동작구,사당동
37.49184049956868,126.90958750623952,홍운철 실내악단,동작구,신대방동
37.49285578829341,126.97855371708587,안병한 이벤트,동작구,사당동
37.49303549042049,127.04585931139408,도곡근린공원,강남구,도곡동
37.49304415467294,127.00746795766976,흰물결예술극장,서초구,서초동
37.49309976236966,126.98913521354272,"두리춤터(Black Box), 두리춤터(FOYER)",서초구,방배동
37.49324003246255,127.00826024874372,씨어터 송,서초구,서초동
37.4934295150062,127.00727663891293,"흰물결 아트홀, (주)흰물결 (화이트홀)",서초구,서초동
37.49385081876935,127.06415008346748,강남구민회강당,강남구,대치동
37.49470310310473,126.93523326608052,꿈꾸러기,동작구,상도동
37.49535570946746,127.03324978781426,강남씨어터,강남구,역삼동
37.49552988090691,127.03106876895389,두남재아트홀,강남구,역삼동
37.49556876467216,126.91524053898948,독창회,동작구,신대방동
37.49571247080552,126.94497544643212,미래 악회,동작구,상도동
37.49578200967386,126.84737403082906,오류아트홀,구로구,오류동
37.496008659926446,126.94088206588584,상도근린공원,동작구,상도동
37.49640151895136,126.98433465263668,클래식라운,서초구,방배동
37.49655932700448,126.88896417944954,구로아트밸리 예술극장,구로구,구로동
37.49668244225813,126.98183280576076,우리가곡 연구회,동작구,동작동
37.49694807450393,126.88955619475443,구로구민회,구로구,구로동
37.49708786971744,126.94558905589896,김혜 바이올린 독주회,동작구,상도동
37.49722117329571,127.03901765082182,세일아트홀,강남구,역삼동
37.49726038138204,126.9353219279448,음악 예술 학회,동작구,상도동
37.497343963373005,126.92525858695367,이화밴드 가무단,동작구,신대방동
37.49747625621386,127.00031024983927,서래아트홀,서초구,반포동
37.49755302106077,126.92929477729632,"한국 뮤컬 협회, 코리아나 오케스트라",동작구,신대방동
37.4975993305229,126.92028110215531,보라매근린공원,동작구,신대방동
37.49794492391158,127.026537468476,메가박스중앙(주) 강남,서초구,서초동
37.4979874695498,126.94056511835248,뮤직 파라솔 최형,동작구,상도동
37.49883611837912,126.99124362069318,반포심산아트홀,서초구,반포동
37.49919400098502,127.03026525923396,KB아트홀,강남구,역삼동
37.49965396800826,127.13752013674733,소리소극장,송파구,오금동
37.49989749273304,126.88411308168014,예술나무Theater,구로구,구로동
37.4999027445724,126.92891658383375,하나로 21,동작구,대방동
37.50001687560311,126.96116637670096,전설,동작구,흑석동
37.50037601170024,127.02691593200709,"씨티극장, 메가박스 씨티(강남대로)",강남구,역삼동
37.50117736161038,126.8828395061003,"CGV구로10제1, CGV구로10 제, CGV구로10 제1, CGV구로10제",구로구,구로동
37.5012630840894,126.9263169388312,김영희 귀국 독창회,동작구,대방동
37.50161059049076,126.93961928248612,극단 사람,동작구,상도동
37.50163335735554,126.9613159074812,우리 민족 예술단,동작구,흑석동
37.50165323811407,127.026375183626,"주공공이, 주공공이 시사실, (주)강제규필름, CGV 강남제",강남구,역삼동
37.50243989649767,126.93649915486776,극단예인,동작구,상도동
37.50258067769656,127.15827107527812,천마근린공원,송파구,마천동
37.50260359757136,126.97312976718518,국립현충원,동작구,동작동
37.50267643406759,126.9377913436162,날개,동작구,상도동
37.50319194356086,126.95206660478348,극산 산맥,동작구,상도1동
37.50324214460357,127.1324133095452,오금근린공원,송파구,오금동
37.50383354478398,127.06662971544073,씨스퀘어(C-SQUARE),강남구,대치동
37.503995987892544,126.94608472485248,전통예술 연구완(풍물패 울림),동작구,상도동
37.50423646779674,126.94766832305156,죠커스 악단,동작구,상도동
37.504364940850046,127.00362119549855,메가박스중앙(주) 센트럴 더부티크 10,서초구,반포동
37.5047776838824,126.9412680490502,국화소극장,동작구,상도동
37.5047896075904,127.04846051934726,선릉아트홀,강남구,역삼동
37.50479388009314,126.84111941889076,온수도시자연공원,구로구,개봉동
37.50488949204132,127.00209096811166,반포시네마,서초구,반포동
37.50549396209814,127.05042999166882,JADE409(제이드409),강남구,삼성동
37.50551940733275,127.00706272723836,반포시네마,서초구,반포동
37.50585868670082,126.93435457603437,서경숙 귀국 피아노 독주회,동작구,대방동
37.50616261097411,127.00108326460207,슈필렌 아트홀,서초구,잠원동
37.50656186967643,126.93304926877448,RUN,동작구,대방동
37.50660977289842,127.06536999518636,KT&G 상상마당 대치아트홀,강남구,대치동
37.50684022821638,127.06046798476788,한국문화의집 KOUS,강남구,대치동
37.50688044634856,126.9343579705108,천사의 눈,동작구,대방동
37.50690349797633,126.96958209802058,"김유봉류 봉산 탈춤 보존회, 한양 발레 아카데미",동작구,흑석동
37.506968332650544,126.88360492031411,송해아트홀,구로구,신도림동
37.506974733497856,126.89031934509856,"CINE Q 신도림제1, CINE Q 신도림제",구로구,구로동
37.5071803201666,126.95138957493404,DACOM 천리안 연극마당 동회,동작구,상도1동
37.50742010300319,126.95214074554892,중앙 무대,동작구,상도동
37.508451579760745,127.11609765951344,DNG HALL(디앤홀),송파구,방이동
37.50858566381687,126.88889776673447,"디큐브아트센터(디큐브씨어터), 롯데컬처웍스(주)롯데시네마 제",구로구,신도림동
37.50866708801229,126.94035548032863,백수광부,동작구,노량진동
37.50870957497967,126.85305551229334,고척근린공원,구로구,고척동
37.509081390888376,126.93830174586353,하나김 가무단,동작구,노량진동
37.50926072404624,126.86956699156045,갈산근린공원,양천구,신정동
37.50968186190416,126.93664147722632,사군자,동작구,노량진동
37.50981315689847,126.92879181078897,노량진공원,동작구,대방동
37.51023013941131,127.04464843765172,민속극장 풍류,강남구,삼성동
37.51039873986919,127.0611935747726,coex 신한카드 artium,강남구,삼성동
37.510406402261744,126.944628537403,한국 청음 장애 극단,동작구,노량진동
37.51053886924556,127.0659125156318,백암아트홀,강남구,삼성동
37.51075909255368,126.8701550183136,아이누리홀,양천구,신정동
37.51075963537686,126.95974303123307,설진히 독창회,동작구,흑석동
37.5110453576818,126.93781572049784,아세아나 가무단,동작구,노량진동
37.51112423854772,126.94733964213876,이수경 독창회,동작구,노량진동
37.51128746823461,127.09793930004804,"동화극장, 가든스테이, 샤롯데 씨어터",송파구,잠실동
37.51133340769431,127.0484375294771,spigen hall (슈피겐홀),강남구,삼성동
37.51151435041065,127.04224521761364,풍림홀,강남구,논현동
37.51152509080354,126.95193990239488,박미리파리프 오른간 독주회,동작구,본동
37.51155878970422,127.02385939659078,강남비디오소극장,강남구,논현동
37.51159132986386,127.1012160331025,송파나루근린공원(석촌수),송파구,신천동
37.511812104202434,126.94382486615048,인하대학교 고전기타회 OB,동작구,노량진동
37.51196310295197,126.89309197329028,후케즈(HUKEZ),영등포구,문래동2가
37.51252199500812,127.05881955965232,"코엑스 더 부티크10, 코엑스 더 부티크 스위트 10, 코엑스 10스위트룸, 코엑스 부티크 프라이빗 1, 코엑스 컴포트 1, 코엑스 Dolby Cinema, 코엑스, 메가박스씨네플렉스(주), 코엑스 컴포트, 메가박스씨네플렉(주), 코엑스 부티크 프라이빗, 코엑스 소상영B, MEGA｜MX4D, 코엑스 소상영A",강남구,삼성동
37.51269548561335,126.93077504967964,꼴로르 현악 4중주단,동작구,대방동
37.51308746544776,127.07731688983904,아시아근린공원,송파구,잠실동
37.513102015650425,127.10343347292932,"롯데시네마 월드타워(제), 롯데시네마 월드타워(제2), 롯데시네마 월드타워(제1), 롯데콘서트홀",송파구,신천동
37.51406875919358,126.94513319981768,일미일 소극장,동작구,노량진동
37.51413116232344,127.0291812577498,"삼익엠팟홀, (주)케이엠티브이, 삼익피아노 홀",강남구,논현동
37.515714133383895,126.84907133962828,계남근린공원,양천구,신정동
37.51592406316609,126.90737275165344,롯데시네마 영등포,영등포구,영등포동
37.51609171747676,127.03429294158994,플랫폼라이브,강남구,논현동
37.51625860369051,127.0206195163492,클래식시네마스페이스(주),강남구,논현동
37.516447277150725,127.02193834535773,메가박스 브로드웨이,강남구,논현동
37.51646331939025,126.94970503829236,사육신공원,동작구,본동
37.51653611021531,127.11425467674408,아트홀제이,송파구,방이동
37.5165399306523,127.02155921303128,메가박스 브로드웨이,강남구,논현동
37.51655316865293,126.86326315899294,양천문화회,양천구,신정동
37.51700833329621,127.02255731914592,"씨네마강남, 씨네마강남 대, CGV 강남제",강남구,논현동
37.51702043637211,127.12604419462744,"K-아트홀(태권도공연장), 올림픽홀, 뮤즈 라이브",송파구,방이동
37.51707629305119,126.90334116767204,"CGV 영등포 제[4D], CGV 영등포 제, CGV 영등포 제1(SCREEN X), CGV 영등포 1(IMAX), CGV 영등포 제1(골드클래스)",영등포구,영등포동4가
37.51718480961933,127.05797097923116,봉은공원,강남구,삼성동
37.517994538175614,126.95764791827918,노들섬 라이브하우스,용산구,이촌동
37.51806694851131,126.91172178964857,영등포근린공원,영등포구,영등포동1가
37.51826558991265,126.90911171393115,드라마소극장,영등포구,영등포동3가
37.51840793575525,126.90945365571852,미산소극장,영등포구,영등포동3가
37.51865425755447,126.90985273369698,연흥극장,영등포구,영등포동3가
37.51926259625126,126.90976158070734,경원극장,영등포구,영등포동2가
37.51934097543953,126.90670311106902,영등포극장,영등포구,영등포동3가
37.51944442733143,126.89806289022404,메타컬처센터,영등포구,문래동3가
37.51945825233057,127.01911877697071,거암아트홀,강남구,신사동
37.51983446768117,126.9400724708956,(주)63시티,영등포구,여의도동
37.52046819084868,126.8997404412688,남도극장,영등포구,당산동1가
37.52047889082837,126.93143076680474,자매근린공원,영등포구,여의도동
37.52059986550282,126.90566479233274,"푸른소극장, 푸른극장",영등포구,영등포동5가
37.52101665152779,127.03550764391105,씨네예술,강남구,논현동
37.52103235308566,127.116165306935,우리금융아트홀(올림픽역도경기장),송파구,방이동
37.521230366757095,126.92889142768868,신영체임버홀,영등포구,여의도동
37.52154756133758,126.9123896620453,MH LIVE HALL(명화라이브홀),영등포구,영등포동2가
37.52157902287646,127.03545618041426,씨네하우스,강남구,논현동
37.5226100364949,126.91212392689698,중마루근린공원,영등포구,영등포동2가
37.52278176234893,127.0273804770301,오퍼스홀,강남구,신사동
37.52289611418906,127.037049290172,"CGV 청담씨네시티 CINEMA SWEETBOX PREMIUM, CGV 청담씨네시티 4DX, CGV 청담씨네시티(HEADPHONE), CGV 청담씨네시티(COMFORT SWEETBOX PREMIUM), 씨네시티1, 씨네시티",강남구,신사동
37.52300687925515,127.02201916248868,픽처하우스,강남구,신사동
37.52303799283222,126.98223511878064,극장 용,용산구,용산동6가
37.523047707366494,126.985863053913,용산가족공원,용산구,용산동6가
37.52336833487463,127.0374303364758,테크인홀,강남구,신사동
37.523811438952976,127.12188272152008,올림픽공원,송파구,방이동
37.52386596577532,127.0396188293106,"일아트홀, 광야 아트센터",강남구,청담동
37.52388816840418,127.025153133462,광림아트센터 BBCH홀,강남구,신사동
37.52424472642026,127.02678418278347,광림아트센터 장천홀,강남구,신사동
37.52434343574547,127.0294113821924,"씨네 드 쉐프 A, 씨네 드 쉐프 B, CGV압구정 ART, CGV압구정 제",강남구,신사동
37.524491864635294,127.0398381968393,미스틱,강남구,청담동
37.52458380505591,127.02882790945016,"CGV압구정 IMAX, CGV압구정 제",강남구,신사동
37.52497944321478,126.92529852383826,"CGV여의도[COMFORT SEAT], CGV여의도, CGV여의도(VeatBox), CGV여의도[CGV아트하우스], CGV여의도(TEMPUR CINEMA)",영등포구,여의도동
37.52536298448204,126.91638209645636,KBS홀,영등포구,여의도동
37.52564554917912,127.03386826649532,윤당아트홀,강남구,신사동
37.52609891552607,126.99776272439236,보광극장,용산구,보광동
37.5261859819992,126.9001403289221,영등포아트홀,영등포구,당산동3가
37.52629487332266,127.13032767871516,원아트홀,강동구,성내동
37.526855196772416,126.87503495321108,"메가박스중앙(주)더부티크목동현대백화105(COMFORT), 메가박스중앙(주)더부티크목동현대백화102(COMFORT), 메가박스중앙(주)더부티크목동현대백화101(COMFORT), 메가박스중앙(주)더부티크목동현대백화107(THE BOUTIQUE), 메가박스중앙(주)더부티크목동현대백화104(COMFORT), 메가박스중앙(주)더부티크목동현대백화106(COMFORT), 메가박스중앙(주)더부티크목동현대백화103(COMFORT), 메가박스중앙(주)더부티크목동현대백화108(THE BOUTIQUE)",양천구,목동
37.52695970015723,126.8715055158377,코바코홀(Kobaco Hall),양천구,목동
37.52704038038459,127.04618945237048,예인아트홀,강남구,청담동
37.52709050622436,126.87061896523326,"아뜨리움홀, 로운아트홀",양천구,목동
37.52738815676458,127.03581175303955,도산근린공원,강남구,신사동
37.52815429017753,127.03184617721868,세실 아트홀,강남구,신사동
37.52853162029625,127.12514855790502,"메가박스 강동6, 메가박스 강동4, 메가박스 강동7, 메가박스 강동3, 메가박스 강동9, 씨네월드, 메가박스 강동10, 씨네월드아트홀, 메가박스 강동1, 메가박스 강동8, 메가박스 강동2",강동구,성내동
37.529176516786514,127.12245283384463,강동어린이회아이누리홀,강동구,성내동
37.52925376708944,126.92491315430492,영산아트홀,영등포구,여의도동
37.52927005377273,126.89538259663571,TCC아트홀,영등포구,당산동4가
37.529374291049926,126.87608391619764,"메가박스중앙(주) 목동COMFORT, 메가박스중앙(주) 목동, 메가박스중앙(주) 목동Dolby Atmos",양천구,목동
37.52955828577544,126.9641568110051,"씨브이 용산아이파크몰 제1, 씨브이 용산아이파크몰 제, 대원 콘텐츠 라이브",용산구,한강로3가
37.52968130420544,126.92413399728,여의도근린공원,영등포구,여의도동
37.530176749194055,126.8312681549594,서서울수공원,양천구,신월동
37.53073678334391,126.87548294651106,시립목동청소년센터,양천구,목동
37.53153946383709,126.97186060970864,코리아 임프라브 씨어터,용산구,한강로2가
37.531607179700494,126.9653129839984,"씨브이 용산아이파크몰 제1, 씨브이 용산아이파크몰 제2",용산구,한강로3가
37.53225845759305,127.07064804064308,충동소극장,광진구,자양동
37.53256279167187,126.99017902737764,"용산아트홀 소극장 가람, 용산아트홀 대극장 미르",용산구,이태원동
37.53281532949463,126.95972773677389,롯데시네마 용산 제,용산구,한강로3가
37.53308220548789,126.89838568963376,창작플랫폼 경험과 상상,영등포구,당산동5가
37.534167631258335,127.09188770066103,동서울아트홀,광진구,구의동
37.53461847005318,127.08303239987842,pmf자양스테이션,광진구,자양동
37.53570056391755,127.09576504187868,"CGV강변11 4DX, CGV강변11 제1, CGV강변11 제[CGV 아트하우스], CGV강변11 STAR, CGV강변 11 CINE & FORET, CGV강변11 제",광진구,구의동
37.53610619107225,127.14292746115984,강동기리울공연장,강동구,길동
37.53662129010424,127.12533753381504,"롯데시네마, 롯데시네마 1",강동구,성내동
37.53662929363323,127.00068082622818,Under Stage (언더스테이),용산구,한남동
37.53717517466392,127.00557919352212,일신홀,용산구,한남동
37.53729233994024,127.12652758619193,유니버스소극장,강동구,성내동
37.53751377955252,126.87766118541778,파리근린공원,양천구,목동
37.53752067584664,127.07065021174832,"나루아트센터 대공연장, 나루아트센터 소공연장",광진구,자양동
37.53772073378924,126.83769159073375,강서아트리움 아리홀,강서구,화곡동
37.53780399651261,127.07263231029228,"롯데시네마 건대입구(제), 롯데시네마 건대입구(제1), 롯데시네마 건대입구(샤롯데)",광진구,자양동
37.53781584099325,127.12480086909616,한일시네마,강동구,성내동
37.53978864507599,127.06693457169456,CGV 건대입구 제,광진구,자양동
37.540220447793374,127.1609009670458,일자산근린공원,하남시,초이동
37.54058878962093,126.83756889613755,메가박스 화곡,강서구,화곡동
37.540704347631646,127.00264790992952,"블루스퀘어(Blue Square) 뮤컬공연장, 블루스퀘어(Blue Square) 콘서트공연장",용산구,한남동
37.54083453765303,126.97241926187132,가야광텔,용산구,갈월동
37.54086416564899,127.12721895601484,강동비디오소극장,강동구,천호동
37.541832907617305,127.15415573412058,길동생태공원,강동구,길동
37.5418708099638,127.04495557812992,"메가박스중앙(주) 성수, 메가박스중앙(주)성수Dolby Atmos, 메가박스중앙(주) 성수더부티크 10",성동구,성수동1가
37.542542031230965,127.0737254094902,"KU시네마테크, 새천년대공연장",광진구,화양동
37.54289840488278,126.84174709711388,소극장 길을걷다,강서구,화곡동
37.54360799784133,127.04364338343407,언더스탠드에비뉴 아트스탠드,성동구,성수동1가
37.54364024378947,126.9468668333778,디티(DGT) 컨텐츠공방,마포구,염리동
37.54380656662834,127.05443071659889,우란2경,성동구,성수동2가
37.54425236321713,126.9302123627787,씨제이아트(CJ azit),마포구,신정동
37.54529461305076,126.92444282847552,"틸라하(THILA JIHA), 틸라 그라운드(THILA GROUND)",마포구,상수동
37.54541686995661,127.04697293853916,성수아트홀,성동구,성수동1가
37.54555890974602,126.8783265727172,용왕산근린공원,양천구,목동
37.545718672621135,127.14225097501776,CGV 천,강동구,천호동
37.54573628602344,127.10805432172256,예스24 라이브홀,광진구,광장동
37.54578339683254,127.04247887256427,"서울숲씨어터, 서숲숲씨어터",성동구,성수동1가
37.54585440864502,126.85590779521452,봉제산공원,강서구,등촌동
37.54587120677799,127.042605101164,서울숲,성동구,성수동1가
37.54618998155289,127.10651228230122,시립광진청소년센터 대극장,광진구,광장동
37.546418070518655,126.90163337995716,선유도근린공원,마포구,합정동
37.54650915618842,127.02168156213364,달맞이근린공원,성동구,금호동4가
37.546559032032114,127.12633690813108,천근린공원,강동구,천호동
37.546802727610014,127.0778337556589,무개극장,광진구,능동
37.54702400602615,127.0723518432778,설렘아트홀,광진구,화양동
37.54748411425748,127.05327027870634,성수근린공원,성동구,성수동2가
37.54787867367408,127.0500657392692,헤르만아트홀,성동구,성수동1가
37.547942020785605,126.96101135135766,효창근린공원,마포구,공덕동
37.54847797121897,126.92152649798147,아트홀 베짱이,마포구,상수동
37.54848627839655,126.92013344537828,롤링홀,마포구,서교동
37.54870743672963,126.9191557369674,얼라이브홀,마포구,서교동
37.54927826711744,126.91215818807868,외국인묘공원,마포구,합정동
37.549483629362825,126.90930616200332,임혁필 소극장,마포구,합정동
37.549589883557104,127.0815780975902,서울상상나라극장,광진구,능동
37.54998537532996,126.94555982441824,"마포아트센터 아트홀맥, 마포아트센터 플레이맥",마포구,대흥동
37.55030074254788,126.91760244557692,디에스엠아트홀,마포구,서교동
37.55032055158242,126.91579014198952,드림홀,마포구,서교동
37.55039634858144,127.087338116566,유니버설 아트센터,광진구,능동
37.55069580848735,127.0073019088173,"세실예술기획, 김구삼, 황혜영, 김효정",중구,신당동
37.55073577473098,127.07413144700745,"학생회대공연장, 대양홀",광진구,군자동
37.55079892983399,126.91672222442097,서교스퀘어,마포구,서교동
37.550893934238026,126.96122669676724,문화공간 너나들이,마포구,공덕동
37.550909938244864,126.92389114410588,옥타바리움 라이브홀,마포구,서교동
37.55093562269037,126.91378253003644,"롯데시네마 합정 제, 신한카드 SOL페이 스퀘어 드림홀, 신한카드 SOL페이 스퀘어 라이브홀",마포구,서교동
37.55100225250394,126.92103386141883,"상상마당 라이브홀, KT&G 상상마당 cinema",마포구,서교동
37.55112765673297,126.92149678198804,홍대스테이(ㅎㄷSTAGE),마포구,서교동
37.55118171365089,126.9965862645614,남정무용단,중구,장충동2가
37.55121778808516,126.9196332010028,스페이스 브릭,마포구,서교동
37.55123162725492,126.93927435696703,"메리홀, 메리홀 소극장",마포구,신수동
37.5515447009082,127.00253889561569,씨너스 이오이(EOE)4 남산자동차극장,중구,장충동2가
37.551612547015935,126.91983719885238,무신사 개러,마포구,서교동
37.551659013817485,126.9175086582124,프리즘홀,마포구,서교동
37.55167222598127,126.97321034493164,동자아트홀,용산구,동자동
37.55193457676796,126.8416092804754,강서구민회,강서구,내발산동
37.55204030069604,127.08123737924508,어린이대공원,광진구,능동
37.55217722774584,126.9223635698728,윤형빈 소극장,마포구,서교동
37.55225789131377,127.01976505527662,금근린공원,성동구,금호동2가
37.55230124569024,126.91383408067992,라디오가가,마포구,서교동
37.552429391653256,126.91881669367184,벨로주,마포구,서교동
37.55285033527286,126.92272172419564,띠아트,마포구,서교동
37.55287104070553,127.00013082338218,"국립중앙극장 하늘극장, 국립중앙극장 달오름극장, 국립중앙극장 해오름극장, 코리안심포니오케스트",중구,장충동2가
37.55306501638425,126.9117604707447,아로아로,마포구,합정동
37.55308888670254,126.91748393434553,가온스테이,마포구,서교동
37.55310431950729,127.00761746360804,신금자,중구,신당동
37.55311559745134,126.92215928171257,제이엘 씨어터,마포구,서교동
37.55311633623288,126.92434837538964,H 스테이,마포구,서교동
37.55326266802472,126.92124423973269,홍대난타극장,마포구,서교동
37.55329876613471,126.92763117487716,스페이스 한강,마포구,창전동
37.55333054605629,127.01501678501688,음악춘추사,중구,신당동
37.55352049402153,127.01484183457497,한국쇼팽협회,중구,신당동
37.55362677921728,126.9092444046568,클럽 샤프,마포구,망원동
37.55365192528964,126.92615397293396,웨스트브릿라이브홀,마포구,서교동
37.55384585804265,127.14717541871472,샛마을근린공원,강동구,명일동
37.55397370450816,126.87421001844967,오아시스아트홀,강서구,염창동
37.5541188899734,126.84298142815854,우장산근린공원,강서구,내발산동
37.55413134238116,126.92967499868422,포스트극장,마포구,창전동
37.55418879420099,126.92854013228695,구름아래소극장,마포구,서교동
37.55443307251917,126.92125116146944,모노플렉스 앳 라이즈,마포구,서교동
37.55447715022757,127.00925506678414,예술기획파홀로,중구,신당동
37.554746601790015,126.99561404014732,성좌예술단,중구,장충동2가
37.5550583761684,126.93333177224838,G 블레싱 소극장,마포구,노고산동
37.55507701074809,126.93010206296054,소극장 산울림,마포구,서교동
37.55519668148659,126.930922910627,와우근린공원,마포구,동교동
37.55527995303969,127.01141050418885,다물놀이 문화기획,중구,신당동
37.55530754715741,126.97546598298284,(주)서울힐튼텔,중구,남대문로5가
37.55534941952783,127.1610840277546,명일근린공원,강동구,상일동
37.55558841645829,127.0096239605494,신한예술단,중구,신당동
37.55568309867405,127.0108074238914,세실뮤직가무단,중구,신당동
37.55579071140081,127.07833844204671,"메가박스 군자10, 메가박스 군자3, 메가박스 군자8, 메가박스 군자7, 메가박스 군자4, 메가박스 군자6, 메가박스 군자1, 메가박스 군자9, 메가박스 군자5",광진구,군자동
37.55583118753096,126.9822743518078,남산공원,중구,회현동1가
37.55603206841386,126.96943653413504,서울역프라자극장,중구,봉래동2가
37.55606742550445,126.92209353460098,메가박스중앙(주) 홍대,마포구,동교동
37.55634915392005,127.01495443917209,이흥열가무단,중구,신당동
37.55637459810685,127.10116606809558,아차산공원,광진구,구의동
37.55642718275038,126.92275862004428,CGV홍대,마포구,동교동
37.55646674526724,127.00979062303244,한국충효사적선양회,중구,신당동
37.55649105039487,126.97519709435257,한국국제문화협회,중구,남대문로5가
37.55652761996709,126.93502172725992,복합문화공간 몽향,서대문구,창천동
37.556562854760216,126.94023265973884,"CGV신촌아트레온 1[CGV아트하우스], CGV신촌아트레온, 원더로크 홀",서대문구,창천동
37.556750840614114,127.00603529083182,텔신라,중구,장충동2가
37.5568758263646,127.01229124901144,연예인환경보협회,중구,신당동
37.556902861771206,126.98740096994156,"에듀까레교사합창단, 가리온현대무용단, 예전무용단",중구,예장동
37.55704899664776,126.90420970252106,콘서트홀 나누,마포구,망원동
37.55711242134262,127.01277174039068,국제연예인종합예술단,중구,신당동
37.55719286337483,126.92475870004284,독립영화전용인디스페이스,마포구,동교동
37.55722877011117,126.92305034076765,청년문화공간JU동교동 다리소극장,마포구,동교동
37.55733046712809,126.92530840198692,롯데시네마 홍대입구제,마포구,동교동
37.5575870274004,127.01266380241728,한국공연예술매니저,중구,신당동
37.55761712737779,126.93820617189132,극장 PLOT,서대문구,창천동
37.55767204740669,126.92590451083586,"CGV연남(4DX), CGV연남, CGV연남(Suite Cinema)",마포구,동교동
37.55774264095379,127.04739368243824,백남아트홀,성동구,사근동
37.55786841313709,126.85604641927338,CGV 등촌,강서구,등촌동
37.557959728728726,126.93975955126668,신촌문화발전소,서대문구,창천동
37.55797677817896,126.8492307081356,스카이아트홀,강서구,등촌동
37.55803495725197,127.01217100350569,"김용곤독창회, 이남진, 음악저널",중구,신당동
37.55805991105802,126.99582923746568,서울앙상불,중구,필동2가
37.55811743833098,126.97218541461444,명치대학만도린OB구락,중구,봉래동1가
37.558201590547625,126.969585375096,KTX시네마,중구,봉래동2가
37.558297631048106,127.01290876676794,김세일라무용단,중구,신당동
37.55835564671304,126.9638634876502,소뚜껑인형극단,중구,중림동
37.55837871586199,126.99398323690578,서울남산국악당,중구,필동2가
37.558391035691855,127.0005889346397,동국대학교 이해랑예술극장,중구,필동3가
37.55843245751254,126.9843785864788,김플랜,중구,남산동1가
37.558542723562,126.96551167019358,손기정체육공원,중구,중림동
37.55883181147421,127.00752902177491,(주)거인이벤트,중구,장충동1가
37.55896404941053,126.98835072612856,"남산드라마센터, 동랑'춤'",중구,예장동
37.55930354955572,126.83522315960222,메가박스중앙(주) 마곡,강서구,마곡동
37.55936547391286,127.0361222545061,소월아트홀,성동구,행당동
37.55937113068839,126.98707709555406,"한국광홍보 (주), 에코예술기획, (주) 코트파",중구,남산동3가
37.55958248731626,127.0017348272058,서안사텔앰버서더,중구,장충동2가
37.559725193884056,127.00487021414988,극단동쪽나라,중구,장충동2가
37.559726710912855,126.98544192997856,"무겐나이트, 서상철과그의가무단",중구,남산동2가
37.55973939895701,127.02212087675336,응봉공원 (대현산배수공원),중구,신당동
37.5597955635108,126.94191767435832,"메가박스중앙(주)신촌, 메가박스중앙(주) 신촌, 메가박스중앙(주)신촌COMFORT",서대문구,신촌동
37.5599545290937,127.00835217447076,극단 멋진친구들,중구,장충동1가
37.56005701434921,126.9912803792196,아트팩키,중구,예장동
37.560130252455565,126.96225681886884,모두예술극장,서대문구,충정로3가
37.56014038054607,126.99460529859228,한국의집민속극장,중구,필동2가
37.56018047035557,127.00239533811131,금수장무용단,중구,장충동2가
37.56022835929867,126.86171402098933,매화근린공원,강서구,가양동
37.56027646565523,126.99375746257702,메디칼필하모니,중구,필동2가
37.56046633569578,126.99176425390424,(주)서울이데아,중구,필동1가
37.56047524556444,126.97748225117486,뉴남대문극장,중구,남대문로4가
37.5607032982973,127.00217167968732,"극단사람들, 한국현대춤협회",중구,묵정동
37.56071274787433,127.00617944892365,신세계남산 트리니티홀,중구,장충동1가
37.5607330083006,126.99442429825696,동원이벤트포토피아,중구,필동2가
37.56088807511941,127.0129870397634,훼밀리가무단,중구,신당동
37.56090279147323,127.01265101944723,또래예술단,중구,신당동
37.5610736217275,126.99535154665216,대한극장,중구,필동2가
37.5612143827958,126.8687464280124,염창근린공원,강서구,염창동
37.56126011237319,126.98411772278185,"씨큐엔(CQN)명동, 멀티플렉스 캣츠 21 (), 멀티플렉스 캣츠21 (), 명동시네마",중구,충무로1가
37.5612898353071,127.03838206151087,"CGV 왕십리 1, CGV 왕십리",성동구,행당동
37.56132919771541,126.98535309319382,"CGV 명동역 씨네라이브러리, 인사이드시네마, CGV명동역 씨네라이브러리 ART, CGV 명동, CGV명동역 씨네라이브러리",중구,충무로2가
37.56140563545594,126.9924975199354,"세기흥행, 삼우문화산업",중구,필동1가
37.56143141851435,126.9979206866551,달란트오페라단,중구,충무로5가
37.56145078639725,127.0206868673118,한조연예기획,중구,신당동
37.56145939643438,126.99686305652256,이벤트프로,중구,필동2가
37.56146156488746,126.99392653977742,광개토기획,중구,필동2가
37.56146764111734,126.98795753506624,뉴웨이브악단,중구,충무로2가
37.56149246767266,127.006761940581,본기획,중구,장충동1가
37.56155378304557,126.97507753422798,삼성에버랜드(주)씨넥스,중구,태평로2가
37.56156919691771,126.98847183102666,서울구락가무단,중구,충무로2가
37.5616117349553,126.85326753108475,롯데시네마 가양,강서구,등촌동
37.56164258861512,126.99111481510604,애드케이,중구,충무로3가
37.56178144032076,127.01150066621796,이주희귀국독주회,중구,신당동
37.56182629830301,126.99488010011147,"극단 서울무대, 극단푸른교실",중구,충무로4가
37.56185851096426,126.95543328332346,북아현아트홀,서대문구,북아현동
37.56189172520224,126.99262290868812,국단충우,중구,충무로3가
37.56191608459476,126.99396345626285,고려영화사,중구,충무로4가
37.56199948244927,126.98861258402326,신영아트,중구,충무로2가
37.5620413835733,126.99547754469648,(주)누리기획,중구,충무로4가
37.56208426158232,126.97800337252468,다빈치가무단,중구,북창동
37.56219868074113,127.00916479828182,사단법인한국여성민우,중구,장충동1가
37.562385845267066,126.97545150756736,삼성물산(주),중구,태평로2가
37.56240351888822,126.99593941916348,"(주)한맥엔터레인먼트, 한국특수광업협회",중구,충무로4가
37.56243640994227,127.1684602053518,동명근린공원,강동구,고덕동
37.56247549707209,126.98972813263435,비쥬얼뮤직,중구,충무로2가
37.562500625471,126.98516198850912,해치홀,중구,명동2가
37.562533864416594,127.00070419336606,한알,중구,묵정동
37.56254990313263,126.984103263658,스타월드,중구,명동2가
37.56256190105408,126.94745361456684,"ECC 삼성홀, 아트하우스 모모-이화?KB 시네마",서대문구,대현동
37.5627043521385,126.99687138597848,예술기획,중구,충무로4가
37.56274116542257,127.00940517525154,(주)메드컴,중구,장충동1가
37.56274869785797,127.0759756315922,우인아트홀,광진구,중곡동
37.562814317550455,126.99904685824065,전국주부교실중앙회,중구,충무로5가
37.56284892796629,127.01559867106567,한국무카,중구,신당동
37.56290092156494,126.99052647963524,월드비젼,중구,충무로3가
37.56290301743105,127.01020876392246,홍웅기 무용단,중구,신당동
37.56302393597941,127.01508977130284,환경보전문화예술협회,중구,신당동
37.56323665923895,127.01479017288445,"우진가무연주, 극단하늘",중구,신당동
37.56334379175509,127.00846271448589,사단법인 자행회,중구,광희동2가
37.56341414714094,126.98289078110506,CGV 명동,중구,명동2가
37.5634549349494,126.98376241077356,명동난타극장,중구,명동2가
37.56345580247063,127.13336190335669,암사어린이극장,강동구,암사동
37.56345877580896,126.98800945527094,삼일로창고극장,중구,저동1가
37.56350344515462,127.01793625019364,이린이연구회소꿉놀이,중구,신당동
37.5635476718816,126.98339778144332,한국보존견보존연합회,중구,명동2가
37.56355744043226,126.98418468531374,프로이벤트엠엔에프,중구,명동2가
37.5635675381329,126.97419098932484,대한항공(주),중구,서소문동
37.56358201383903,126.98396603995856,코리아극장,중구,명동2가
37.56359219787558,126.97037152362962,서울 예주랑라이어스홀,중구,순화동
37.56363699507988,127.02059010997252,극단크레파스,중구,신당동
37.563732224380544,126.9749288569617,(주)한컴,중구,서소문동
37.56397764894678,126.984217123858,명동예술극장,중구,명동1가
37.5639870719368,126.99864434451956,(주)HMK   `,중구,예관동
37.56405181000262,126.9991724895116,세종예술기획,중구,오장동
37.56410094384118,126.98192546836934,"롯데시네마 에비뉴엘 샤롯데, 롯데시네마 에비뉴엘 <>, 한일은행",중구,남대문로2가
37.56412932346555,126.9445168352608,"필름포럼, 리움홀",서대문구,대신동
37.56419120664285,126.98921175900446,"영락교회갈보리성가대, 매시아합동대연주회",중구,저동2가
37.56423802806314,126.99324774716295,대성예술계획,중구,인현동1가
37.56433734317854,127.00035019999784,극단신협,중구,오장동
37.56451906061081,127.02035744160372,"극단디딤레퍼토리, 극단동행",중구,신당동
37.56458304771755,126.99249283012624,"시네아스트극장, 씨네아스트극장",중구,초동
37.56468841783828,126.99323069118398,"명보아트홀(라온홀), 명보아트홀(다온홀), 명보, 명보 <<1,2,>>, 오륜물산-주(), 명보아트홀(가온홀), 오륜물산-주 ()",중구,초동
37.564691678830464,126.97658273008555,동진기획,중구,태평로2가
37.56470050709815,126.93949724619168,금아트홀 연세,서대문구,신촌동
37.56470928048081,127.00069209474285,사물놀이뿌리패,중구,오장동
37.56477623194343,127.0079018391218,동춘곡예단,중구,광희동2가
37.56481064910038,126.98108976946192,"(주)롯데텔, (주)우정, 롯데쇼핑(주)",중구,소공동
37.564812466631295,126.99570049274216,"이청영무용단, 보컬그룹소리나, 씨네마풍전 제, 히파이브, 안승천무용단",중구,인현동1가
37.56489220239934,126.98613644619208,"서울여자기독교청년회, 에델바이스요들러클럽",중구,명동1가
37.56493885004512,127.08458737252845,광진어린이공연장,광진구,중곡동
37.5650604402006,126.80299201680056,"롯데시네마 김포공항 (1), 롯데시네마 김포공항 ()",강서구,방화동
37.56508403822015,127.00658339238112,육하원칙,중구,광희동1가
37.56515348151611,127.01247366083074,"한국교사국악회, 마당풍물놀이",중구,신당동
37.5651660517414,126.93093399241997,라이카시네마 S,서대문구,연희동
37.56523971723643,127.00140522079872,"연예기획, 영동회, 준예술기획, 중부스텐드",중구,오장동
37.56526792747287,127.01359729091176,한국장애자예술봉사단,중구,신당동
37.56544978717384,127.01514725615456,"충무아트센터 중극장 블랙, 충무아트센터 대극장, 충무아트센터 소극장 블루",중구,흥인동
37.56551555762769,127.01583251466276,국예술공연단중앙회,중구,흥인동
37.56553520693406,127.00734394942616,극단소리,중구,을지로6가
37.56553990027636,127.02300424444957,극단라이프,중구,황학동
37.56554719618006,127.02282675599304,아시아연예이벤트,중구,황학동
37.56557058279102,127.02245293798076,한울춤방무용단한울림,중구,황학동
37.5655711953171,126.9911509806239,코스텔,중구,을지로3가
37.56562617901578,126.92859411993604,연희예술극장,서대문구,연희동
37.56563207777952,126.99327883169885,예술마당,중구,을지로3가
37.56573506821465,127.0142970351586,한국악협회,중구,흥인동
37.56573590524591,127.00643054414932,다이아몬드연주단,중구,광희동1가
37.56576218740921,127.00699129520656,Klive,중구,을지로6가
37.56585842959183,126.96754501408458,페인터즈 서대문 전용(NH아트홀),중구,충정로1가
37.56588059221919,126.97288644218378,"국립정동극장, 정동마루",중구,정동
37.565885160560285,127.00334601234373,벗님들,중구,을지로5가
37.565930377455615,127.01485928675535,소공연장,중구,흥인동
37.56606171414151,126.9723757983143,예술세계,중구,정동
37.56610678428021,126.99731668455776,푸르오아트홀,중구,을지로4가
37.56617680528409,126.9962950169402,국도극장,중구,을지로4가
37.566314974794125,126.9799661484592,"삼성 무용단, (주)제일기획",중구,을지로1가
37.566626147528005,126.89504745812027,월드컵공원,마포구,성산동
37.56680777675452,126.97596873440858,"우리극단마당, 국립정동극장 세실",중구,정동
37.566862463917474,127.01711053775662,(주)한국스포랜드,중구,흥인동
37.56687408280544,127.00728116969722,(주)원엠엠시네마 동대문,중구,을지로6가
37.567092095620325,126.99057020865556,"한국바젤요들클럽, 한국바젤요젤클럽",중구,수표동
37.5671035285988,126.99768721799605,을공간,중구,을지로4가
37.56710966156086,126.96868999333046,"청춘극장, 문화일보홀",중구,충정로1가
37.56713044794608,126.97591128503625,성니콜라소년합창단,중구,정동
37.56737808959895,126.98657631292552,쁘렝땅 기획,중구,장교동
37.56741262838488,127.00186640094216,최종순가무단,중구,을지로5가
37.56759665581354,126.97096342271335,"중원산업, 정동문화예술회",중구,정동
37.56764304308698,126.97955583080012,(주)한국천주교성음악,중구,무교동
37.56770886408066,126.9740320088989,한국문예교류협악회,중구,정동
37.56776494427291,126.96891260738126,예음문화재단,중구,충정로1가
37.56778412090955,126.9801671110508,"앰파이어가무단, 최성봉유로피아가무단",중구,다동
37.567797355501256,126.98063382214552,이금신월드컵가무단,중구,다동
37.56782244097957,126.8323394275276,"LG아트센터 서울 U+ 스테이, LG아트센터 서울 LG SIGNATURE 홀",강서구,마곡동
37.56814694114781,126.9998456442072,에클레시아남성합창단,중구,주교동
37.56817095178116,126.96999238618451,"서울아트시네마, 페인터즈 광화문 전용(경향아트힐), 경향 아트힐, 스타식스정동제, 강북정동웨딩극장, 서태와아이들라이브, (주)방송문화이벤트, 스타식스정동",중구,정동
37.56829033152907,126.9707732767858,팝콘하우스,중구,정동
37.56849117430424,126.97959547025334,(주)계성문화,중구,무교동
37.56852399520778,126.98075254790088,메시나,중구,다동
37.56855795297595,126.98162360520956,CKL스테이,중구,다동
37.56864431211725,127.00773259313252,"(주)엠엠시네마(1), CGV 동대문 제, (주)엠엠시네마()",중구,을지로6가
37.569290537613085,127.07053585283076,엔에스엔 공연장,동대문구,장안동
37.5694622997117,127.01394667319148,극단민성,중구,신당동
37.5697291837489,126.97228817503286,씨네큐브광화문,종로구,신문로1가
37.57025132732797,127.00419837288298,훈련원근린공원,종로구,종로5가
37.57034075646126,126.8545363728978,허준공원,강서구,가양동
37.57038125261971,126.89429568136023,문화비축기T2 공연장,마포구,성산동
37.57039531218489,127.00891266951948,전통문화공간 창선당,종로구,종로6가
37.5707818819852,127.0081120095191,광무대,종로구,종로6가
37.57103714331702,126.9912292022095,"CGV 피카디리1958, CGV피카디리1958",종로구,돈의동
37.57189937729905,127.00122212373974,"두산아트센터 Space111, 두산아트센터 연강홀",종로구,연지동
37.57208099763952,126.96902225155723,에무 시네마,종로구,신문로2가
37.57221784023648,126.987644836037,우리열린극장,종로구,낙원동
37.572236860973966,126.9759338911858,"세종문화회대극장, 세종S씨어터, 세종M씨어터, 세종체임버홀",종로구,세종로
37.57257583585731,126.98780377653816,"낭만극장, 허리우드클래식",종로구,낙원동
37.57289859987691,126.98885534490805,월하예당,종로구,낙원동
37.57350686717841,126.96955333953773,경희궁,종로구,신문로2가
37.57351309959695,127.01448462039018,창신아트홀,종로구,창신동
37.57355039702716,127.0853571061484,중랑구민회,중랑구,면목동
37.57372395159096,127.08475659311864,중랑구민회소공연장,중랑구,면목동
37.573843521491774,126.98560966984198,"엠스테이1, 엠스테이2",종로구,관훈동
37.57404665419242,126.9259449448212,궁동근린공원,서대문구,연희동
37.57406624337455,126.98909803465696,탑골근린공원,종로구,익선동
37.5740935899708,127.00171727223348,더 씨어터,종로구,효제동
37.57427705126648,126.9646708364606,광화문아트홀,종로구,사직동
37.57443888992537,126.9821369463429,전통문화예술공연장,종로구,견지동
37.57504662933976,126.8954797897592,제일라아트홀,마포구,상암동
37.575543876521536,127.04991605258304,간데메근린공원,동대문구,전농동
37.57558913781831,126.95910923202752,독립근린공원,종로구,무악동
37.57595722713949,127.03995635071487,용두근린공원,동대문구,용두동
37.576138126928015,127.08995771685656,용마폭포공원,중랑구,면목동
37.57631272474971,126.97672377263532,세종로공원,종로구,세종로
37.57649336331527,126.8412911657516,궁산근린공원,강서구,가양동
37.57653901057834,127.00145999750488,"홍익대 대학로 아트센터 소극장, 홍익대 대학로 아트센터 대극장",종로구,연건동
37.57660531695533,127.0646493016152,답십리근린공원,동대문구,전농동
37.5766301538342,127.00394070465777,제이티앤 아트홀(JTN ART HALL),종로구,이화동
37.5766929131602,127.0100169653955,뭐든소극장,종로구,창신동
37.57725180300199,126.99073186460298,서울돈화문국악당,종로구,와룡동
37.57738562211859,127.0057301578122,북극곰 소극장,종로구,이화동
37.57763323265876,127.00471088140108,에이치씨어터,종로구,이화동
37.57778310419263,126.97876012564146,광화문시민열린마당,종로구,세종로
37.578074175953816,126.9736715403998,오디오가이 스튜디오,종로구,통의동
37.5786947830998,127.00464930159464,씨어터 조이,종로구,동숭동
37.5787878392148,126.96931462510908,사직근린공원,종로구,누하동
37.57885034336197,126.98844766148468,북촌나래홀,종로구,원서동
37.578906469712926,126.9888613935133,북촌창우극장,종로구,원서동
37.57891033459652,127.04022256509856,제기소극장,동대문구,제기동
37.579173253705,127.02593643707011,용두동 집 동네극장,동대문구,용두동
37.57921759607492,126.97234977965354,통의동클래식,종로구,통의동
37.57923616642542,127.00515972621498,우리소극장,종로구,동숭동
37.57942355232036,126.98184115837148,아트선재센터,종로구,소격동
37.5796472162954,126.88661235160966,상암근린공원,마포구,상암동
37.57969682724715,127.00429023089204,올림아트센터,종로구,동숭동
37.57980309540656,127.0046643991198,NC문화재단 Hall,종로구,동숭동
37.579919971610295,127.00350841278244,Sh art hall,종로구,동숭동
37.57993333806152,127.00369965101,인시어터,종로구,동숭동
37.57999792776862,127.00424747902836,봄날아트홀,종로구,동숭동
37.58011032189096,127.00426894310566,업스테이(UP STAGE),종로구,동숭동
37.5802656527243,127.00394902158284,예스24아트원,종로구,동숭동
37.58032258545655,127.0035150316552,"물빛극장, 풀빛극장",종로구,동숭동
37.58035973528975,127.00528708473033,R&J씨어터,종로구,동숭동
37.58036051971139,127.00426230971414,나인진홀,종로구,동숭동
37.58058761604699,127.00458272561823,플레이더 씨어터,종로구,동숭동
37.58077122793042,127.00416088415218,콘텐츠박스,종로구,동숭동
37.58077481056456,127.00397206823138,플러스씨어터,종로구,동숭동
37.58097816160526,127.04699263480272,롯데시네마청량리 제,동대문구,전농동
37.58099567884753,127.003712958472,브릭스씨어터,종로구,동숭동
37.58103188556316,127.00396010991636,"정극장, 극장온",종로구,동숭동
37.58111799383842,127.00436010694044,홍해성 소극장,종로구,동숭동
37.58119782198715,127.00297484381665,"아르코예술극장대극장, 아르코예술극장소극장",종로구,동숭동
37.581201466674536,127.0037165736102,유니플렉스,종로구,동숭동
37.58123632190453,127.00402432383272,"도토리씨어터, 소극장 혜화당",종로구,동숭동
37.5815302588739,127.04733575786425,동원비디오소극장,동대문구,전농동
37.581542812491925,127.00430418467928,플랫폼74,종로구,동숭동
37.58154703683539,127.00234034340372,"파랑새극장, 시윤아트홀",종로구,동숭동
37.581587950134335,126.96787600006132,서촌공간서로,종로구,옥인동
37.58159151382518,127.00281136888354,"제나아트홀, 라온씨어터",종로구,동숭동
37.58160687387405,127.00372215137268,아트하우스,종로구,동숭동
37.58160942806738,127.00353179981704,"올래홀, 틴틴홀",종로구,동숭동
37.581650831941296,127.00426830973512,해바라기 소극장,종로구,동숭동
37.581713325991984,127.04764595789284,"해천시네마소극장, 해천시네마극장",동대문구,전농동
37.58175787959685,127.00428878024748,코델 아트홀,종로구,동숭동
37.58185094441766,127.00085224995448,소극장 무극,종로구,명륜4가
37.58187858521814,127.00229523039856,공간 아울,종로구,동숭동
37.58188515444179,127.00372546357468,댕로홀,종로구,동숭동
37.58188840251379,127.00280277878264,라온아트홀,종로구,동숭동
37.58189246634007,127.0025727627975,"바탕골소극장, 대학로바탕골소극장",종로구,동숭동
37.58189911091106,127.04787234403906,성보비디오소극장,동대문구,전농동
37.58195662696551,127.00398017558769,세우아트센터,종로구,동숭동
37.582079628044326,127.00048097427693,"대학로스티시티 후암시어터, 대학로스타시티 후암스테이",종로구,명륜4가
37.58208614028072,127.00372883378454,아르코꿈밭극장,종로구,동숭동
37.58208704631574,127.00318065007244,"대학로예술극장소극장, 대학로예술극장 대극장",종로구,동숭동
37.58227152251269,126.99695500415334,국립어린이과학과학극장,종로구,와룡동
37.5822882996304,127.003635498997,대학로 티오엠,종로구,동숭동
37.58229067369656,127.00279030102428,"하마씨어터, 드림시어터",종로구,동숭동
37.58229446012957,127.0025238033711,"아라아트홀, 마루아트홀",종로구,동숭동
37.582343463769504,126.93937096015088,안산도시자연공원,서대문구,연희동
37.582347174125736,127.00480282809966,베리컴퍼니,종로구,동숭동
37.582441955388674,126.99773825111173,창덕궁 소극장,종로구,명륜4가
37.582442173398405,127.00434809274029,JS 아트홀,종로구,동숭동
37.582491738078886,127.0032799653216,"컬쳐씨어터, 스튜디오 블루",종로구,동숭동
37.58249284582025,127.00309054942424,아트포레스트,종로구,동숭동
37.58249301146614,127.00354277705908,큐씨어터,종로구,동숭동
37.58250200696606,127.0024539457254,파랑씨어터,종로구,동숭동
37.58257258774788,127.00029289973712,피카소소극장,종로구,명륜4가
37.58258515355613,127.04873188046597,제일시네마,동대문구,전농동
37.58261551110383,126.81849421986423,꿩고개근린공원,강서구,방화동
37.58270737359412,127.00215273455288,초록씨어터,종로구,동숭동
37.58276165559319,127.00327010082415,예스24스테이,종로구,동숭동
37.58276206925742,127.00361644556465,자유극장,종로구,동숭동
37.58277364316703,127.00284762880958,스타스테이,종로구,동숭동
37.58296082396045,127.00242024531376,아루또 소극장,종로구,동숭동
37.58300546536415,127.0026460377902,"스카이씨어터, 루미나아트홀",종로구,동숭동
37.58306342423427,126.99695673261373,안똔체홉극장,종로구,명륜3가
37.58309459886304,127.00208939278586,올웨이즈 씨어터,종로구,동숭동
37.58317880752945,127.00227583538218,SA HALL,종로구,동숭동
37.58319561070719,127.0079352186181,낙산근린공원,성북구,삼선동1가
37.58329495547703,127.00329183091658,링크아트센터드림 드림,종로구,동숭동
37.5833042262108,127.00441283513992,단막극장,종로구,동숭동
37.58335163634127,127.00272978985764,상명아트홀,종로구,동숭동
37.58335368015317,126.97069801989278,경복궁아트홀,종로구,효자동
37.583414297601166,127.0032439571792,마로니에공원,종로구,동숭동
37.58346485214644,126.99984640933266,CGV 대학로,종로구,명륜2가
37.58351685408988,127.0021666523284,SKON(스콘),종로구,혜화동
37.58366935960491,127.00369891455878,대학로극장 쿼드,종로구,동숭동
37.58367864045582,127.00256104659891,아스가르드씨어터,종로구,혜화동
37.58369957276197,127.00002063340214,한성아트홀,종로구,명륜2가
37.58373184370642,127.00331987770198,동덕 코튼홀,종로구,동숭동
37.58373452418539,127.00041647120491,열린극장,종로구,명륜2가
37.58389343502334,127.00307160029342,예그린씨어터,종로구,동숭동
37.58390705836044,127.00058863796708,서연아트홀,종로구,명륜2가
37.583908127092194,126.99712612485874,스튜디오 성균,종로구,명륜3가
37.58396568770241,127.0021670939108,더굿씨어터,종로구,혜화동
37.58414520966929,126.99798717837363,성균소극장,종로구,명륜2가
37.58418597342944,126.80763325139192,개화근린공원,강서구,개화동
37.584209673458695,127.00045165880609,제이원 씨어터,종로구,명륜2가
37.58441198602487,127.00054432312632,구인 아트홀,종로구,명륜2가
37.58445324997151,126.99948512638586,씨어터 쿰,종로구,명륜2가
37.584523708527485,126.8143295971791,방화근린공원,강서구,개화동
37.58455531450679,127.0000410826792,"창조 소극장, 극장 동국",종로구,명륜2가
37.58461245103208,127.00233603180966,"링크아트센터 페이코홀, 링크아트센터 벅스홀",종로구,혜화동
37.5847353322968,126.99968735187645,즐 소극장,종로구,명륜2가
37.58483879316172,127.06644018963856,배봉산근린공원,동대문구,휘경동
37.586237974264456,127.00075737948494,맛있는 극장,종로구,혜화동
37.58639148841502,127.00134311092576,연극실험실 혜화동1번,종로구,혜화동
37.58664054961898,127.00048889354036,예술공간 혜화,종로구,혜화동
37.58680797904803,126.99675852520454,명륜아트홀,종로구,명륜1가
37.586827571531614,126.999767213818,선돌극장,종로구,명륜1가
37.58694668387342,126.96481199255793,인왕산도시자연공원,종로구,청운동
37.58699101547125,127.00174094684388,연우 소극장,종로구,혜화동
37.587104444446105,126.999792563195,눈빛극장,종로구,명륜1가
37.58718658219637,127.00190269725468,JCC ART CENTER 콘서트홀,종로구,혜화동
37.5875794103034,127.00731152337828,극장 봄,성북구,삼선동1가
37.58759731476136,127.00321731119313,소극장 공유,종로구,혜화동
37.58770519883026,126.99940762222484,나온씨어터,종로구,명륜1가
37.58872455060645,127.00516636254956,하땅세 극장,성북구,성북동1가
37.58878466985586,126.99908762734366,동숭무대 소극장,종로구,명륜1가
37.58894391728194,127.00465302762169,여행자극장,성북구,성북동1가
37.58920387517729,127.00610089278834,"서울씨어터 202, 서울씨어터 제로",성북구,동소문동1가
37.58938613202924,127.0087920033606,공간 222,성북구,동소문동2가
37.58951389214339,127.00703388247996,놀터예술공방,성북구,동소문동1가
37.58998069885021,126.99829189875074,Ground-SYN(그라운드 씬),종로구,명륜1가
37.59035790065531,126.99884224619038,아이들극장,종로구,혜화동
37.590519308409526,127.04282113390371,Space 1,동대문구,청량리동
37.5916478953334,127.01734211457268,성북마을극장,성북구,동선동1가
37.59188625440856,127.01402672579655,공감M 아트센터,성북구,동소문동5가
37.59250690362072,127.01814460165082,뜻밖의 극장,성북구,동선동1가
37.59260596532577,127.0171768197204,"CGV 성신여대입구, CGV 성신여대입구02-3415-6781,",성북구,동선동1가
37.593233617223234,127.07468156376872,메가박스중앙(주) 상봉,중랑구,상봉동
37.59414844444502,126.9937191318443,와룡근린공원,성북구,성북동
37.5944332879411,126.98301980542448,삼청근린공원,종로구,삼청동
37.59509227228543,126.91094018731228,신사근린공원,은평구,신사동
37.59543576079856,126.92964614738452,백련근린공원,은평구,응암동
37.59574399840288,126.96409971817728,부암아트홀,종로구,부암동
37.59619521273473,126.974457001293,북악산도시자연공원,종로구,부암동
37.5968233448788,127.08894320177168,상봉시네마,중랑구,상봉동
37.59714512434169,126.98432198871542,삼청각 (623-85-01944),성북구,성북동
37.59744128648893,127.09224161523464,CGV상봉,중랑구,상봉동
37.597801409876624,127.02143859916596,미아리고개 예술극장,성북구,돈암동
37.59897847509677,127.00765134868465,성북근린공원,성북구,정릉동
37.599514190126925,127.0268545788678,개운산근린공원,성북구,종암동
37.59991930044127,127.01390252936883,"아리랑시네센터(아리랑인디웨이브), 아리랑시네센터 제",성북구,돈암동
37.60375171027536,127.0221534457566,꿈빛극장,성북구,길음동
37.603799862235846,127.0558626562805,"이어령예술극장(한국예술종합학교), 예술극장소극장(한국예술종합학교)",성북구,석관동
37.60391689617586,126.92836378350164,"은평문화예술회공연장, 이동상영",은평구,녹번동
37.60500380676916,127.0507424167336,천장산우화극장,성북구,상월곡동
37.60715504943452,127.05207375886928,청량공원,성북구,석관동
37.60899466551184,127.10970961858617,중랑캠핑숲,중랑구,망우동
37.60972224389019,126.92900391163988,CGV불광제,은평구,대조동
37.61114230490784,126.9125613519884,봉산도시자연공원,은평구,구산동
37.61192620248656,127.08804593520918,봉화산근린공원,중랑구,신내동
37.61205746432323,127.03071555724016,씨브이 미아,강북구,미아동
37.61514395064936,127.0760085698951,롯데시네마 중랑,중랑구,묵동
37.6198317832088,126.9308149154524,불광근린공원,은평구,불광동
37.62014380184756,127.05734597171144,광운대학교 동해문화예술,노원구,월계동
37.62177217541858,127.04117423649456,"꿈의숲 퍼포먼스홀, 꿈의숲 콘서트홀",강북구,번동
37.62307644224682,127.04503677901153,북서울꿈의숲,강북구,번동
37.63223727644445,126.92532811111532,향림근린공원,은평구,진관동
37.63464166203455,127.03163422985187,오동근린공원,강북구,번동
37.63469157055824,126.97580230727552,북한산국립공원,고양시 덕양구,북한동
37.63569289310829,127.02381739582611,"(주)써니트수유 롯데시네마 수유, (주)쎄니트 수유롯데시네마 수유, (주)씨니트 롯데시네마 수유, (주)써니트 수유롯데시네마 수유, (주)써니트 롯데시네마 수유",강북구,번동
37.63748355795564,126.91802331576622,롯데시네마 은평,은평구,진관동
37.63882759051545,127.06475470517124,"옴니아트홀, CGV 하계 제",노원구,중계동
37.63958877076865,126.91994139637497,진근린공원(구파발폭포),은평구,진관동
37.63991947627024,127.06860854040232,CGV 중계 제,노원구,중계동
37.640042309512936,127.022328431969,명아락아트홀,강북구,수유동
37.64008671783186,127.05898432876616,서울시립노원청소년수련,노원구,상계동
37.640270714369706,126.91133904222562,서오능도시자연공원,은평구,진관동
37.64079174702857,127.0134278925971,"강북진달래홀, 강북소나무홀",강북구,수유동
37.64239193065397,127.0298526105066,"CGV 수유, CGV  수유",강북구,수유동
37.650161885369045,127.07999051007832,"노원문화예술회대공연장, 노원문화예술회소공연장",노원구,중계동
37.6515528860914,127.04184639547633,"초안산근린공원, 초안산생태공원",도봉구,창동
37.652841981571896,127.05162040240214,창동 극장,도봉구,창동
37.65410359776945,127.03862692364947,"도봉구민회하모니홀, 도봉구민회소공연장",도봉구,창동
37.65416083019098,127.0614398086207,더숲 아트시네마 제,노원구,상계동
37.654451530801566,127.06369157340949,노원 어린이극장,노원구,상계동
37.65460026953959,127.03877154396002,"메가박스 창동, 창동 메가박스",도봉구,창동
37.6546789733132,127.01267517667208,강북솔밭국악당,강북구,우이동
37.65514500389338,127.0610786422592,"롯데시네마 노원(제1), 롯데시네마 노원(제, 아르떼), 롯데시네마 노원(제)",노원구,상계동
37.65546087224038,127.01255169035367,솔밭근린공원,강북구,우이동
37.65614315239944,127.02830157690316,쌍문근린공원,도봉구,쌍문동
37.65817776228047,127.05074031407484,시립창동문화체육센터 공연장,도봉구,창동
37.662347143339,127.03033422725083,발바닥공원,도봉구,방학동
37.66533870267271,127.04366575065607,"CGV 방학 4DX, CGV 방학",도봉구,방학동
37.66655091429465,127.09388733067266,불암산도시자연공원,노원구,상계동
37.6823449651739,127.07768541049212,수락산도시자연공원,노원구,상계동
37.69155554467394,127.04682493619627,BUNKER 1-1 씨어터,도봉구,도봉동
37.69234472016536,127.0480528729308,서울창포원,도봉구,도봉동
