name,gu_name,dong_name,latitude,longitude
교촌치킨 개포1호점,강남구,개포동,37.4762590074222,127.046913045213
교촌치킨 개포2호점,강남구,개포동,37.4823213231561,127.061345590737
교촌치킨 논현1호점,강남구,논현동,37.5083534807199,127.023424827282
교촌치킨대치1호점,강남구,대치동,37.4975237029163,127.052674047201
교촌치킨 대치2호점,강남구,대치동,37.4986638278661,127.06180339151
교촌치킨 도곡점,강남구,도곡동,37.4853373905729,127.044114534021
교촌치킨삼성1호점,강남구,삼성동,37.5120431730641,127.049022724191
교촌치킨 일원본동점,강남구,수서동,37.4848961854277,127.090677682629
교촌치킨 압구정신사점,강남구,신사동,37.5275504277269,127.036296447839
교촌치킨 강남역점,강남구,역삼동,37.5008834513131,127.027484833498
교촌치킨 역삼1호점,강남구,역삼동,37.4919013970287,127.032160911124
교촌치킨 일원1동점,강남구,일원동,37.4903698111867,127.0854756091
교촌치킨 세곡점,강남구,자곡동,37.4741297968581,127.094086602214
교촌치킨청담역점,강남구,청담동,37.5199178160819,127.053868379065
교촌치킨 강일점,강동구,강동,37.5648570441991,127.174578322062
교촌치킨 상일점,강동구,강동,37.5584082222207,127.170721118622
교촌치킨 고덕1호점(서울),강동구,강동,37.5598087167904,127.151658377876
교촌치킨 길1호점,강동구,강동,37.5411130801439,127.142567129579
교촌치킨 길동역점,강동구,강동,37.5373854181526,127.138518684767
교촌치킨 둔촌1호점,강동구,강동,37.5312079801535,127.142008725427
교촌치킨 명일1호점,강동구,강동,37.5496699223528,127.146928264948
교촌치킨 상일2호점,강동구,강동,37.5485938849143,127.167800631257
교촌치킨 성내점,강동구,강동,37.5313502017009,127.127937824771
교촌치킨 암사2호점,강동구,강동,37.5550004893973,127.137506020679
교촌치킨 암사1호점,강동구,강동,37.5531292826861,127.128315120853
교촌치킨 미아역점,강북구,미아동,37.6215402161015,127.028384859941
교촌치킨 미아사거리점,강북구,미아동,37.6122493565854,127.032093291151
교촌치킨 미아1호점,강북구,미아동,37.6172043844266,127.022104374602
교촌치킨 번동점,강북구,번동,37.6272782129773,127.041041227421
교촌치킨 수유역점,강북구,번동,37.6388945537413,127.02878789705
교촌치킨 수유1호점,강북구,수유동,37.6409894123266,127.017383399185
교촌치킨 수유2호점,강북구,수유동,37.6319338778856,127.018579776587
교촌치킨 수유2호점,강북구,수유동,37.6319338778856,127.018579776587
교촌치킨 덕성여대점,강북구,우이동,37.6501952241106,127.01313060536
교촌치킨 발산점,강서구,내발산동,37.5574915054029,126.843758715445
교촌치킨 가양점,강서구,등촌동,37.5612927127993,126.853960029542
교촌치킨 마곡역점,강서구,마곡동,37.5597215791437,126.830889261353
교촌치킨 마곡1호점,강서구,마곡동,37.5638853086615,126.839508697804
교촌치킨 방화1호점,강서구,방화동,37.5736279995936,126.813662630224
교촌치킨 방화2호점,강서구,방화동,37.5705636069573,126.812340211069
교촌치킨 염창점,강서구,염창동,37.550524969652,126.872953745882
교촌치킨 화곡본동점,강서구,화곡동,37.5444367779308,126.845474260848
교촌치킨 까치산역점,강서구,화곡동,37.5307752664887,126.846775794657
교촌치킨 화곡2호점,강서구,화곡동,37.5382629085939,126.8409617901
교촌치킨 강서구청점,강서구,화곡동,37.5495847391992,126.847289201743
교촌치킨 봉천3호점,관악구,봉천동,37.4759503923417,126.964086109576
교촌치킨 봉천2호점,관악구,봉천동,37.479283361279,126.958707344593
교촌치킨 봉천1호점,관악구,봉천동,37.4818887916789,126.952208106801
교촌치킨 봉천4호점,관악구,봉천동,37.483278958933,126.941221997173
교촌치킨 신림2호점,관악구,신림동,37.4772691292269,126.915750023639
교촌치킨 신림3호점,관악구,신림동,37.4698774759589,126.938996703722
교촌치킨 신림1호점,관악구,신림동,37.4859262317109,126.91342466271
교촌치킨 신림4호점,관악구,신림동,37.4718694738169,126.9193747253
교촌치킨 광장점,광진구,광장동,37.5418155218107,127.095758332396
교촌치킨 구의역점,광진구,구의동,37.5389680420214,127.085118513944
교촌치킨 자양1호점,광진구,자양3동,37.5310473026211,127.074803573106
교촌치킨 자양2호점,광진구,자양동,37.5346469547974,127.082035011802
교촌치킨 중곡2호점,광진구,중곡동,37.5633552966476,127.086686138269
교촌치킨 중곡1호점,광진구,중곡동,37.5626720288457,127.080510919083
교촌치킨 건대점,광진구,화양동,37.5416989017267,127.069387756676
교촌치킨 고척1호점,구로구,개봉1동,37.5024310564826,126.848370107295
교촌치킨 개봉1호점,구로구,개봉동,37.4884064827094,126.856477004424
교촌치킨 동양미래대학점,구로구,고척동,37.5029451933791,126.86314728276
교촌치킨 남구로점,구로구,구로동,37.4916817062163,126.882286556478
교촌치킨 구로2호점,구로구,구로동,37.4961099448584,126.893059422957
교촌치킨 구로디지털점,구로구,구로동,37.4819878607669,126.897677914807
교촌치킨 신도림1호점,구로구,신도림동,37.5056826985762,126.8828227159
교촌치킨 오류1호점,구로구,오류동,37.4955092589166,126.842108689122
교촌치킨 천왕역점,구로구,오류동,37.4894913590551,126.837597505503
교촌치킨 항동점,구로구,항동,37.4815962489099,126.820274314632
교촌치킨 가산디지털점,금천구,가산동,37.480175157719,126.88106852752
교촌치킨 독산2동점,금천구,독산동,37.4612582799071,126.898465172887
교촌치킨 독산1호점,금천구,독산동,37.4773866226526,126.903943505919
교촌치킨 시흥2호점,금천구,시흥1동,37.4500476984584,126.903847942915
교촌치킨 시흥1호점,금천구,시흥2동,37.4502027219615,126.913471500612
교촌치킨 공릉1호점,노원구,공릉동,37.6229719902338,127.079163132733
교촌치킨 공릉2호점,노원구,공릉동,37.6302355418912,127.075765100149
교촌치킨 공릉3호점,노원구,공릉동,37.6230902829774,127.073461747285
교촌치킨 수락산역점,노원구,상계동,37.6759882215751,127.055002238964
교촌치킨 상계보람점,노원구,상계동,37.6631612640087,127.066178536257
교촌치킨 상계4단지점,노원구,상계동,37.6500654838418,127.062217257976
교촌치킨 석계역점,노원구,월계동,37.6175367717199,127.063869105502
교촌치킨 인덕대점,노원구,월계동,37.6302464149326,127.057463536772
교촌치킨 중계1호점,노원구,중계1동,37.6495968537297,127.076377520831
교촌치킨 상계역점,노원구,중계동,37.662033497416,127.075494801587
교촌치킨 중계역점,노원구,중계동,37.6420263458055,127.064108404044
교촌치킨 하계1호점,노원구,하계1동,37.6393888471761,127.071555308755
교촌치킨 도봉동점,도봉구,도봉2동,37.6717042887388,127.046297336107
교촌치킨 방학점,도봉구,방학동,37.6669900017538,127.038800201279
교촌치킨 쌍문1호점,도봉구,방학동,37.660948040298,127.035304010246
교촌치킨 쌍문역점,도봉구,쌍문3동,37.6507186457186,127.035612604195
교촌치킨 창동점,도봉구,창5동,37.6542013260365,127.041089017939
교촌치킨 창3동점,도봉구,창동,37.640744297404,127.040390685884
교촌치킨 답십리1호점,동대문구,답십리동,37.5722791918527,127.057125105028
교촌치킨 용두점,동대문구,용두동,37.5756713714521,127.039171059501
교촌치킨 신이문점,동대문구,이문동,37.6028163670273,127.062776273894
교촌치킨 장안2호점,동대문구,장안동,37.5672480612268,127.068114957286
교촌치킨 장안1호점,동대문구,전농동,37.5812915700481,127.068156052664
교촌치킨 시립대점,동대문구,전농동,37.5769482070059,127.057555684241
교촌치킨 안암점,동대문구,제기동,37.5861124050634,127.032806672972
교촌치킨 청량리역점,동대문구,청량리동,37.5840400654092,127.049289650916
교촌치킨 경희대점,동대문구,회기동,37.5929134704315,127.051447100242
교촌치킨 노량진점,동작구,노량진동,37.5123712780376,126.938558112383
교촌치킨 신대방삼거리점,동작구,대방동,37.4993625887146,126.927181199088
교촌치킨 사당1호점,동작구,사당동,37.4841928799441,126.977415108331
교촌치킨 사당3호점,동작구,사당동,37.4858320034565,126.969442624287
교촌치킨 상도터널점,동작구,상도동,37.500482685615,126.949570300753
교촌치킨 숭인점,종로구,숭인동,37.5746080350531,127.020069984012
교촌치킨 동대문1호점,종로구,창신동,37.5712693569891,127.010710614922
교촌치킨 평창점,종로구,평창동,37.6068210649059,126.9692177715
교촌치킨 안국점,종로구,화동,37.5793394819854,126.98254592351
교촌치킨 신당1호점,중구,동화동,37.5623955702618,127.017282610735
교촌치킨 약수점,중구,신당동,37.5561801473789,127.01117586544
교촌치킨 서울시청점,중구,,37.5637362459791,126.977348333003
교촌치킨 면목2호점,중랑구,면목동,37.5897105738561,127.073645640137
교촌치킨 사가정역점,중랑구,면목동,37.5815202015687,127.088214170534
교촌치킨 면목1호점,중랑구,면목본동,37.5893674362589,127.09274845485
교촌치킨 묵동점,중랑구,묵동,37.6125959140292,127.077579405881
교촌치킨 상봉1호점,중랑구,상봉동,37.5967449204466,127.088664814949
교촌치킨 신내1호점,중랑구,신내동,37.6060544878653,127.097141297689
교촌치킨 중화점,중랑구,중화동,37.5995872507716,127.078794439121
네네치킨 대치점,강남구,대치동,37.5039585509104,127.057041795103
네네치킨 도곡점,강남구,도곡동,37.4922748332904,127.043511837517
네네치킨 신사점,강남구,신사동,37.5236189515802,127.027050625751
네네치킨 역삼1호점,강남구,역삼동,37.4933107076947,127.036060836823
네네치킨 강일점,강동구,강동,37.5639436159872,127.176396335744
네네치킨 고덕1점,강동구,강동,37.5606802780789,127.158429736377
네네치킨 명일점,강동구,강동,37.5488793154028,127.15467410068
네네치킨 성내점,강동구,강동,37.5358542657791,127.127305012696
네네치킨 삼각산점,강북구,미아동,37.6164370857428,127.019106343353
네네치킨 수유점,강북구,미아동,37.6294863788585,127.018959126961
네네치킨 미아점,강북구,미아동,37.6235362105345,127.024608187412
네네치킨 번동점,강북구,번동,37.6366528215594,127.031571971166
네네치킨 수유2점,강북구,수유동,37.6407082473446,127.015191495448
네네치킨 가양등촌1점,강서구,가양2동,37.563886880883,126.851664193651
네네치킨 수명산파크점,강서구,내발산동,37.5497800567849,126.823130409992
네네치킨 등촌3동점,강서구,등촌3동,37.5608216490139,126.846138304258
네네치킨 등촌2점,강서구,등촌동,37.5487681842566,126.86279071326
네네치킨 방화1점,강서구,방화동,37.572962345226,126.815440505313
네네치킨 방화2점,강서구,방화동,37.5675606340174,126.811913089547
네네치킨 화곡1동점,강서구,화곡1동,37.5330966651796,126.839098718985
네네치킨 까치산점,강서구,화곡동,37.5319773056224,126.849166652272
네네치킨 화곡남부시장점,강서구,화곡동,37.5338272533544,126.858796847432
네네치킨 인헌점,관악구,봉천동,37.4718383609731,126.967178447674
네네치킨 봉천현대점,관악구,봉천동,37.4828189883764,126.949174241108
네네치킨 봉천점,관악구,봉천동,37.4867783679595,126.940826790744
네네치킨 신림점,관악구,신림동,37.4794236148179,126.92756064336
네네치킨 신림2점,관악구,신림동,37.4702784892158,126.93911993582
네네치킨 신림남부점,관악구,신림동,37.4820678482537,126.910885659499
네네치킨 난곡점,관악구,신림동,37.4740614695182,126.916418926494
네네치킨 어린이대공원점,광진구,구의동,37.5451609771723,127.087453549593
네네치킨 군자송정점,광진구,군자동,37.5545986020394,127.072220189101
네네치킨 자양2점,광진구,자양동,37.5312806917816,127.079582478644
네네치킨 중곡1점,광진구,중곡동,37.566450406731,127.081747737461
네네치킨 중곡2호점,광진구,중곡동,37.5606323818813,127.075418853709
네네치킨 개봉점,구로구,개봉동,37.488076895493,126.854342957179
네네치킨 남구로점,구로구,구로3동,37.486452625569,126.889378430017
네네치킨 구로테크노마트점,구로구,구로동,37.5056956285862,126.891648310229
네네치킨 구로1점,구로구,구로동,37.4942558865672,126.882290771379
네네치킨 오류1점,구로구,궁동,37.4934222011953,126.83334274326
네네치킨 신도림점,구로구,신도림동,37.5092533955707,126.878294351092
네네치킨 가산독산1동점,금천구,독산동,37.4721533369929,126.892493732789
네네치킨 독산점,금천구,독산동,37.477397400966,126.90763011933
네네치킨 시흥2점,금천구,시흥동,37.4498876980337,126.913677436126
네네치킨 금천점,금천구,시흥동,37.4504435358938,126.904989565178
네네치킨 공릉역점,노원구,공릉동,37.6250029900113,127.071997010173
네네치킨 상계마들점,노원구,상계동,37.6691340218574,127.057453609395
네네치킨 상계중앙점,노원구,상계동,37.6467588131781,127.059543968423
네네치킨 중계4동점,노원구,중계동,37.6608283160944,127.074833075708
네네치킨 중계2동점,노원구,중계동,37.643666580541,127.062780835281
네네치킨 하계1점,노원구,하계동,37.6346261448783,127.070967847386
네네치킨,노원구,하계동,37.6406631481142,127.074406088309
네네치킨 방학1점,도봉구,방학동,37.6682004222422,127.041067151597
네네치킨 방학2호점,도봉구,방학동,37.6626632314973,127.039313967598
네네치킨 쌍문점,도봉구,쌍문동,37.6463850564145,127.025711782782
네네치킨 신창점,도봉구,창동,37.6343923555163,127.040906469208
네네치킨 창동점,도봉구,창동,37.6396524394479,127.036374142188
네네치킨 전농점,동대문구,답십리동,37.5736609410493,127.057898756604
네네치킨 용두1호점,동대문구,용두동,37.5771845144737,127.035721439041
네네치킨 신이문점,동대문구,이문1동,37.5982559817235,127.067547581713
네네치킨 장안점,동대문구,장안동,37.5675229287284,127.070763777936
네네치킨 청량리점,동대문구,청량리동,37.5848045094553,127.043936878731
네네치킨 노량진점,동작구,노량진동,37.5096291040511,126.947804247748
네네치킨 사당이수점,동작구,사당동,37.4864639521812,126.976444064691
네네치킨 상도2호점,동작구,상도동,37.4978875109605,126.934825124403
네네치킨 상도1점,동작구,상도동,37.4982784555561,126.951049151841
네네치킨 홍대역점,마포구,동교동,37.5571839948083,126.922629167691
네네치킨 마포역점,마포구,마포동,37.5371402048809,126.94576497541
네네치킨 망원점,마포구,망원동,37.5532525665268,126.906312759105
네네치킨 상암점,마포구,상암동,37.5748398903005,126.891577074081
네네치킨 서교점,마포구,서교동,37.5580611500724,126.91723287329
네네치킨 성산점,마포구,성산동,37.5666352158238,126.90903429941
네네치킨 이대역점,서대문구,대현동,37.5570075209175,126.941470840305
네네치킨 북가좌2점,서대문구,북가좌동,37.5807333462224,126.915078837658
네네치킨 연희점,서대문구,연희동,37.5659800750065,126.930468501674
네네치킨 홍은1점,서대문구,홍제동,37.5968394685525,126.948387023738
네네치킨 홍제1점,서대문구,홍제동,37.5883117285001,126.943215107788
네네치킨 반포2점,서초구,반포동,37.5069508582582,127.021684343904
네네치킨 방배본동점,서초구,방배동,37.4940232561865,126.98488869903
네네치킨 서초중앙점,서초구,서초4동,37.4961568493699,127.019371711621
네네치킨 우면점,서초구,우면동,37.4628058563393,127.021707420516
네네치킨 잠원점,서초구,잠원동,37.5152555785142,127.017438235943
네네치킨 금호점,성동구,성동,37.5483503995824,127.024274062526
네네치킨 한양점,성동구,성동,37.5631629452164,127.041533245607
네네치킨 성수2가점,성동구,성동,37.5393227023285,127.046856463635
네네치킨 행당점,성동구,성동,37.5519723830491,127.033271987997
네네치킨 행당1점,성동구,성동,37.5603366542237,127.032147974084
네네치킨 동소문점,성북구,동소문동,37.5968553478838,127.013051020267
네네치킨 석관점,성북구,석관동,37.6111148736131,127.063892267387
네네치킨 장위2동점,성북구,장위동,37.61074075332,127.052839528818
네네치킨 정릉점,성북구,정릉동,37.6124162260091,127.008459135574
네네치킨 종암점,성북구,종암동,37.5978172387174,127.032639577143
네네치킨 가락점,송파구,가락동,37.4959855003586,127.134548266419
네네치킨 거여점,송파구,거여동,37.4989509626047,127.143520896178
네네치킨 문정장지점,송파구,문정동,37.4842156374239,127.129886147117
네네치킨 송파방이2점,송파구,방이동,37.5115630534923,127.121507050642
네네치킨 삼전점,송파구,삼전동,37.5030601573429,127.087523847226
네네치킨 잠실1호점,송파구,신천동,37.51656737837,127.104184316695
네네치킨 잠실새내역점,송파구,잠실동,37.5121056958967,127.08418788676
네네치킨 목4동점,양천구,목동,37.5329329936805,126.869106084462
네네치킨 화곡3동점,양천구,신월5동,37.540469071414,126.833301221745
네네치킨 신월1동점,양천구,신월동,37.5362461552015,126.83252098894
네네치킨 봉구스밥버거 신월3점,양천구,신월동,37.5186658209107,126.836895975546
네네후라이드치킨,양천구,신정4동,37.5231612887119,126.85655027621
네네치킨 목동3점,양천구,신정7동,37.5130367922481,126.86113248111
네네치킨 신정1점,양천구,신정동,37.5198248258578,126.859656815261
네네치킨 합정점,양천구,신정동,37.5190486574855,126.875616204659
네네치킨 당산동점,영등포구,당산동,37.523910071363,126.898264033356
네네치킨 은행나무점,영등포구,대림동,37.49889955372,126.899954599208
네네치킨 영등포점,영등포구,신길동,37.5056031140111,126.905185825297
네네치킨 영등포푸르지오점,영등포구,영등포동,37.5239607571176,126.902706977756
네네치킨 보광점,용산구,보광동,37.5286937841746,126.998795926263
네네치킨 원효점,용산구,용문동,37.5383826313422,126.959570226817
네네치킨 숙대점,용산구,청파동,37.5493200883961,126.969641695165
네네치킨 갈현점,은평구,갈현동,37.623537824273,126.91926206403
네네치킨 불광점,은평구,불광동,37.6237643591416,126.929723160299
네네치킨 역촌점,은평구,역촌동,37.6066167917492,126.917924065356
네네치킨 응암점,은평구,응암동,37.5969704510657,126.920056481811
네네치킨 녹번점,은평구,응암동,37.5986184438228,126.926703301824
네네치킨 종로점,종로구,낙원동,37.5718008087131,126.989794738486
네네치킨 창신점,종로구,숭인동,37.5755650823966,127.015853512644
네네치킨 신당1호점,중구,동화동,37.5623955702618,127.017282610735
네네치킨 약수역점,중구,신당동,37.5594762280679,127.014795044335
네네치킨 묵동점,중랑구,묵동,37.6063969081352,127.077610226662
네네치킨 상봉동점,중랑구,상봉동,37.5938346489552,127.090771542909
네네치킨 신내동점,중랑구,신내동,37.6078116663091,127.098902509183
BBQ치킨 신사가로수길점,강남구,신사동,37.5187724849651,127.020668911004
BBQ치킨 압구정점,강남구,압구정동,37.5312147011021,127.035439289396
BBQ치킨 서울강일점,강동구,강동,37.5656181250167,127.172979837621
BBQ치킨 고덕센트럴점,강동구,강동,37.5582786078506,127.169944651531
BBQ치킨 고덕점,강동구,강동,37.5592417554642,127.152888276647
BBQ치킨 강동길동점,강동구,강동,37.5379126488825,127.146316942835
BBQ치킨 둔촌점,강동구,강동,37.5286895228591,127.137576723731
BBQ치킨 명일중앙점,강동구,강동,37.5526237542104,127.142516398672
BBQ치킨 명일점,강동구,강동,37.5492698491843,127.147530530171
BBQ치킨 상일점,강동구,강동,37.5497664771706,127.171601178428
BBQ치킨 성내점,강동구,강동,37.5307114183171,127.134562198056
BBQ치킨 둔촌시장점,강동구,강동,37.5278675978718,127.13240181941
BBQ치킨 암사역점,강동구,강동,37.5506355970409,127.125798107622
BBQ암사2점,강동구,강동,37.5489076024345,127.1364804306
BBQ치킨 천호공원점,강동구,강동,37.5447764606541,127.131939371163
BBQ치킨 천호역점,강동구,강동,37.5433911876636,127.122910098182
BBQ치킨 천호점,강동구,강동,37.5386835984306,127.134209923581
BBQ치킨 강북스타삼양점,강북구,미아동,37.6232764309598,127.018875764376
BBQ치킨 강북스타3호점,강북구,미아동,37.6185549827482,127.01889337334
BBQ치킨 번동점,강북구,번동,37.6287073587611,127.039721910801
BBQ치킨 강북스타번동점,강북구,번동,37.6288125342481,127.039898917171
BBQ치킨 강북스타점,강북구,번동,37.6374871183246,127.03095020665
BBQ피자,강북구,번동,37.6374871183246,127.03095020665
BBQ치킨 수유점,강북구,수유동,37.6446221098791,127.020621130047
BBQ치킨 발산점,강서구,내발산동,37.5529964021751,126.833581483693
BBQ치킨 신방화점,강서구,마곡동,37.5627520394876,126.823596853073
BBQ치킨 발산사거리점,강서구,마곡동,37.558407766922,126.83491434014
BBQ치킨 방화점,강서구,방화동,37.5663908238145,126.812618939274
BBQ방화역점,강서구,방화동,37.5783891414189,126.812482347006
BBQ치킨 염창점,강서구,염창동,37.5544216878765,126.867296353288
BBQ치킨 강서화곡점,강서구,화곡동,37.5442982207513,126.836065140449
BBQ치킨 우장산점,강서구,화곡동,37.5481776604121,126.843036379253
BBQ치킨 까치산점,강서구,화곡동,37.5362100328924,126.84728083923
BBQ치킨 화곡행복점,강서구,화곡동,37.542594702648,126.847148326386
BBQ치킨 화곡2점,강서구,화곡동,37.5354855931975,126.862968701068
BBQ치킨 화곡곰달래점,강서구,화곡동,37.5314640477931,126.857395801491
BBQ치킨 강서구청점,강서구,화곡동,37.5499373584413,126.851861816481
BBQ치킨 사당역점,관악구,남현동,37.4757010045848,126.981287468003
BBQ치킨 청룡점,관악구,봉천동,37.4793172314878,126.941239119642
BBQ치킨 봉천우성점,관악구,봉천동,37.4783131323573,126.947120900631
BBQ서울대점,관악구,봉천동,37.4775463240912,126.955055242378
BBQ신림3점,관악구,봉천동,37.4738335775667,126.966604976053
BBQ치킨 봉천중앙점,관악구,봉천동,37.4895920965132,126.955554597324
BBQ치킨 봉천사랑점,관악구,봉천동,37.4853477294289,126.956799271622
BBQ치킨 보라매공원점,관악구,봉천동,37.4875743594833,126.946785676344
BBQ치킨 보라매공원점,관악구,봉천동,37.4913816097071,126.926820996427
BBQ치킨 관악행복점,관악구,봉천동,37.4857237379544,126.93784364281
BBQ치킨 신림5점,관악구,봉천동,37.4880616256545,126.932030390783
BBQ치킨 신림점,관악구,신림동,37.471354022924,126.935878700595
BBQ치킨 관악봉천점,관악구,신림동,37.4783459660678,126.91492655154
BBQ참숯바베큐치킨 독산점,관악구,신림동,37.4693869604607,126.934606607017
BBQ치킨 신림호암로점,관악구,신림동,37.4688926677555,126.933319933143
BBQ치킨 관악조원점,관악구,신림동,37.4639892136607,126.919477911507
BBQ치킨 난곡점,관악구,신림동,37.4890620162459,126.917334390677
BBQ치킨 낙성대점,관악구,신림동,37.4829798203016,126.916520813278
BBQ치킨 청룡스마트점,관악구,신림동,37.4825496603587,126.910823015532
BBQ치킨 서울대글로벌공학관점,관악구,신림동,37.4533586464502,126.957162385713
BBQ참숯바베큐 광나루점,광진구,광장동,37.5449488629893,127.103006566384
BBQ치킨 광나루점,광진구,광장동,37.54257313525,127.095246940713
BBQ치킨 구의역점,광진구,구의동,37.543411868098,127.090207739019
BBQ구의점,광진구,구의동,37.55206635155,127.092610318547
BBQ치킨 동서울터미널점,광진구,구의동,37.5339176560567,127.093585434282
BBQ치킨 군자점,광진구,군자동,37.5518200000947,127.071355395184
BBQ치킨 군자중앙점,광진구,군자동,37.5579798007579,127.075491442937
BBQ치킨 자양3점,광진구,자양동,37.5358142740849,127.068334027918
BBQ치킨 뚝섬점,광진구,자양동,37.5314694162101,127.076499919697
BBQ치킨 자양강변점,광진구,자양동,37.5313227326474,127.081615366559
BBQ치킨 중곡점,광진구,중곡동,37.5638638276176,127.079236821102
BBQ치킨 중곡중앙점,광진구,중곡동,37.5688661073555,127.086494548803
BBQ치킨 아차산역점,광진구,중곡동,37.5565577294297,127.091227445747
BBQ치킨 화양점,광진구,화양동,37.5467363340431,127.067617395278
BBQ치킨 개봉점,구로구,개봉동,37.4900317150933,126.855071318842
BBQ치킨 개봉1동점,구로구,개봉동,37.500986432859,126.845486606955
BBQ치킨 고척사거리점,구로구,고척동,37.5063329206083,126.85814008342
BBQ치킨 고척근린시장점,구로구,고척동,37.5020266404891,126.850740214602
BBQ 고척점,구로구,고척동,37.5034407159348,126.864214218716
BBQ치킨 구로점,구로구,구로동,37.4909372032741,126.886240518929
BBQ치킨 이수경문점,구로구,구로동,37.5011525300273,126.891397366533
BBQ치킨 수궁점,구로구,궁동,37.4962801477013,126.830023260853
BBQ치킨 신도림점,구로구,신도림동,37.5039563124013,126.881857090192
BBQ치킨 구로항동점,구로구,항동,37.4770669245695,126.819888678476
BBQ치킨 가산점,금천구,가산동,37.47887624747,126.889593329355
BBQ치킨 신길뉴타운점,금천구,가산동,37.4756903156796,126.892466282068
BBQ치킨 가산디지털점,금천구,독산동,37.4541125371794,126.889819840674
BBQ치킨 방배본점,금천구,독산동,37.4581631600298,126.899774249093
BBQ치킨 과천점,금천구,독산동,37.4599188671036,126.897250450783
BBQ치킨 대림신풍점,금천구,독산동,37.4694361266526,126.904741141257
BBQ치킨 서초방배점,금천구,시흥동,37.4479160600139,126.918442104095
BBQ치킨 동작국사봉점,금천구,시흥동,37.4497987101786,126.908568289853
BBQ치킨 독산행복점,금천구,시흥동,37.4476258903373,126.903659037344
BBQ치킨 공릉역점,노원구,공릉동,37.6244535619809,127.072007241656
BBQ치킨 공릉점,노원구,공릉동,37.6272598947869,127.078325427581
BBQ치킨 태릉입구역점,노원구,공릉동,37.6194524165869,127.075522858472
BBQ치킨 공릉스타점,노원구,공릉동,37.6284095507027,127.069253048767
BBQ치킨 상계수락점,노원구,상계동,37.6749926129299,127.052083981511
BBQ치킨 상계점,노원구,상계동,37.6597839375192,127.069159557523
BBQ치킨 상계보람점,노원구,상계동,37.662559645323,127.069678943634
BBQ치킨 노원스타점,노원구,상계동,37.6562227998633,127.069935824703
BBQ치킨 마들점,노원구,상계동,37.6678106608951,127.058736547193
BBQ치킨 노원역점,노원구,상계동,37.6435227419863,127.060795691883
비비큐치킨월계행복점,노원구,월계동,37.633265629022,127.057626735167
BBQ치킨 월계스마트점,노원구,월계동,37.633265629022,127.057626735167
BBQ치킨 월계광운대점,노원구,월계동,37.6208942498512,127.058768939258
BBQ치킨 중계중앙점,노원구,중계동,37.6485882715667,127.074295126943
BBQ치킨 중계은행점,노원구,중계동,37.6517358047917,127.077592907829
BBQ치킨 중계역점,노원구,중계동,37.6420263458055,127.064108404044
BBQ치킨 하계스마트점,노원구,하계동,37.6346261448783,127.070967847386
BBQ치킨 하계점,노원구,하계동,37.6398521168624,127.073920463419
BBQ도봉1점,도봉구,도봉동,37.6837336047749,127.045403876432
BBQ치킨 방학역점,도봉구,도봉동,37.6711416874893,127.041536903004
BBQ치킨 도봉한신점,도봉구,도봉동,37.6837902451936,127.050782658569
BBQ치킨 도봉역점,도봉구,도봉동,37.674550924771,127.047676582579
BBQ치킨 방학점,도봉구,방학동,37.6648322885768,127.036396286535
BBQ치킨 방학1동점,도봉구,방학동,37.6640160368683,127.044915277439
BBQ치킨 쌍문행복점,도봉구,쌍문동,37.6562644340465,127.028042682696
BBQ치킨 쌍문중앙점,도봉구,쌍문동,37.6488061870636,127.027281915047
BBQ치킨 쌍문점,도봉구,쌍문동,37.6582153090815,127.038361923704
BBQ치킨 창동본점,도봉구,창동,37.6526357942716,127.049281240655
BBQ치킨 창동행복점,도봉구,창동,37.6408906953718,127.038264410712
BBQ치킨 창동점,도봉구,창동,37.6558003021092,127.042854036995
BBQ치킨 동대문스타점,동대문구,답십리동,37.5731237647258,127.066297900267
BBQ치킨 답십리점,동대문구,답십리동,37.5725531724314,127.051055232208
BBQ치킨 안암오거리점,동대문구,용두동,37.5820176851435,127.028924481217
BBQ치킨 용두점,동대문구,용두동,37.5771845144737,127.035721439041
BBQ치킨 동대문장안점,동대문구,장안동,37.5761760598683,127.071104334599
BBQ치킨 장안행운점,동대문구,장안동,37.5691731439193,127.071590863689
BBQ치킨 장한평역점,동대문구,장안동,37.5623318745324,127.063241316176
BBQ치킨 휘경점,동대문구,전농동,37.5867254511575,127.054663743087
BBQ치킨 전농점,동대문구,전농동,37.5780814671623,127.060811048385
BBQ치킨 전농행복점,동대문구,전농동,37.5765053861743,127.049358607062
BBQ치킨 청량리홍릉점,동대문구,제기동,37.5904802066911,127.040714735219
BBQ치킨 이문동점,동대문구,휘경동,37.5916425217773,127.057333408875
BBQ독산시흥본점,동작구,대방동,37.4995832237623,126.925843368514
BBQ치킨 시흥사랑점,동작구,사당동,37.4928101805545,126.978716312145
BBQ상도점,동작구,상도1동,37.5003356009964,126.951848713161
BBQ치킨 신대방삼거리역점,동작구,상도동,37.4976176978927,126.943470445258
BBQ치킨 대림점,동작구,신대방동,37.496419569773,126.927961510639
BBQ치킨 사당점,동작구,신대방동,37.4890672273889,126.909801567821
BBQ상암점,마포구,상암동,37.5742846533291,126.896137421556
BBQ올떡 성산점,마포구,성산동,37.5721152959697,126.901892164797
BBQ치킨 마포가좌역점,마포구,중동,37.568595865667,126.911275291378
BBQ치킨 가재울로점,서대문구,남가좌동,37.5758742954143,126.920929430283
BBQ치킨 남가좌점,서대문구,남가좌동,37.5703729740779,126.917208837089
BBQ치킨 독립문점,서대문구,냉천동,37.5668398010479,126.963888126733
BBQ치킨 북가좌점,서대문구,북가좌동,37.5807361977226,126.907714307142
BBQ치킨 명지대점,서대문구,홍은동,37.5807814088576,126.925978123131
BBQ치킨 홍제점,서대문구,홍제동,37.5916454134236,126.947325020909
BBQ치킨 신대방1점,서초구,방배4동,37.4893331234914,126.990719150119
BBQ맘앤팜 독산점,서초구,방배동,37.477111958465,126.984183588407
BBQ치킨 가산디지털단지점,서초구,방배동,37.4922937449873,126.988663817292
BBQ치킨 금호중앙점,성동구,성동,37.5538066348893,127.019585238843
BBQ금호점,성동구,성동,37.5479064805227,127.025121162125
BBQ치킨 마장행복점,성동구,성동,37.5699123566822,127.0373336013
BBQ치킨 왕십리행운점,성동구,성동,37.5693369136369,127.025374102832
BBQ치킨 성수3점,성동구,성동,37.5382093407897,127.050136925236
BBQ치킨 성수2점,성동구,성동,37.5502685721828,127.048221527533
BBQ치킨 성수중앙점,성동구,성동,37.5436964710983,127.062516198979
BBQ치킨 옥수점,성동구,성동,37.5423516867579,127.012326609436
BBQ치킨 용답답십리역점,성동구,성동,37.5643346376629,127.052321163322
BBQ치킨 행당점,성동구,성동,37.5606675527603,127.028803044406
BBQ치킨 행당스마트점,성동구,성동,37.5589043659348,127.036981442309
BBQ길음점,성북구,길음동,37.6097839467601,127.022498912811
BBQ치킨 길음역점,성북구,길음동,37.6027726439023,127.023775903506
BBQ치킨 성신여대점,성북구,동선동,37.5938738834221,127.017822755444
BBQ치킨 성북스타점,성북구,보문동,37.5805121458516,127.021679961494
BBQ치킨 한성대역점,성북구,삼선동,37.5874522573946,127.008938634518
BBQ석계점,성북구,석관동,37.6126556534515,127.068705662251
BBQ치킨 석관점,성북구,석관동,37.6113646868006,127.061922244547
BBQ치킨 석관행복점,성북구,석관동,37.6052389995079,127.061827473375
BBQ치킨 장위행복점,성북구,장위동,37.6137952870528,127.043572577752
BBQ치킨 장위뉴타운점,성북구,장위동,37.6229359758151,127.04846076963
BBQ치킨 정릉풍림스타점,성북구,정릉동,37.617198436793,127.009210976584
BBQ치킨 정릉점,성북구,정릉동,37.612575685433,127.009823821882
BBQ치킨 하월곡점,성북구,하월곡동,37.607033098723,127.038365407563
BBQ치킨 송파나루점,송파구,방이동,37.5109784346778,127.11405478483
BBQ치킨 방이점,송파구,방이동,37.5097072633778,127.118483820947
BBQ치킨 방이스타점,송파구,방이동,37.5129828118767,127.109868045703
BBQ치킨 빌리지 송리단길점,송파구,송파동,37.5107193382697,127.106990711098
BBQ치킨 잠실파크리오점,송파구,신천동,37.5202806230341,127.113159343252
BBQ치킨 오금점,송파구,오금동,37.5106688701612,127.128182001188
BBQ치킨 잠실한강공원점,송파구,잠실동,37.5177740347208,127.082348760182
BBQ치킨 풍납점,송파구,풍납동,37.5274991845983,127.115390330551
BBQ치킨 등촌역점(치킨앤비어),양천구,목동,37.5498735537209,126.864607811947
BBQ치킨 등촌역점,양천구,목동,37.5498735537209,126.864607811947
BBQ치킨 목동남로점,양천구,목동,37.540970880896,126.865478091719
BBQ치킨 목동한청점,양천구,목동,37.539294276063,126.869225539108
BBQ목동역점,양천구,목동,37.5244456127677,126.868582885117
BBQ올떡 신월본점,양천구,신월동,37.523328012312,126.840092912064
BBQ치킨 신월동점,양천구,신월동,37.5346001297256,126.834381438807
BBQ치킨 신월사랑점,양천구,신월동,37.5170637421052,126.840186930998
BBQ치킨 목동오거리점,양천구,신정동,37.5239904652154,126.863688280065
비비큐 양천신정점,양천구,신정동,37.5202966397095,126.873414624353
BBQ치킨 양천구청점,양천구,신정동,37.5150554982334,126.860756714498
BBQ치킨 신정행복점,양천구,신정동,37.5241400678709,126.851967253514
BBQ치킨 당산행운점,영등포구,당산동,37.5237697570662,126.89719088968
BBQ치킨 석수역점,영등포구,대림동,37.4977591593667,126.898067920388
BBQ하안3점,영등포구,대림동,37.4924052419164,126.903483497243
BBQ치킨 영등포도림점,영등포구,도림동,37.5114881618933,126.900531836541
BBQ문래점,영등포구,문래동,37.5202712993044,126.888882715817
BBQ신길사러가점,영등포구,신길동,37.5070444574988,126.910387403707
BBQ치킨 과천부림점,영등포구,신길동,37.4986586814638,126.914481583044
BBQ치킨 선유도역점,영등포구,양평동,37.5356645579006,126.89622166872
BBQ치킨 영등포중앙점,영등포구,영등포동,37.5192559175485,126.90720457533
BBQ치킨 영등포본점,영등포구,영등포동,37.5221433963901,126.904759239458
BBQ치킨 보광점,용산구,보광동,37.5285919717937,126.998878854222
BBQ치킨 은평갈현로점,은평구,갈현동,37.6246255821859,126.91692056145
BBQ치킨 연신내점,은평구,갈현동,37.6188467450999,126.915405897867
BBQ구산점,은평구,구산동,37.610302593766,126.91404981745
BBQ치킨 응암역점,은평구,녹번동,37.6030255632578,126.921812100617
BBQ치킨 녹번점,은평구,녹번동,37.6052356283302,126.92853325079
BBQ치킨 은평대조점,은평구,대조동,37.6141405998657,126.919639534487
BBQ치킨 불광1동점,은평구,불광동,37.6161599904865,126.933234632651
BBQ신사2동점,은평구,신사동,37.5905592645479,126.908982544354
BBQ치킨 역촌점,은평구,역촌동,37.6045714846304,126.906573343381
BBQ치킨 응암점,은평구,응암동,37.5979715790142,126.922406791727
BBQ응암2점,은평구,응암동,37.5871209894397,126.921263992083
BBQ치킨 녹번중앙점,은평구,응암동,37.5992189656793,126.930904468222
BBQ치킨 은평진관점,은평구,진관동,37.633329446124,126.917918032411
BBQ치킨 은평뉴타운구파발점,은평구,진관동,37.6320493391686,126.925973863366
BBQ치킨 대학로점,종로구,동숭동,37.5816117771829,127.003079618746
BBQ치킨 명륜점,종로구,,37.584145213572,126.997987231917
BBQ치킨 경희궁자이점,종로구,무악동,37.5748995517533,126.958123345449
BBQ세검정점,종로구,신영동,37.6014758161601,126.961158654811
BBQ치킨 효자점,종로구,옥인동,37.5812734005524,126.968367652034
BBQ안국점,종로구,원서동,37.5813176180796,126.989406479262
BBQ치킨 인사동점,종로구,인사동,37.5714724135981,126.984912683898
비비큐성북스타점,종로구,창신3동,37.5790795208987,127.015009944168
BBQ치킨 성북스타2호점,종로구,창신동,37.5790795208987,127.015009944168
BBQ치킨 동대문역점,종로구,창신동,37.5744380862802,127.010487268198
BBQ남대문점,중구,남창동,37.558319123122,126.977037942044
비비큐치킨,중구,남창동,37.5581567392476,126.976913949384
BBQ치킨 명동스타점,중구,명동,37.5634474969032,126.983438364007
BBQ치킨 신당점,중구,무학동,37.563892554351,127.014787541895
BBQ치킨 동대문패션타운점,중구,신당동,37.5693155075365,127.01292068098
BBQ치킨 신당2점,중구,신당동,37.5628708200859,127.016193884799
BBQ남산타운점,중구,신당동,37.5486807945139,127.008880476432
BBQ치킨앤비어 동대문점,중구,,37.5658774750363,127.006505319236
BBQ치킨 동국대점,중구,,37.561878029242,126.998309836983
BBQ치킨 망우본동점,중랑구,망우동,37.5999721112654,127.103983093918
BBQ망우점,중랑구,망우동,37.5971863455125,127.095442656991
BBQ치킨 신내점,중랑구,망우동,37.6106785653545,127.103784848818
BBQ치킨 면목아이파크점,중랑구,면목동,37.5848917464836,127.080350411416
BBQ치킨 면목동원사거리점,중랑구,면목동,37.5896471878078,127.094235447347
BBQ치킨 면목스타점,중랑구,면목동,37.5875059691462,127.076705326617
BBQ치킨 면목점,중랑구,면목동,37.5840436705619,127.090870379153
BBQ치킨 면목용마점,중랑구,면목동,37.5815255719311,127.093754470953
BBQ 면목중앙점,중랑구,면목동,37.5803941098069,127.084183659713
BBQ치킨 묵동행복점,중랑구,묵동,37.606281787657,127.076605123837
BBQ치킨 묵동먹골점,중랑구,묵동,37.6146328533318,127.080031286741
BBQ치킨 상봉중앙점,중랑구,상봉동,37.5933632832569,127.080677583981
BBQ치킨 중랑상봉점,중랑구,상봉동,37.6024389189682,127.087080713884
비에이치씨양재점,강남구,개포4동,37.4770415024657,127.046308463954
BHC치킨 양재점,강남구,개포4동,37.4770415024657,127.046308463954
BHC치킨 강남논현점,강남구,논현동,37.5100165798983,127.031122349959
BHC치킨 한티역점,강남구,대치동,37.4983090246819,127.052865376681
BHC치킨 삼성점,강남구,삼성동,37.5147736877076,127.059381035489
BHC치킨 강남구청역점,강남구,삼성동,37.5154702537433,127.042700368231
BHC치킨 일원삼성점,강남구,수서동,37.4848961854277,127.090677682629
BHC치킨 압구정역점,강남구,신사동,37.5225044213825,127.027398191483
BHC치킨 압구정로데오점,강남구,신사동,37.5270134491558,127.03933385156
BHC치킨 역삼스타점,강남구,역삼동,37.5056776875153,127.040128818683
BHC치킨 강남역삼점,강남구,역삼동,37.4949265300051,127.034394107056
BHC치킨 역삼푸르지오점,강남구,역삼동,37.4961924178362,127.043981259813
BHC치킨 일원점,강남구,일원동,37.4929249062845,127.084824133077
BHC치킨 강일뉴타운점,강동구,강동,37.5650709690235,127.173028827811
BHC치킨 길동중앙점,강동구,강동,37.5364230840179,127.145906033327
BHC치킨 둔촌점,강동구,강동,37.5331351180525,127.141342819531
BHC치킨 명일점,강동구,강동,37.5505860221761,127.146521081635
BHC치킨 강일점,강동구,강동,37.5479547615268,127.172583231048
BHC치킨 성내점,강동구,강동,37.5333153719322,127.133555180027
BHC치킨 천호역점,강동구,강동,37.5361397059947,127.125619085082
BHC치킨 고덕중앙점,강동구,강동,37.5549540262723,127.135297712909
BHC치킨 암사점,강동구,강동,37.5488202709191,127.125370241826
BHC치킨 길동점,강동구,강동,37.5411040331117,127.136887468402
BHC치킨 천호점,강동구,강동,37.5464345418645,127.134439048024
BHC치킨 천호대교점,강동구,강동,37.5394688812032,127.122376497774
BHC치킨 광나루한강공원2호점,강동구,강동,37.5423072712289,127.116981342153
BHC치킨 미아2호점,강북구,미아동,37.6256513622312,127.02748992756
BHC치킨 미아점,강북구,미아동,37.6201457540258,127.011229269443
BHC치킨 삼양사거리점,강북구,미아동,37.626744111045,127.01796903092
BHC치킨 미아송중점,강북구,미아동,37.6156505979453,127.031048641653
BHC치킨 번동점,강북구,번동,37.6275024444611,127.038159896651
BHC치킨 수유역점,강북구,번동,37.6355961221338,127.028103796674
BHC치킨 강북구청점,강북구,수유동,37.6407029641527,127.023280504172
BHC치킨 수유점,강북구,수유동,37.6441345202166,127.011054533176
BHC치킨 증미역점,강서구,가양동,37.5593264541763,126.860963204533
BHC치킨 송정역점,강서구,공항동,37.5598967538291,126.812412918313
BHC치킨 발산점,강서구,내발산동,37.5568501311793,126.84365672547
BHC치킨 우장산역점,강서구,내발산동,37.5486025955331,126.834091658975
BHC치킨 내발산마곡점,강서구,내발산동,37.552586636482,126.826207064231
BHC치킨 등촌동점,강서구,등촌동,37.5485392007508,126.863066797645
BHC치킨 양천향교역점,강서구,등촌동,37.5666239432247,126.84141969758
BHC치킨 가양점,강서구,등촌동,37.5618819185342,126.851110176675
BHC치킨 마곡점,강서구,마곡동,37.5627520394876,126.823596853073
BHC치킨 방화점,강서구,방화동,37.5682075360065,126.8115100823
BHC치킨 염창점,강서구,염창동,37.552110592846,126.868228883305
BHC치킨 까치산역점,강서구,화곡8동,37.5305019226249,126.848256506261
BHC치킨 강서구청점,강서구,화곡동,37.5526551067136,126.852709618736
BHC치킨 화곡역점,강서구,화곡동,37.5375170097205,126.837941580304
BHC치킨 봉천청림점,관악구,봉천동,37.4881856038336,126.959248694855
BHC치킨 봉천청룡점,관악구,봉천동,37.4794999688298,126.942547404943
BHC치킨 서울대역점,관악구,봉천동,37.479433277427,126.955690066938
BHC치킨 낙성대점,관악구,봉천동,37.4740800291611,126.966376617338
BHC치킨 봉천중앙점,관악구,봉천동,37.4872048734348,126.950991136661
BHC치킨 봉천스타점,관악구,봉천동,37.4867779078967,126.937996996461
BHC치킨 서림점,관악구,신림동,37.4714478126238,126.940340907884
BHC치킨 대학동점,관악구,신림동,37.469343396269,126.936004878818
BHC치킨 신림신원점,관악구,신림동,37.4811908353433,126.927237391178
BHC치킨 신대방역점,관악구,신림동,37.4844211607517,126.912531707385
BHC치킨 난곡점,관악구,신림동,37.4759529087264,126.91750100172
BHC치킨 신림난우점,관악구,신림동,37.4703961828633,126.919567240684
BHC치킨 서울대학교기숙사점,관악구,신림동,37.4533586464502,126.957162385713
BHC치킨 광나루점,광진구,광장동,37.542465879397,127.096292344384
BHC치킨 구의점,광진구,구의동,37.5414011397258,127.090047921881
BHC치킨 군자점,광진구,능동,37.5561465352134,127.081073051993
비에이치씨치킨,광진구,자양2동,37.5319059780751,127.084522510825
BHC치킨 자양3동점,광진구,자양동,37.5315281672079,127.07494524855
BHC치킨 자양행복점,광진구,자양동,37.5319059780751,127.084522510825
BHC치킨 자양점,광진구,자양동,37.5404246922958,127.066917063396
BHC치킨 뚝섬한강공원2호점,광진구,자양동,37.5310073978046,127.064225393065
BHC치킨 뚝섬한강공원3호점,광진구,자양동,37.5311046078875,127.063238360025
BHC치킨 아차산점,광진구,중곡동,37.5610747250057,127.087621547007
BHC치킨 중곡대박점,광진구,중곡동,37.5659804672759,127.083648690323
BHC치킨 중곡점,광진구,중곡동,37.5589248405027,127.080163050476
BHC치킨 화양점,광진구,화양동,37.5471930922883,127.067228308181
BHC치킨 개봉점,구로구,개봉동,37.4899766550691,126.857434002054
BHC치킨 광명시장점,구로구,개봉동,37.4846795429977,126.851939768222
BHC 계남공원점,구로구,고척동,37.5086321795224,126.852971017596
BHC치킨 고척점,구로구,고척동,37.502462258444,126.864322185265
BHC치킨 개봉사거리점,구로구,고척동,37.4981939364408,126.856923739856
BHC치킨 구로동중앙점,구로구,구로동,37.5007594618345,126.889401658574
BHC치킨 구로디지털단지역점,구로구,구로동,37.4835841818509,126.899998315578
BHC치킨 신도림미래점,구로구,구로동,37.5049471531543,126.888537979585
BHC치킨 구로5점,구로구,구로동,37.4884159103305,126.880843114606
BHC치킨 구일SK허브수점,구로구,구로동,37.4958811119743,126.872722613749
BHC치킨 오류1점,구로구,오류2동,37.4902539308453,126.840744874921
BHC치킨 오류초교점,구로구,오류동,37.4970201887719,126.842673873375
BHC치킨 천왕점,구로구,천왕동,37.4801493391284,126.84156915823
BHC치킨 항동점,구로구,항동,37.4815962489099,126.820274314632
BHC치킨 디지털점,금천구,가산동,37.4774564327367,126.890946545488
BHC치킨 가산디지털점,금천구,가산동,37.4814165088276,126.880385816475
BHC치킨 독산맛나거리점,금천구,독산동,37.4692264478241,126.89939740297
BHC치킨 금천구청점,금천구,독산동,37.4599188671036,126.897250450783
BHC치킨 시흥점,금천구,시흥동,37.4575449840142,126.905583347544
BHC치킨 시흥사거리점,금천구,시흥동,37.4533906047781,126.90183530968
BHC치킨 태릉입구점,노원구,공릉1동,37.6201379787351,127.077741630962
BHC치킨 공릉역점,노원구,공릉동,37.6297193105373,127.076132755144
BHC치킨 수락산역점,노원구,상계1동,37.6801862134118,127.055830164279
BHC치킨 노원역점,노원구,상계2동,37.6572060679004,127.062335636997
BHC치킨 마들점,노원구,상계동,37.671427235493,127.058108722383
BHC치킨 수락산역점,노원구,상계동,37.6801862134118,127.055830164279
BHC치킨 상계대박점,노원구,상계동,37.6572814906001,127.070479317565
BHC치킨 상계행복점,노원구,상계동,37.6477552928424,127.057747728933
BHC치킨 월계스타점,노원구,월계동,37.6314858016766,127.057667844019
BHC치킨 상계역점,노원구,중계동,37.6606551751705,127.074931388163
BHC치킨 중계본점,노원구,중계동,37.657379968028,127.074582106499
BHC치킨 중계점,노원구,중계동,37.6427209041194,127.066567506035
BHC치킨 하계점,노원구,하계동,37.6357909763298,127.074130114579
BHC치킨 도봉역점,도봉구,도봉동,37.6765458538445,127.043774976276
BHC치킨 방학신동아점,도봉구,방학동,37.6596195619075,127.027051162439
BHC치킨 방학점,도봉구,방학동,37.6651933822652,127.0304208499
BHC치킨 도봉구청점,도봉구,방학동,37.6672859117735,127.044821359728
BHC치킨 창동점,도봉구,쌍문동,37.6519902965937,127.035600746289
BHC치킨 창동행복점,도봉구,창동,37.6488486248012,127.052568950315
BHC치킨 창2동점,도봉구,창동,37.6373102775914,127.037118497287
BHC치킨 창동아이파크점,도봉구,창동,37.6594302937513,127.041778345535
BHC치킨 답십리점,동대문구,답십리동,37.5708010777805,127.0570042141
BHC치킨 제기점,동대문구,용두동,37.5769635153505,127.03684592097
BHC치킨 이문점,동대문구,이문동,37.6010362891709,127.062249220356
BHC치킨 회기점,동대문구,이문동,37.5943840160865,127.059959557059
BHC치킨 장안점,동대문구,장안동,37.5729590611357,127.066780551551
BHC치킨 장한평점,동대문구,장안동,37.5653932309112,127.064000228875
BHC치킨 시립대점,동대문구,전농동,37.5764123159727,127.055633842183
BHC치킨 고대역점,동대문구,제기동,37.5890727535302,127.035747839869
BHC치킨 청량리점,동대문구,청량리동,37.5852031464668,127.050593221689
BHC치킨 휘경점,동대문구,휘경동,37.5843160229219,127.068314370152
BHC치킨 노량진점,동작구,노량진동,37.5082220958822,126.946199291977
BHC치킨 대방동점,동작구,대방동,37.5097653188125,126.932322092048
BHC치킨 사당점,동작구,사당동,37.4799240290557,126.980683582484
BHC치킨 남성역점,동작구,사당동,37.4836871389662,126.973488738324
BHC치킨 상도점,동작구,상도동,37.4989602536143,126.939579770137
BHC치킨 숭실대점,동작구,상도동,37.494953428654,126.957454477382
BHC치킨 신대방스타점,동작구,신대방동,37.4967588580466,126.928058889916
BHC치킨 보라매타운점,동작구,신대방동,37.4914351023845,126.923367582379
BHC치킨 보라매역점,동작구,신대방동,37.4967456632547,126.91636685067
BHC치킨 중앙대점,동작구,흑석동,37.5070505838749,126.958409191217
BHC치킨 흑석대박점,동작구,흑석동,37.5065983218011,126.966477625997
BHC치킨 흑석점,동작구,흑석동,37.5065983218011,126.966477625997
BHC치킨 마포역점,마포구,도화동,37.5378780619463,126.94661722835
BHC치킨 홍대점,마포구,동교동,37.5550102870331,126.922687775053
BHC치킨 망원점,마포구,망원동,37.5589600324086,126.900166804553
BHC치킨 상암DMC점,마포구,상암동,37.5773427193966,126.895628726209
모여라닭집,마포구,서교동,37.5510175846021,126.922793749394
BHC치킨 성산동점,마포구,성산동,37.5677005530147,126.9096209224
BHC치킨 홍대초교점,마포구,성산동,37.559014769639,126.91371512921
BHC치킨 공덕점,마포구,신공덕동,37.5433912735909,126.954104279714
BHC치킨 신수서강대점,마포구,신수동,37.5468465276338,126.93762318666
BHC치킨 아현점,마포구,아현동,37.5569905920047,126.961712663841
BHC치킨 아현점,마포구,아현동,37.5569905920047,126.961712663841
BHC치킨 창전서강점,마포구,창전동,37.5533670699197,126.932731402999
BHC치킨 남가좌DMC점,서대문구,남가좌동,37.5768315877879,126.922676540278
BHC치킨 이대역점,서대문구,대현동,37.5575058242908,126.946518912819
BHC치킨 북가좌동점,서대문구,북가좌동,37.5818365505106,126.913750385536
BHC치킨 DMC북가좌점,서대문구,북가좌동,37.5726489857162,126.910550761779
BHC치킨 연희점,서대문구,연희동,37.5707257859303,126.930600265446
BHC치킨 신촌점,서대문구,창천동,37.557619884628,126.93854678267
BHC치킨 서대문역점,서대문구,,37.5644793255887,126.964930926286
BHC치킨 홍은점,서대문구,홍은동,37.5985994046372,126.949078828757
BHC치킨 홍제점,서대문구,홍제동,37.5864416301133,126.943783875125
BHC치킨 서초내곡점,서초구,내곡동,37.4534450895886,127.059773858542
BHC치킨 반포2호점,서초구,반포동,37.5096455814896,126.995132448865
BHC치킨 강남반포점,서초구,반포동,37.5039551899288,127.021716953761
BHC치킨 신반포점,서초구,반포동,37.4992838428668,126.998807820597
BHC치킨 이수점,서초구,방배동,37.4859817857307,126.983063697492
BHC치킨 방배점,서초구,방배동,37.477881528517,126.987319833564
BHC치킨 방배본동점,서초구,방배본동,37.4963055649027,126.983964342488
BHC치킨 서초교대점,서초구,서초동,37.4892767507642,127.013616531385
BHC치킨 우면점,서초구,양재동,37.4762168966049,127.036548588755
BHC치킨 반포한강공원1호점,서초구,잠원동,37.5133262647127,127.002169105214
BHC치킨 잠원점,서초구,잠원동,37.5135933094985,127.01866260564
BHC치킨 금호점,성동구,성동,37.5488957057458,127.020860098068
BHC치킨 도선점,성동구,성동,37.5643939504204,127.034936605036
BHC치킨 한양대마장점,성동구,성동,37.5605845157319,127.043172714176
BHC치킨 성수역점,성동구,성동,37.5381167762967,127.04957191954
BHC치킨 용답점,성동구,성동,37.5636637370699,127.052566307251
BHC치킨 행당점,성동구,성동,37.5605113458845,127.027561841267
BHC치킨 길음뉴타운점,성북구,길음동,37.6089950720455,127.023265407764
BHC치킨 돈암점,성북구,돈암동,37.5963138207289,127.022288088949
BHC치킨 한성대입구점,성북구,동소문동,37.589221226198,127.006842721312
BHC치킨 신설점,성북구,보문동,37.5798257338416,127.020873818717
BHC치킨 석관점,성북구,석관동,37.6114685364961,127.061815867962
BHC치킨 정릉점,성북구,정릉동,37.6046959313005,127.013211729787
BHC치킨 종암점,성북구,종암동,37.600162137305,127.033674492299
BHC치킨 월곡점,성북구,하월곡동,37.6071542735468,127.033983310472
BHC치킨 가락점,송파구,가락동,37.4991851670659,127.11918089412
BHC치킨 개롱역점,송파구,가락동,37.4971715827122,127.135652975795
BHC치킨 마천점,송파구,마천동,37.4995278240786,127.148376563739
BHC치킨 문정로데오점,송파구,문정동,37.4888148251547,127.124621191424
BHC치킨 송파장지점,송파구,문정동,37.4827488797866,127.127743541338
BHC치킨 방이점,송파구,방이동,37.5096171369334,127.118778880101
BHC치킨 송파구청점,송파구,방이동,37.5143396467291,127.109562485359
BHC치킨 삼전점,송파구,삼전동,37.5018497769712,127.091758309261
BHC치킨 석촌점,송파구,석촌동,37.504679095867,127.101893194806
BHC치킨 헬리오시티점,송파구,석촌동,37.5012306216452,127.108237800546
BHC치킨 송파한양점,송파구,송파2동,37.5005009512049,127.116515976519
BHC치킨 잠실푸르지오점,송파구,신천동,37.5174387314714,127.10357764333
B비에이치씨,송파구,신천동,37.513101157342,127.103433202893
BHC치킨 잠실야구장3호점,송파구,잠실동,37.5136559100366,127.073466781511
BHC치킨 잠실야구장2호점,송파구,잠실동,37.5136559100366,127.073466781511
BHC치킨 잠실한강공원4호점,송파구,잠실동,37.5177740347208,127.082348760182
BHC치킨 잠실한강공원3호점,송파구,잠실동,37.5177740347208,127.082348760182
BHC치킨 잠실본점,송파구,잠실동,37.5067604903378,127.08316579529
BHC치킨 위례중앙점,송파구,장지동,37.474605333209,127.141544657341
BHC치킨 풍납올림픽공원점,송파구,풍납동,37.528020122424,127.117513486466
BHC치킨 목동중앙점,양천구,목2동,37.5407930779905,126.868728790416
BHC치킨 목동2호점,양천구,목동,37.5372725551175,126.868605183822
BHC치킨 이대목동점,양천구,목동,37.537672420369,126.884740067085
BHC치킨 신월스타점,양천구,신월동,37.5319875809427,126.836965060242
BHC치킨 신월중앙점,양천구,신월동,37.5395692837252,126.82651076372
BHC치킨 신월점,양천구,신월동,37.5218177597014,126.84210688647
BHC치킨 신정뉴타운점,양천구,신월동,37.5168366778138,126.83991220665
BHC치킨 신월대박점,양천구,신월동,37.5228192910072,126.832286070694
BHC치킨 목동역점,양천구,신정4동,37.526063325707,126.861149743044
BHC치킨 목동단지점,양천구,신정동,37.521373298385,126.859059912468
BHC치킨 신목동점,양천구,신정동,37.5176772988791,126.872543303307
BHC치킨 오목교점,양천구,신정동,37.5217946752936,126.869549641131
BHC치킨 당산점,영등포구,당산동,37.5356296330535,126.901955256772
BHC치킨 문래점,영등포구,문래동,37.5190678529024,126.885976114878
BHC치킨 신길1호점,영등포구,신길동,37.5079398934052,126.904655364178
BHC치킨 신풍역점,영등포구,신길동,37.502963391709,126.909607748113
BHC치킨 양평현대점,영등포구,양평동,37.5318487496203,126.893510634364
BHC치킨 여의도역점,영등포구,여의도동,37.5228984836544,126.924100358571
BHC치킨 여의도점,영등포구,여의도동,37.5206933527238,126.937105491683
BHC치킨 여의도한강공원2호점,영등포구,여의도동,37.5281725589378,126.932510800097
BHC치킨 여의도한강공원1호점,영등포구,여의도동,37.5224767994314,126.939700745064
BHC치킨 영등포공원점,영등포구,영등포동,37.5139123138711,126.911518329325
BHC치킨 영등포아크로타워점,영등포구,영등포동,37.5243801067433,126.906871180548
BHC치킨 효창공원역점,용산구,도원동,37.5391365246956,126.95809560543
BHC치킨 용산해방촌점,용산구,용산동,37.5454281271189,126.985867557946
BHC치킨 이촌점,용산구,이촌동,37.5270535133517,126.954323016697
BHC치킨 숙대점,용산구,청파동,37.5491986839708,126.969486823016
BHC치킨 한남점,용산구,한남동,37.5317331933799,127.005444743015
BHC치킨 갈현점,은평구,갈현동,37.6155949761958,126.90885395038
BHC치킨 연신내점,은평구,갈현동,37.6191753143862,126.919497512435
BHC치킨 구산예일점,은평구,구산동,37.6106342186313,126.910972132634
BHC치킨 녹번점,은평구,녹번동,37.6021410684322,126.927908839215
BHC치킨 대조점,은평구,대조동,37.6156873267406,126.924271863268
BHC치킨 불광점,은평구,불광동,37.6213361248313,126.928401396361
BHC치킨 불광초교점,은평구,불광동,37.6128363847493,126.930207552634
BHC치킨 은평증산점,은평구,신사동,37.5904428047796,126.912367020067
BHC치킨 응암점,은평구,응암동,37.5912277964365,126.917046018067
BHC치킨 응암행복점,은평구,응암동,37.5865190622658,126.919697656366
BHC치킨 은평이마트점,은평구,응암동,37.6011271692175,126.920720391403
BHC치킨 은평뉴타운점,은평구,진관동,37.6460636102252,126.92625411184
산아래 호프,은평구,진관동,37.6575249704821,126.947169944684
BHC치킨 종로점,종로구,관철동,37.5696665900037,126.986759143282
BHC치킨 대학로본점,종로구,동숭동,37.5827754210208,127.002639374652
BHC치킨 종로성대점,종로구,,37.5863514523727,126.996922110742
BHC치킨 종로5가광장점,종로구,인의동,37.5713340838101,126.999995472104
BHC치킨 독립문역점,종로구,행촌동,37.5727825040272,126.960534210317
BHC치킨 동대문점,중구,광희동,37.565735932655,127.006430489049
BHC치킨 왕십리점,중구,신당동,37.5649081301759,127.02422306665
BHC치킨 약수점,중구,신당동,37.5594568726223,127.015375085046
BHC치킨 남산타운점,중구,신당동,37.5486807945139,127.008880476432
BHC치킨 충무로역점,중구,필동,37.5612278684221,126.995049414858
BHC치킨 중랑사랑점,중랑구,망우동,37.6012450266781,127.108098744419
BHC치킨 망우점,중랑구,망우동,37.5915488638046,127.098271478029
BHC치킨 상봉점,중랑구,망우동,37.5973351400052,127.093477736804
BHC치킨 중랑역점,중랑구,면목동,37.5913068711578,127.076325159327
BHC치킨 용마산점,중랑구,면목동,37.5757842471146,127.085461751558
BHC치킨 면목역점,중랑구,면목동,37.5857681493843,127.087924586777
BHC치킨 사가정점,중랑구,면목동,37.5865875129508,127.09434197995
BHC치킨 묵동먹골점,중랑구,묵동,37.6136850441263,127.075753289009
BHC치킨 신내점,중랑구,신내동,37.6109225846863,127.099458305129
BHC치킨 봉화산역점,중랑구,신내동,37.6154911071187,127.094449841298
BHC치킨 중화점,중랑구,중화동,37.6020641634037,127.084901124587
