name,gu_name,dong_name,latitude,longitude,type
삼성중앙,강남구,삼성동,37.513011,127.053282,지하철
사평,서초구,반포동,37.504206,127.015259,지하철
구반포,서초구,반포동,37.501364,126.987332,지하철
흑석(중앙대입구),동작구,흑석동,37.50877,126.963708,지하철
샛강,영등포구,여의도동,37.517274,126.928422,지하철
당산,영등포구,당산동6가,37.533406,126.902809,지하철
염창,양천구,목동,37.546936,126.874916,지하철
증미,강서구,등촌동,37.557402,126.861939,지하철
양천향교,강서구,가양동,37.568381,126.841333,지하철
김포공항,강서구,방화동,37.561916,126.802152,지하철
청량리(서울시립대입구),동대문구,전농동,37.579956,127.044585,지하철
곤제,의정부시,용현동,37.750471,127.083715,지하철
혜화,종로구,동숭동,37.582336,127.001844,지하철
의정부중앙,의정부시,의정부동,37.743676,127.049565,지하철
경전철의정부,의정부시,의정부동,37.737202,127.043257,지하철
한성대입구(삼선교),성북구,삼선동1가,37.588458,127.006221,지하철
둔전,용인시 처인구,포곡읍 둔전리,37.267051,127.21364,지하철
김량장,용인시 처인구,김량장동,37.237247,127.198781,지하철
초당,용인시 기흥구,중동,37.260752,127.159443,지하철
강남대,용인시 기흥구,구갈동,37.270161,127.126033,지하철
수유(강북구청),강북구,수유동,37.638052,127.025732,지하철
파주,파주시,파주읍 봉암리,37.815298,126.792783,지하철
운정,파주시,야당동,37.725826,126.767257,지하철
백마,고양시 일산동구,백석동,37.658239,126.794461,지하철
화전,고양시 덕양구,화전동,37.602888,126.868387,지하철
서강대,마포구,노고산동,37.551881,126.935711,지하철
제기동,동대문구,용두동,37.578103,127.034893,지하철
이천,이천시,율현동,37.265579,127.44226,지하철
초월,광주시,초월읍 쌍동리,37.374419,127.299,지하철
판교,성남시 분당구,백현동,37.394761,127.111217,지하철
강남구청,강남구,논현동,37.517469,127.041151,지하철
숭의,미추홀구,용현동,37.460789,126.638297,지하철
배방,아산시,배방읍 구령리,36.777629,127.052991,지하철
남부터미널(예술의전당),서초구,서초동,37.485013,127.016189,지하철
남동인더스파크,남동구,고잔동,37.407722,126.695216,지하철
수원,수원시 팔달구,매산로1가,37.265917,126.999422,지하철
보산,동두천시,보산동,37.913702,127.057277,지하철
덕계,양주시,덕계동,37.818486,127.056486,지하철
서동탄,오산시,외삼미동,37.195504,127.051672,지하철
잠원,서초구,잠원동,37.512759,127.01122,지하철
망포,수원시 영통구,영통동,37.245795,127.057353,지하철
기흥,용인시 기흥구,구갈동,37.275061,127.11591,지하철
지평,양평군,지평면 지평리,37.476393,127.629874,지하철
압구정,강남구,신사동,37.527072,127.028461,지하철
신원,양평군,양서면 신원리,37.525545,127.372921,지하철
도심,남양주시,와부읍 도곡리,37.579622,127.222672,지하철
도농,남양주시,다산동,37.608806,127.161153,지하철
망우,중랑구,상봉동,37.59955,127.091909,지하철
금호,성동구,금호동4가,37.548034,127.015872,지하철
동대입구,중구,장충동2가,37.559052,127.005602,지하철
성복,용인시 수지구,성복동,37.313335,127.0801,지하철
정자,성남시 분당구,정자동,37.367098,127.108403,지하철
을지로3가,중구,을지로3가,37.566672,126.992548,지하철
강남,서초구,서초동,37.496837,127.028104,지하철
경복궁(정부서울청사),종로구,적선동,37.575762,126.97353,지하철
김유정,춘천시,신동면 증리,37.818466,127.71434,지하철
굴봉산,춘천시,남산면 백양리,37.832067,127.557695,지하철
청평,가평군,청평면 청평리,37.735488,127.42661,지하철
마석,남양주시,화도읍 마석우리,37.652782,127.311767,지하철
금곡,남양주시,금곡동,37.637382,127.207853,지하철
별내,남양주시,별내동,37.64202,127.12684,지하철
홍제,서대문구,홍제동,37.589066,126.943736,지하철
녹번,은평구,녹번동,37.600927,126.935756,지하철
인천대공원,남동구,장수동,37.448769,126.752618,지하철
석천사거리,남동구,구월동,37.456805,126.709986,지하철
석바위시장,미추홀구,주안동,37.457611,126.692575,지하철
가재울,서구,가좌동,37.484192,126.683673,지하철
석남(거북시장),서구,석남동,37.506193,126.676203,지하철
서구청,서구,심곡동,37.543742,126.676787,지하철
검암,서구,검암동,37.56866,126.675687,지하철
마전,서구,마전동,37.597566,126.666998,지하철
신설동,동대문구,신설동,37.574747,127.024932,지하철
센트럴파크,연수구,송도동,37.393054,126.634729,지하철
캠퍼스타운,연수구,송도동,37.387855,126.661673,지하철
원인재,연수구,연수동,37.412333,126.687869,지하철
문학경기장,연수구,선학동,37.434935,126.698579,지하철
인천시청,남동구,간석동,37.457263,126.702143,지하철
부평,부평구,부평동,37.490535,126.723453,지하철
부평구청,부평구,청천동,37.508407,126.720555,지하철
계산,계양구,계산동,37.543238,126.728128,지하철
계양,계양구,귤현동,37.571449,126.73578,지하철
종로5가,종로구,종로5가,37.570926,127.001849,지하철
당산,영등포구,당산동6가,37.534946,126.902767,지하철
대림(구로구청),구로구,구로동,37.493243,126.894932,지하철
구로디지털단지,구로구,구로동,37.485266,126.901401,지하철
부천종합운동장,부천시 원미구,춘의동,37.50538,126.797337,지하철
단대오거리,성남시 수정구,신흥동,37.44521,127.156866,지하철
이촌(국립중앙박물관),용산구,용산동5가,37.522295,126.974733,지하철
인천공항2터미널,중구,운서동,37.460699,126.441442,지하철
인천공항1터미널,중구,운서동,37.447464,126.452508,지하철
운서,중구,운서동,37.492904,126.49379,지하철
청라국제도시,서구,청라동,37.556409,126.624648,지하철
신용산,용산구,한강로2가,37.52917,126.967894,지하철
계양,계양구,귤현동,37.571662,126.7363,지하철
김포공항,강서구,방화동,37.561842,126.801904,지하철
디지털미디어시티,마포구,상암동,37.576958,126.898609,지하철
공덕,마포구,도화동,37.54253,126.952024,지하철
서울역,용산구,동자동,37.553247,126.969769,지하철
숙대입구(갈월),용산구,갈월동,37.54456,126.972106,지하철
신설동,동대문구,신설동,37.576095,127.023242,지하철
성신여대입구(돈암),성북구,동소문동5가,37.592467,127.016516,지하철
정릉,성북구,정릉동,37.603133,127.013396,지하철
북한산보국문,성북구,정릉동,37.612072,127.008251,지하철
솔샘,강북구,미아동,37.620238,127.013626,지하철
삼양,강북구,미아동,37.626914,127.018106,지하철
화계,강북구,수유동,37.634133,127.017511,지하철
가오리,강북구,수유동,37.641537,127.016789,지하철
솔밭공원,강북구,우이동,37.65603,127.013273,지하철
북한산우이,강북구,우이동,37.662909,127.012706,지하철
회현(남대문시장),중구,남창동,37.558514,126.978246,지하철
명동,중구,충무로2가,37.560989,126.986325,지하철
봉은사,강남구,삼성동,37.514219,127.060245,지하철
선정릉,강남구,삼성동,37.510297,127.043999,지하철
언주,강남구,논현동,37.507287,127.033868,지하철
신논현,강남구,역삼동,37.504598,127.02506,지하철
고속터미널,서초구,반포동,37.50598,127.004403,지하철
신반포,서초구,반포동,37.503415,126.995925,지하철
동작(현충원),동작구,동작동,37.502878,126.978153,지하철
충무로,중구,필동2가,37.561207,126.99408,지하철
노들,동작구,본동,37.512887,126.953222,지하철
노량진,동작구,노량진동,37.513534,126.941005,지하철
여의도,영등포구,여의도동,37.52176,126.92403,지하철
국회의사당,영등포구,여의도동,37.528105,126.917874,지하철
선유도,영등포구,양평동5가,37.53802,126.893525,지하철
신목동,양천구,목동,37.544277,126.88308,지하철
동대문역사문화공원,중구,을지로7가,37.565133,127.007885,지하철
등촌,양천구,목동,37.550632,126.865689,지하철
가양,강서구,등촌동,37.561391,126.854456,지하철
마곡나루,강서구,마곡동,37.566778,126.82731,지하철
신방화,강서구,방화동,37.567532,126.816601,지하철
공항시장,강서구,공항동,37.563726,126.810678,지하철
개화,강서구,개화동,37.578608,126.798153,지하철
동대문,종로구,종로6가,37.57093,127.009287,지하철
탑석,의정부시,용현동,37.733579,127.088704,지하철
송산,의정부시,용현동,37.737279,127.087159,지하철
어룡,의정부시,용현동,37.742802,127.085035,지하철
효자,의정부시,신곡동,37.754025,127.076902,지하철
경기도청북부청사,의정부시,신곡동,37.75059,127.071495,지하철
새말,의정부시,신곡동,37.748885,127.06362,지하철
동오,의정부시,신곡동,37.745271,127.056947,지하철
흥선,의정부시,가능동,37.743302,127.037023,지하철
의정부시청,의정부시,의정부동,37.739256,127.034781,지하철
범골,의정부시,호원동,37.728755,127.04353,지하철
회룡,의정부시,호원동,37.725006,127.047073,지하철
발곡,의정부시,신곡동,37.727048,127.052803,지하철
성신여대입구(돈암),성북구,동선동4가,37.592612,127.016441,지하철
전대.에버랜드,용인시 처인구,포곡읍 전대리,37.285342,127.219561,지하철
보평,용인시 처인구,유방동,37.258965,127.218457,지하철
고진,용인시 처인구,유방동,37.24484,127.214251,지하철
운동장.송담대,용인시 처인구,김량장동,37.237845,127.209198,지하철
길음,성북구,길음동,37.603407,127.025053,지하철
시청.용인대,용인시 처인구,삼가동,37.239151,127.178406,지하철
동백,용인시 기흥구,중동,37.269043,127.152716,지하철
지석,용인시 기흥구,상하동,37.269606,127.136515,지하철
미아사거리,강북구,미아동,37.613292,127.030053,지하철
미아(서울사이버대학),강북구,미아동,37.62667,127.025983,지하철
홍대입구,마포구,동교동,37.557641,126.926683,지하철
공덕,마포구,도화동,37.542596,126.952099,지하철
원흥,고양시 덕양구,원흥동,37.650658,126.872642,지하철
효창공원앞,용산구,용문동,37.538579,126.96221,지하철
금촌,파주시,금촌동,37.766217,126.774644,지하철
금릉,파주시,금촌동,37.751322,126.765347,지하철
탄현,고양시 일산서구,덕이동,37.694023,126.761086,지하철
일산,고양시 일산서구,일산동,37.682077,126.769846,지하철
능곡,고양시 덕양구,토당동,37.618808,126.820783,지하철
행신,고양시 덕양구,행신동,37.612102,126.834146,지하철
창동,도봉구,창동,37.653088,127.047274,지하철
디지털미디어시티,은평구,수색동,37.577475,126.900453,지하철
가좌,서대문구,남가좌동,37.568491,126.915487,지하철
신촌,서대문구,신촌동,37.559733,126.942597,지하철
서울역,중구,봉래동2가,37.557231,126.97103,지하철
여주,여주시,교동,37.282308,127.628816,지하철
세종대왕릉,여주시,세종대왕면 신지리,37.295309,127.570938,지하철
신둔도예촌,이천시,신둔면 남정리,37.317185,127.40476,지하철
상계,노원구,상계동,37.660878,127.073572,지하철
경기광주,광주시,역동,37.399907,127.25263,지하철
이매,성남시 분당구,이매동,37.394655,127.127819,지하철
인천,중구,북성동2가,37.476403,126.617326,지하철
압구정로데오,강남구,압구정동,37.527381,127.040534,지하철
양재(서초구청),서초구,서초동,37.484477,127.033902,지하철
신포,중구,사동,37.46874,126.623853,지하철
온양온천,아산시,온천동,36.780483,127.003249,지하철
아산,아산시,배방읍 장재리,36.792053,127.104361,지하철
쌍용(나사렛대),천안시 서북구,쌍용동,36.793759,127.1214,지하철
인하대,미추홀구,용현동,37.448493,126.649619,지하철
송도,연수구,옥련동,37.428514,126.657772,지하철
원인재,연수구,연수동,37.413049,126.686648,지하철
인천논현,남동구,논현동,37.400614,126.722478,지하철
소래포구,남동구,논현동,37.40095,126.733522,지하철
월곶,시흥시,월곶동,37.391769,126.742699,지하철
소요산,동두천시,상봉암동,37.9481,127.061034,지하철
동두천,동두천시,동두천동,37.927878,127.05479,지하철
지행,동두천시,지행동,37.892334,127.055716,지하철
덕정,양주시,덕정동,37.843188,127.061277,지하철
녹양,의정부시,녹양동,37.75938,127.042292,지하철
고속터미널,서초구,반포동,37.504891,127.004916,지하철
달월,시흥시,월곶동,37.379681,126.745177,지하철
매교,수원시 팔달구,매교동,37.265481,127.015678,지하철
매탄권선,수원시 영통구,매탄동,37.252759,127.040566,지하철
청명,수원시 영통구,영통동,37.259489,127.078934,지하철
상갈,용인시 기흥구,상갈동,37.26181,127.108847,지하철
구성,용인시 기흥구,마북동,37.298969,127.105664,지하철
죽전,용인시 수지구,죽전동,37.324753,127.107395,지하철
용문,양평군,용문면 다문리,37.48223,127.594647,지하철
원덕,양평군,양평읍 원덕리,37.468672,127.547076,지하철
오빈,양평군,양평읍 오빈리,37.506062,127.473868,지하철
국수,양평군,양서면 국수리,37.516169,127.399367,지하철
양수,양평군,양서면 용담리,37.545981,127.329098,지하철
팔당,남양주시,와부읍 팔당리,37.547371,127.243939,지하철
양정,남양주시,이패동,37.60533,127.19364,지하철
옥수,성동구,옥수동,37.541684,127.017269,지하철
양원,중랑구,망우동,37.606596,127.107906,지하철
중랑,중랑구,중화동,37.594917,127.076116,지하철
광명,광명시,일직동,37.416182,126.884466,지하철
신설동,동대문구,신설동,37.576048,127.024634,지하철
약수,중구,신당동,37.554867,127.010541,지하철
광교(경기대),수원시 영통구,이의동,37.30211,127.044483,지하철
상현,용인시 수지구,상현동,37.297664,127.069342,지하철
수지구청,용인시 수지구,풍덕천동,37.322702,127.095026,지하철
동천,용인시 수지구,동천동,37.337928,127.102976,지하철
판교,성남시 분당구,백현동,37.394761,127.112217,지하철
청계산입구,서초구,신원동,37.447211,127.055664,지하철
양재시민의숲(매헌),서초구,양재동,37.470023,127.03842,지하철
양재(서초구청),서초구,서초동,37.483809,127.034653,지하철
종로3가,종로구,묘동,37.571605,126.991791,지하철
안국,종로구,안국동,37.576477,126.985443,지하철
독립문,서대문구,현저동,37.574571,126.957748,지하철
춘천,춘천시,근화동,37.885054,127.717023,지하철
남춘천,춘천시,퇴계동,37.864007,127.723792,지하철
강촌,춘천시,남산면 방곡리,37.805723,127.634146,지하철
백양리,춘천시,남산면 강촌리,37.830779,127.58933,지하철
가평,가평군,가평읍 달전리,37.814536,127.510739,지하철
상천,가평군,청평면 상천리,37.770246,127.454821,지하철
대성리,가평군,청평면 대성리,37.684071,127.379319,지하철
무악재,서대문구,홍제동,37.582299,126.950291,지하철
천마산,남양주시,화도읍 묵현리,37.658978,127.285379,지하철
평내호평,남양주시,평내동,37.653225,127.244493,지하철
사릉,남양주시,진건읍 사능리,37.65108,127.176933,지하철
퇴계원,남양주시,퇴계원읍 퇴계원리,37.648311,127.143952,지하철
갈매,구리시,갈매동,37.634118,127.114757,지하철
신내,중랑구,망우동,37.612887,127.103218,지하철
동대문,종로구,창신동,37.571687,127.01093,지하철
불광,은평구,대조동,37.610553,126.92982,지하철
운연(서창),남동구,운연동,37.440127,126.75997,지하철
남동구청,남동구,만수동,37.448161,126.736939,지하철
만수,남동구,만수동,37.454911,126.732094,지하철
모래내시장,남동구,구월동,37.45583,126.719298,지하철
연신내,은평구,불광동,37.619229,126.921038,지하철
인천시청,남동구,간석동,37.456833,126.701306,지하철
시민공원(문화창작지대),미추홀구,주안동,37.458335,126.681192,지하철
주안,미추홀구,주안동,37.464992,126.679098,지하철
주안국가산단,서구,가좌동,37.473703,126.68113,지하철
인천가좌,서구,가좌동,37.4897,126.675208,지하철
서부여성회관,서구,석남동,37.500168,126.675795,지하철
가정중앙시장,서구,가정동,37.517054,126.676672,지하철
구파발,은평구,진관동,37.636763,126.918821,지하철
가정(루원시티),서구,가정동,37.524649,126.675539,지하철
아시아드경기장(공촌사거리),서구,연희동,37.5517,126.677122,지하철
검바위,서구,검암동,37.561405,126.677566,지하철
독정,서구,백석동,37.585212,126.675844,지하철
완정,서구,당하동,37.592928,126.673203,지하철
검단사거리,서구,왕길동,37.60185,126.657108,지하철
왕길,서구,왕길동,37.59518,126.642696,지하철
검단오류(검단산업단지),서구,오류동,37.594877,126.627178,지하철
국제업무지구,연수구,송도동,37.399907,126.630347,지하철
인천대입구,연수구,송도동,37.386007,126.639484,지하철
지식정보단지,연수구,송도동,37.378384,126.645168,지하철
테크노파크,연수구,송도동,37.382268,126.656365,지하철
동막,남동구,고잔동,37.397878,126.674005,지하철
동춘,연수구,동춘동,37.404737,126.681015,지하철
신답,성동구,용답동,37.57004,127.046481,지하철
신연수,연수구,선학동,37.41804,126.693863,지하철
선학,연수구,선학동,37.426684,126.698863,지하철
인천터미널,미추홀구,관교동,37.442383,126.699706,지하철
예술회관,남동구,구월동,37.449396,126.701012,지하철
간석오거리,남동구,간석동,37.467048,126.707938,지하철
부평삼거리,부평구,십정동,37.477679,126.710208,지하철
동수,부평구,부평동,37.485312,126.718247,지하철
용답,성동구,사근동,37.561904,127.050899,지하철
부평시장,부평구,부평동,37.498383,126.722244,지하철
갈산,부평구,청천동,37.517268,126.721514,지하철
작전,계양구,작전동,37.530415,126.722527,지하철
임학,계양구,임학동,37.545059,126.738665,지하철
귤현,계양구,귤현동,37.566379,126.742654,지하철
아현,마포구,아현동,37.557345,126.956141,지하철
이대,마포구,염리동,37.556733,126.946013,지하철
신촌,서대문구,창천동,37.555131,126.936926,지하철
홍대입구,마포구,동교동,37.55679,126.923708,지하철
영등포구청,영등포구,당산동3가,37.525706,126.89661,지하철
문래,영등포구,문래동3가,37.517933,126.89476,지하철
부평구청,부평구,부평동,37.507394,126.721599,지하철
굴포천,부평구,갈산동,37.506997,126.73128,지하철
상동,부천시 원미구,상동,37.505781,126.753083,지하철
부천시청,부천시 원미구,중동,37.504631,126.763538,지하철
신중동,부천시 원미구,중동,37.503048,126.77596,지하철
까치울,부천시 원미구,춘의동,37.506207,126.810939,지하철
모란,성남시 수정구,수진동,37.433824,127.129837,지하철
신흥,성남시 수정구,신흥동,37.440918,127.147564,지하철
신대방,관악구,신림동,37.487462,126.913149,지하철
남한산성입구(성남법원.검찰청),성남시 수정구,단대동,37.451535,127.159816,지하철
복정,송파구,장지동,37.471052,127.126732,지하철
문정,송파구,문정동,37.485855,127.1225,지하철
송파,송파구,가락동,37.499703,127.112183,지하철
잠실(송파구청),송파구,신천동,37.514692,127.104338,지하철
신림,관악구,신림동,37.484201,126.929715,지하철
천호(풍납토성),강동구,성내동,37.538113,127.123254,지하철
암사,강동구,암사동,37.55021,127.127562,지하철
광명사거리,광명시,광명동,37.479252,126.854876,지하철
철산,광명시,철산동,37.47605,126.867911,지하철
대림(구로구청),영등포구,대림동,37.493013,126.897075,지하철
봉천,관악구,봉천동,37.482362,126.941892,지하철
신풍,영등포구,신길동,37.50008,126.90993,지하철
장승배기,동작구,상도동,37.504898,126.93915,지하철
상도,동작구,상도1동,37.502834,126.94791,지하철
이수,동작구,사당동,37.485196,126.981605,지하철
내방,서초구,방배동,37.487618,126.993513,지하철
서울대입구(관악구청),관악구,봉천동,37.481247,126.952739,지하철
논현,강남구,논현동,37.511093,127.021415,지하철
학동,강남구,논현동,37.514229,127.031656,지하철
뚝섬유원지,광진구,자양동,37.53154,127.066704,지하철
건대입구,광진구,화양동,37.540786,127.071011,지하철
중곡,광진구,중곡동,37.565923,127.08432,지하철
낙성대,관악구,봉천동,37.47693,126.963693,지하철
용마산,중랑구,면목동,37.573647,127.086727,지하철
상봉(시외버스터미널),중랑구,상봉동,37.595577,127.085716,지하철
중화,중랑구,중화동,37.602545,127.079264,지하철
공릉(서울과학기술대),노원구,공릉동,37.625742,127.072896,지하철
하계,노원구,하계동,37.636352,127.06799,지하철
노원,노원구,상계동,37.654836,127.060462,지하철
도봉산,도봉구,도봉동,37.689241,127.046509,지하철
장암,의정부시,장암동,37.700109,127.053196,지하철
태릉입구,노원구,공릉동,37.617338,127.074735,지하철
석계,노원구,월계동,37.614872,127.065595,지하철
돌곶이,성북구,석관동,37.610537,127.056431,지하철
상월곡(한국과학기술연구원),성북구,상월곡동,37.606377,127.048491,지하철
월곡(동덕여대),성북구,하월곡동,37.601948,127.041518,지하철
보문,성북구,보문동1가,37.585274,127.019351,지하철
창신,종로구,창신동,37.579661,127.015241,지하철
동묘앞,종로구,숭인동,37.572279,127.015653,지하철
약수,중구,신당동,37.554263,127.010358,지하철
한강진,용산구,한남동,37.539631,127.001725,지하철
이태원,용산구,이태원동,37.534488,126.994302,지하철
효창공원앞,용산구,용문동,37.539233,126.961384,지하철
공덕,마포구,공덕동,37.543555,126.951678,지하철
대흥(서강대앞),마포구,대흥동,37.547771,126.942069,지하철
교대(법원.검찰청),서초구,서초동,37.493961,127.014667,지하철
합정,마포구,합정동,37.549209,126.913366,지하철
마포구청,마포구,성산동,37.563515,126.903343,지하철
증산(명지대앞),은평구,증산동,37.583876,126.909645,지하철
새절(신사),은평구,신사동,37.591148,126.913629,지하철
구산,은평구,갈현동,37.611377,126.91727,지하철
강남,강남구,역삼동,37.49799,127.027912,지하철
불광,은평구,대조동,37.610873,126.92939,지하철
길동,강동구,길동,37.537801,127.140004,지하철
강동,강동구,천호동,37.535804,127.132481,지하철
천호(풍납토성),강동구,천호동,37.53864,127.123308,지하철
아차산(어린이대공원후문),광진구,능동,37.551691,127.089761,지하철
군자(능동),광진구,능동,37.557088,127.079577,지하철
장한평,동대문구,장안동,37.56144,127.064623,지하철
답십리,성동구,용답동,37.566747,127.052704,지하철
왕십리(성동구청),성동구,행당동,37.56184,127.037059,지하철
행당,성동구,행당동,37.557322,127.029476,지하철
청구,중구,신당동,37.560276,127.013639,지하철
동대문역사문화공원,중구,광희동1가,37.564665,127.005353,지하철
종로3가,종로구,돈의동,37.57254,126.990305,지하철
삼성(무역센터),강남구,삼성동,37.508844,127.06316,지하철
서대문,종로구,평동,37.565773,126.966641,지하철
충정로(경기대입구),서대문구,충정로3가,37.560236,126.9629,지하철
애오개,마포구,아현동,37.553736,126.95682,지하철
마포,마포구,도화동,37.539574,126.945932,지하철
여의나루,영등포구,여의도동,37.527098,126.932901,지하철
신길,영등포구,영등포동1가,37.517623,126.914839,지하철
영등포시장,영등포구,영등포동5가,37.522669,126.905139,지하철
영등포구청,영등포구,당산동2가,37.5242,126.89503,지하철
양평,영등포구,양평동2가,37.525569,126.886129,지하철
목동,양천구,목동,37.526065,126.864931,지하철
신정(은행정),양천구,신정동,37.524997,126.856191,지하철
까치산,강서구,화곡동,37.531768,126.846683,지하철
우장산,강서구,내발산동,37.548768,126.836318,지하철
발산,강서구,내발산동,37.558598,126.837668,지하철
잠실새내,송파구,잠실동,37.511687,127.086162,지하철
김포공항,강서구,방화동,37.562384,126.801292,지하철
개화산,강서구,방화동,37.572399,126.806171,지하철
평택,평택시,평택동,36.990726,127.085159,지하철
천안,천안시 동남구,대흥동,36.810005,127.146826,지하철
직산,천안시 서북구,직산읍 모시리,36.870593,127.143904,지하철
성환,천안시 서북구,성환읍 성환리,36.916076,127.126964,지하철
잠실(송파구청),송파구,신천동,37.513262,127.100159,지하철
지제,평택시,지제동,37.0188,127.070444,지하철
복정,송파구,장지동,37.470345,127.126658,지하철
수서,강남구,수서동,37.487472,127.101422,지하철
송탄,평택시,신장동,37.075696,127.054301,지하철
진위,평택시,진위면 하북리,37.109447,127.062278,지하철
오산대,오산시,수청동,37.168953,127.063197,지하철
잠실나루,송파구,신천동,37.520733,127.10379,지하철
병점,화성시,진안동,37.207503,127.032731,지하철
선릉,강남구,역삼동,37.504856,127.048807,지하철
한티,강남구,대치동,37.496237,127.052873,지하철
구룡,강남구,개포동,37.486839,127.058856,지하철
개포동,강남구,개포동,37.489116,127.06614,지하철
보정,용인시 기흥구,보정동,37.312752,127.108196,지하철
수리산,군포시,산본동,37.349801,126.925365,지하철
오이도,시흥시,정왕동,37.362357,126.738714,지하철
정왕,시흥시,정왕동,37.351735,126.742989,지하철
신길온천,안산시 단원구,신길동,37.338212,126.765844,지하철
도화,미추홀구,도화동,37.46607,126.668672,지하철
독산,금천구,가산동,37.466613,126.889249,지하철
간석,남동구,간석동,37.464737,126.694181,지하철
부개,부평구,부개동,37.488418,126.74109,지하철
구의(광진구청),광진구,구의동,37.537077,127.085916,지하철
구일,구로구,구로동,37.496756,126.870793,지하철
주엽,고양시 일산서구,주엽동,37.670072,126.761334,지하철
마두,고양시 일산동구,장항동,37.652206,126.77762,지하철
백석,고양시 일산동구,백석동,37.643114,126.78787,지하철
화정,고양시 덕양구,화정동,37.634592,126.83265,지하철
원당,고양시 덕양구,성사동,37.653324,126.843041,지하철
건대입구,광진구,화양동,37.540373,127.069191,지하철
오리,성남시 분당구,구미동,37.339824,127.108942,지하철
정자,성남시 분당구,정자동,37.365994,127.10807,지하철
수내,성남시 분당구,수내동,37.378455,127.114322,지하철
야탑,성남시 분당구,야탑동,37.411185,127.128715,지하철
모란,성남시 중원구,성남동,37.432052,127.129104,지하철
가천대,성남시 수정구,태평동,37.448605,127.126697,지하철
범계,안양시 동안구,호계동,37.389793,126.950806,지하철
시청,중구,정동,37.565715,126.977088,지하철
인덕원,안양시 동안구,관양동,37.401553,126.976715,지하철
정부과천청사,과천시,중앙동,37.426513,126.98978,지하철
대공원,과천시,막계동,37.435675,127.006523,지하철
경마공원,과천시,과천동,37.443885,127.007888,지하철
가능,의정부시,가능동,37.748577,127.044213,지하철
중동,부천시 소사구,송내동,37.486562,126.764843,지하철
뚝섬,성동구,성수동1가,37.547184,127.047367,지하철
안산,안산시 단원구,원곡동,37.327082,126.788532,지하철
초지,안산시 단원구,초지동,37.320646,126.805913,지하철
중앙,안산시 단원구,고잔동,37.315941,126.838573,지하철
상록수,안산시 상록구,본오동,37.302795,126.866489,지하철
산본,군포시,산본동,37.358101,126.933274,지하철
수원,수원시 팔달구,매산로1가,37.266348,126.999561,지하철
성균관대,수원시 장안구,율전동,37.300349,126.97075,지하철
의왕,의왕시,삼동,37.320852,126.948217,지하철
명학,안양시 만안구,안양동,37.384653,126.935433,지하철
안양,안양시 만안구,안양동,37.401592,126.922874,지하철
금천구청,금천구,시흥동,37.455626,126.89398,지하철
구로,구로구,구로동,37.503039,126.881966,지하철
인천,중구,북성동1가,37.476079,126.616801,지하철
동인천,중구,인현동,37.475276,126.632802,지하철
동암,부평구,십정동,37.471408,126.702896,지하철
백운,부평구,십정동,37.483664,126.707704,지하철
상왕십리,성동구,하왕십리동,37.564354,127.029354,지하철
부천,부천시 소사구,심곡본동,37.48405,126.782686,지하철
개봉,구로구,개봉동,37.494594,126.85968,지하철
회룡,의정부시,호원동,37.724416,127.04736,지하철
도봉산,도봉구,도봉동,37.689534,127.046049,지하철
방학,도봉구,방학동,37.667503,127.044273,지하철
녹천,,,37.644799,127.051269,지하철
광운대,노원구,월계동,37.623632,127.061835,지하철
신이문,동대문구,이문동,37.601854,127.067325,지하철
청량리(서울시립대입구),동대문구,전농동,37.580759,127.0483,지하철
왕십리(성동구청),성동구,행당동,37.561827,127.038352,지하철
옥수,성동구,옥수동,37.540446,127.018672,지하철
한남,용산구,한남동,37.52943,127.009169,지하철
이촌(국립중앙박물관),용산구,용산동5가,37.522427,126.973406,지하철
영등포,영등포구,영등포동,37.515504,126.907628,지하철
노량진,동작구,노량진동,37.514149,126.94271,지하철
을지로4가,중구,을지로4가,37.566595,126.997817,지하철
서울역,중구,봉래동2가,37.554337,126.971134,지하철
경찰병원,송파구,가락동,37.495918,127.12454,지하철
가락시장,송파구,가락동,37.492245,127.117757,지하철
동묘앞,종로구,숭인동,37.573197,127.01648,지하철
신정네거리,양천구,신정동,37.520074,126.852912,지하철
일원,강남구,일원동,37.483681,127.08439,지하철
학여울,강남구,대치동,37.496663,127.070594,지하철
대치,강남구,대치동,37.494612,127.063642,지하철
매봉,강남구,도곡동,37.486947,127.046769,지하철
지축,고양시 덕양구,지축동,37.648033,126.913917,지하철
도림천,구로구,신도림동,37.514287,126.882768,지하철
총신대입구(이수),동작구,사당동,37.486263,126.981989,지하철
시청,중구,서소문동,37.563588,126.975411,지하철
응암,은평구,신사동,37.598605,126.915577,지하철
마천,송파구,마천동,37.49499,127.152781,지하철
오금,송파구,가락동,37.502057,127.127938,지하철
방이,송파구,방이동,37.508857,127.126133,지하철
역삼,강남구,역삼동,37.500622,127.036456,지하철
종각,종로구,종로1가,37.570161,126.982923,지하철
고덕,강동구,고덕동,37.555004,127.154151,지하철
명일,강동구,명일동,37.55137,127.143999,지하철
삼가,용인시 처인구,삼가동,37.242115,127.168075,지하철
어정,용인시 기흥구,상하동,37.274917,127.143714,지하철
기흥,용인시 기흥구,구갈동,37.275449,127.116665,지하철
디지털미디어시티,은평구,수색동,37.577475,126.900453,지하철
서울역,중구,봉래동2가,37.557231,126.97103,지하철
문산,파주시,문산읍 문산리,37.854619,126.788047,지하철
월롱,파주시,월롱면 위전리,37.796188,126.792587,지하철
쌍문,도봉구,창동,37.648627,127.034709,지하철
야당,파주시,야당동,37.712327,126.761356,지하철
풍산,고양시 일산동구,풍동,37.672346,126.786243,지하철
곡산,고양시 일산동구,백석동,37.645676,126.801762,지하철
강매,고양시 덕양구,행신동,37.612314,126.843223,지하철
수색,은평구,수색동,37.580842,126.895611,지하철
홍대입구,마포구,동교동,37.557641,126.926683,지하철
공덕,마포구,도화동,37.542596,126.952099,지하철
노원,노원구,상계동,37.65627,127.063276,지하철
부발,이천시,부발읍 아미리,37.260192,127.490277,지하철
곤지암,광주시,곤지암읍 곤지암리,37.351315,127.34674,지하철
삼동,광주시,삼동,37.409522,127.20336,지하철
선정릉,강남구,삼성동,37.510735,127.043677,지하철
서울숲,성동구,성수동1가,37.543617,127.044707,지하철
신창(순천향대),아산시,신창면 행목리,36.769502,126.951108,지하철
봉명,천안시 동남구,봉명동,36.801215,127.135763,지하철
연수,연수구,연수동,37.417804,126.67894,지하철
호구포,남동구,논현동,37.401637,126.708627,지하철
교대(법원.검찰청),서초구,서초동,37.493025,127.013786,지하철
동두천중앙,동두천시,생연동,37.901885,127.056482,지하철
양주,양주시,남방동,37.774381,127.044708,지하철
당정,군포시,당정동,37.344285,126.948345,지하철
수원시청,수원시 권선구,권선동,37.261911,127.030736,지하철
영통,수원시 영통구,영통동,37.251568,127.071394,지하철
신갈,용인시 기흥구,신갈동,37.286102,127.111313,지하철
신사,강남구,신사동,37.516334,127.020114,지하철
양평,양평군,양평읍 양근리,37.492773,127.491837,지하철
아신,양평군,옥천면 아신리,37.51382,127.443173,지하철
운길산,남양주시,조안면 진중리,37.554669,127.310115,지하철
덕소,남양주시,와부읍 덕소리,37.586781,127.208832,지하철
구리,구리시,인창동,37.603392,127.143869,지하철
상봉(시외버스터미널),중랑구,상봉동,37.596678,127.08504,지하철
충무로,중구,필동2가,37.56143,126.994072,지하철
광교중앙(아주대),수원시 영통구,이의동,37.288617,127.051478,지하철
경인교대입구,계양구,계산동,37.538157,126.722597,지하철
박촌,계양구,박촌동,37.553703,126.745077,지하철
충정로(경기대입구),서대문구,충정로3가,37.559704,126.964378,지하철
합정,마포구,서교동,37.549457,126.913808,지하철
신도림,구로구,신도림동,37.508961,126.891084,지하철
삼산체육관,부평구,부개동,37.506411,126.742153,지하철
춘의,부천시 원미구,춘의동,37.503663,126.787036,지하철
수진,성남시 중원구,성남동,37.437428,127.140722,지하철
종로3가,종로구,종로3가,37.570406,126.991847,지하철
장지,송파구,장지동,37.478703,127.126191,지하철
석촌,송파구,석촌동,37.505557,127.106832,지하철
강동구청,강동구,성내동,37.530341,127.120508,지하철
천왕,구로구,천왕동,37.486637,126.838713,지하철
남구로,구로구,구로동,37.486056,126.887249,지하철
보라매,동작구,대방동,37.499872,126.920428,지하철
남성,동작구,사당동,37.484596,126.971251,지하철
고속터미널,서초구,반포동,37.503367,127.005068,지하철
강남구청,강남구,삼성동,37.517179,127.041255,지하철
군자(능동),광진구,능동,37.556897,127.079338,지하철
면목,중랑구,면목동,37.588579,127.087503,지하철
먹골,중랑구,묵동,37.610637,127.077725,지하철
중계,노원구,중계동,37.644583,127.064303,지하철
수락산,노원구,상계동,37.67785,127.055315,지하철
화랑대(서울여대입구),노원구,공릉동,37.620064,127.084689,지하철
고려대(종암),성북구,종암동,37.590508,127.036296,지하철
신당,중구,흥인동,37.566154,127.016146,지하철
버티고개,중구,신당동,37.548013,127.007055,지하철
삼각지,용산구,한강로1가,37.535534,126.974032,지하철
월드컵경기장(성산),마포구,성산동,37.569532,126.899298,지하철
독바위,은평구,불광동,37.618456,126.933031,지하철
한대앞,안산시 상록구,이동,37.309689,126.85344,지하철
화서,수원시 팔달구,화서동,37.283862,126.989627,지하철
금정,군포시,금정동,37.372221,126.943429,지하철
관악,안양시 만안구,석수동,37.419232,126.908706,지하철
제물포,미추홀구,숭의동,37.466769,126.656666,지하철
부평,부평구,부평동,37.489445,126.724506,지하철
역곡,부천시 원미구,역곡동,37.485178,126.811502,지하철
의정부,의정부시,의정부동,37.738415,127.045958,지하철
창동,도봉구,창동,37.653007,127.047806,지하철
석계,성북구,석관동,37.614532,127.065934,지하철
응봉,성동구,응봉동,37.549946,127.034538,지하철
서빙고,용산구,서빙고동,37.519594,126.988537,지하철
대방,영등포구,신길동,37.513342,126.926382,지하철
을지로3가,중구,을지로3가,37.566306,126.991696,지하철
남태령,서초구,방배동,37.463873,126.989134,지하철
대청,강남구,일원동,37.493514,127.079532,지하철
양천구청,양천구,신정동,37.512398,126.865819,지하철
동작(현충원),동작구,동작동,37.502852,126.980347,지하철
거여,송파구,거여동,37.493105,127.14415,지하철
영종,중구,운북동,37.51202,126.524254,지하철
공항화물청사,중구,운서동,37.459041,126.477516,지하철
검암,서구,검암동,37.569098,126.674007,지하철
홍대입구,마포구,동교동,37.557438,126.926715,지하철
삼각지,용산구,한강로1가,37.534075,126.9726,지하철
보문,성북구,보문동1가,37.585286,127.019381,지하철
서울역,용산구,동자동,37.55281,126.972556,지하철
삼양사거리,강북구,미아동,37.621337,127.020473,지하철
4.19민주묘지,강북구,우이동,37.649502,127.013684,지하철
종합운동장,송파구,잠실동,37.511426,127.076275,지하철
산성,성남시 수정구,창곡동,37.457122,127.149908,지하철
가락시장,송파구,가락동,37.492888,127.118398,지하철
몽촌토성(평화의문),송파구,신천동,37.517409,127.112359,지하철
온수(성공회대입구),구로구,온수동,37.492092,126.823023,지하철
가산디지털단지,금천구,가산동,37.480338,126.882656,지하철
신대방삼거리,동작구,대방동,37.499701,126.928276,지하철
숭실대입구(살피재),동작구,상도동,37.496029,126.953822,지하철
반포,서초구,잠원동,37.508178,127.011727,지하철
청담,강남구,청담동,37.519365,127.05335,지하철
어린이대공원(세종대),광진구,화양동,37.548014,127.074658,지하철
사가정,중랑구,면목동,37.580894,127.088478,지하철
태릉입구,노원구,공릉동,37.618294,127.075397,지하철
사당,동작구,사당동,37.476538,126.981544,지하철
마들,노원구,상계동,37.66494,127.057675,지하철
봉화산(서울의료원),중랑구,신내동,37.617283,127.091401,지하철
방배,서초구,방배동,37.481426,126.997596,지하철
안암(고대병원앞),성북구,안암동5가,37.586272,127.029005,지하철
청구,중구,신당동,37.560608,127.013986,지하철
서초,서초구,서초동,37.491897,127.007917,지하철
녹사평(용산구청),용산구,용산동4가,37.534675,126.986695,지하철
상수,마포구,상수동,37.547716,126.922852,지하철
망원,마포구,망원동,37.556094,126.910052,지하철
디지털미디어시티,마포구,상암동,37.576108,126.901391,지하철
연신내,은평구,대조동,37.618636,126.920625,지하철
역촌,은평구,녹번동,37.606021,126.922744,지하철
굽은다리(강동구민회관앞),강동구,명일동,37.545477,127.142853,지하철
광나루(장신대),광진구,광장동,37.545303,127.10357,지하철
선릉,강남구,삼성동,37.504286,127.048203,지하철
마장,성동구,마장동,37.5661,127.042973,지하철
신금호,성동구,금호동1가,37.554548,127.020331,지하철
을지로4가,중구,주교동,37.567352,126.998032,지하철
광화문(세종문화회관),종로구,세종로,37.571525,126.97717,지하철
공덕,마포구,공덕동,37.544431,126.951372,지하철
여의도,영등포구,여의도동,37.521747,126.924357,지하철
종합운동장,송파구,잠실동,37.511022,127.073704,지하철
오목교(목동운동장앞),양천구,목동,37.524496,126.875181,지하철
화곡,강서구,화곡동,37.541513,126.840461,지하철
마곡,강서구,마곡동,37.560183,126.825448,지하철
송정,강서구,공항동,37.561184,126.811973,지하철
방화,강서구,방화동,37.577446,126.812741,지하철
두정,천안시 서북구,두정동,36.833705,127.14896,지하철
신길,영등포구,신길동,37.516862,126.917865,지하철
서정리,평택시,서정동,37.056496,127.052819,지하철
오산,오산시,오산동,37.145885,127.06672,지하철
세마,오산시,세교동,37.187533,127.04318,지하철
세류,수원시 권선구,장지동,37.245025,127.013222,지하철
도곡,강남구,도곡동,37.491224,127.055186,지하철
대모산입구,강남구,일원동,37.491373,127.07272,지하철
강변(동서울터미널),광진구,구의동,37.535095,127.094681,지하철
이매,성남시 분당구,이매동,37.395371,127.128248,지하철
도원,미추홀구,숭의동,37.468446,126.642706,지하철
소사,부천시 소사구,소사본동,37.482753,126.79544,지하철
대화,고양시 일산서구,대화동,37.676087,126.747569,지하철
정발산,고양시 일산동구,장항동,37.659477,126.773359,지하철
대곡,고양시 덕양구,대장동,37.631626,126.811024,지하철
삼송,고양시 덕양구,삼송동,37.653083,126.895558,지하철
미금,성남시 분당구,금곡동,37.350077,127.10891,지하철
서현,성남시 분당구,서현동,37.385126,127.123592,지하철
태평,성남시 수정구,태평동,37.440019,127.127709,지하철
성수,성동구,성수동2가,37.544581,127.055961,지하철
평촌,안양시 동안구,관양동,37.394287,126.963883,지하철
과천,과천시,별양동,37.433021,126.996568,지하철
선바위,과천시,과천동,37.451673,127.002303,지하철
온수(성공회대입구),구로구,온수동,37.492433,126.824086,지하철
고잔,안산시 단원구,고잔동,37.316784,126.823144,지하철
반월,안산시 상록구,건건동,37.312212,126.903524,지하철
한양대,성동구,행당동,37.555273,127.043655,지하철
군포,군포시,당동,37.35356,126.948462,지하철
석수,안양시 만안구,석수동,37.435047,126.902295,지하철
왕십리(성동구청),성동구,행당동,37.561238,127.036954,지하철
주안,미추홀구,주안동,37.465047,126.679742,지하철
송내,부천시 소사구,송내동,37.4876,126.753664,지하철
오류동,구로구,오류동,37.494526,126.845365,지하철
망월사,의정부시,호원동,37.709914,127.047455,지하철
신당,중구,신당동,37.56564,127.019614,지하철
월계,노원구,월계동,37.633212,127.058831,지하철
외대앞,동대문구,이문동,37.596073,127.063549,지하철
동대문역사문화공원,중구,을지로7가,37.565613,127.009054,지하철
신도림,구로구,신도림동,37.508787,126.891144,지하철
용산,용산구,한강로3가,37.529849,126.964561,지하철
오금,송파구,오금동,37.502129,127.128319,지하철
용두(동대문구청),동대문구,용두동,37.574028,127.038091,지하철
수서,강남구,수서동,37.487378,127.101907,지하철
을지로입구,중구,을지로1가,37.566014,126.982618,지하철
당고개,노원구,상계동,37.670272,127.079066,지하철
사당,동작구,사당동,37.476955,126.981651,지하철
서울역,중구,봉래동2가,37.556228,126.972135,지하철
개롱,송파구,가락동,37.498079,127.13482,지하철
둔촌동,강동구,둔촌동,37.527788,127.136248,지하철
상일동,강동구,상일동,37.556712,127.166417,지하철
명지대,용인시 처인구,역북동,37.237964,127.190294,지하철
광흥창(서강),마포구,창전동,37.547456,126.931993,지하철
대야미,군포시,대야미동,37.328467,126.917332,지하철
가산디지털단지,금천구,가산동,37.481581,126.882581,지하철
도봉,도봉구,도봉동,37.679563,127.045595,지하철
회기,동대문구,휘경동,37.58946,127.057583,지하철
남영,용산구,갈월동,37.541021,126.9713,지하철
도곡,강남구,도곡동,37.490922,127.055452,지하철
올림픽공원(한국체대),송파구,방이동,37.516201,127.130923,지하철
삼전,송파구,잠실동,37.504738,127.088025,지하철
석촌고분,송파구,삼전동,37.502558,127.097033,지하철
석촌,송파구,석촌동,37.505208,127.10704,지하철
송파나루,송파구,방이동,37.510372,127.112216,지하철
한성백제,송파구,방이동,37.516404,127.116503,지하철
올림픽공원(한국체대),송파구,방이동,37.516269,127.130288,지하철
둔촌오륜,강동구,둔촌동,37.519683,127.137989,지하철
중앙보훈병원,강동구,둔촌동,37.529191,127.148739,지하철
까치울,부천시 원미구,춘의동,37.50613,126.81093,지하철
남위례,성남시 수정구,복정동,37.4624,127.13977,지하철
부천종합운동장,부천시 원미구,춘의동,37.50502,126.79661,지하철
춘의,부천시 원미구,춘의동,37.50365,126.78828,지하철
신중동,부천시 원미구,중동,37.50282,126.77566,지하철
부천시청,부천시 원미구,중동,37.50444,126.76364,지하철
상동,부천시 원미구,상동,37.505814,126.753163,지하철
삼산체육관,부평구,삼산동,37.50724,126.74179,지하철
굴포천,부평구,부개동,37.50681,126.73234,지하철
진접,남양주시,진접읍 금곡리,37.7205,127.2034,지하철
부평구청,부평구,청천동,37.50848,126.72077,지하철
부천종합운동장,부천시 원미구,춘의동,37.505457,126.797289,지하철
원종,부천시 오정구,원종동,37.5239,126.8049,지하철
김포공항,강서구,방화동,37.5617,126.8041,지하철
오남,남양주시,오남읍 양지리,37.705,127.19281,지하철
초성리,연천군,청산면 초성리,37.98172,127.06912,지하철
별내별가람,남양주시,별내동,37.66778,127.11581,지하철
전곡,연천군,전곡읍 전곡리,38.02458,127.0718,지하철
연천,연천군,연천읍 차탄리,38.10073,127.07372,지하철
소새울,부천시 소사구,소사본동,37.468467,126.797252,지하철
시흥대야,시흥시,대야동,37.450145,126.793041,지하철
시흥능곡,시흥시,능곡동,37.369864,126.808573,지하철
달미,안산시 단원구,선부동,37.348847,126.809409,지하철
선부,안산시 단원구,선부동,37.334353,126.809904,지하철
초지,안산시 단원구,초지동,37.319619,126.808147,지하철
원시,안산시 단원구,원시동,37.302371,126.786691,지하철
신천,시흥시,신천동,37.439066,126.786788,지하철
신현,시흥시,미산동,37.409008,126.788017,지하철
원곡,안산시 단원구,원시동,37.31321,126.796261,지하철
마곡나루,강서구,마곡동,37.565543,126.827378,지하철
미금,성남시 분당구,금곡동,37.349982,127.108918,지하철
소사,부천시 원미구,소사동,37.483279,126.795023,지하철
시흥시청,시흥시,광석동,37.382223,126.805625,지하철
고색,수원시 권선구,고색동,37.24963,126.980248,지하철
어천,화성시,매송면 어천리,37.250102,126.90879,지하철
사리,안산시 상록구,사동,37.28998,126.85685,지하철
금정,군포시,금정동,37.372209,126.943417,지하철
지축,고양시 덕양구,지축동,37.648017,126.91397,지하철
임진강,파주시,문산읍 마정리,37.888421,126.746765,지하철
야목,화성시,매송면 야목리,37.264179,126.879483,지하철
오목천,수원시 권선구,오목천동,37.24304,126.963676,지하철
운천,파주시,문산읍 운천리,37.879942,126.769999,지하철
강일,강동구,상일동,37.55749,127.17593,지하철
하남검단산,하남시,창우동,37.53972,127.22345,지하철
하남시청(덕풍-신장),하남시,덕풍동,37.54205,127.20612,지하철
산곡,부평구,산곡동,37.5086,126.7035277,지하철
석남(거북시장),서구,석남동,37.5062285,126.6762813,지하철
신내,중랑구,신내동,37.613174,127.102231,지하철
양촌,김포시,양촌읍 유현리,37.642379,126.614309,지하철
구래,김포시,구래동,37.645384,126.628633,지하철
마산,김포시,마산동,37.640732,126.644344,지하철
장기,김포시,장기동,37.643986,126.669017,지하철
운양,김포시,운양동,37.653867,126.68393,지하철
걸포북변,김포시,북변동,37.63165,126.705975,지하철
사우(김포시청),김포시,사우동,37.620249,126.719731,지하철
풍무,김포시,사우동,37.612488,126.732387,지하철
고촌,김포시,고촌읍 신곡리,37.601243,126.770345,지하철
김포공항,강서구,방화동,37.56236,126.801868,지하철
미사,하남시,망월동,37.560927,127.193877,지하철
하남풍산,하남시,덕풍동,37.552034,127.203864,지하철
송도달빛축제공원,연수구,송도동,37.407143,126.62597,지하철
샛강,영등포구,여의도동,37.5170969,126.929399,지하철
대방,영등포구,신길동,37.5133059,126.9257265,지하철
서울지방병무청,영등포구,신길동,37.5060464,126.9227083,지하철
보라매,영등포구,신길동,37.5002739,126.9204355,지하철
보라매공원,동작구,신대방동,37.4955691,126.9180827,지하철
보라매병원,동작구,신대방동,37.4929598,126.9234964,지하철
당곡,관악구,봉천동,37.4902998,126.9275133,지하철
신림,관악구,신림동,37.4849266,126.9296159,지하철
서원,관악구,신림동,37.4782341,126.9330365,지하철
서울대벤처타운,관악구,신림동,37.4720019,126.9339351,지하철
관악산(서울대),관악구,신림동,37.4691018,126.9450639,지하철
신논현,강남구,역삼동,37.504598,127.02506,지하철
탕정,아산시,탕정면 매곡리,36.78866,127.08485,지하철
신사,강남구,신사동,37.516334,127.020114,지하철
논현,강남구,논현동,37.511093,127.021415,지하철
구리,구리시,인창동,37.60262,127.1407,지하철
별내,남양주시,별내동,37.64232,127.1276,지하철
다산,남양주시,다산동,37.62429,127.14973,지하철
동구릉,구리시,인창동,37.61105,127.13793,지하철
장자호수공원,구리시,교문동,37.58738,127.13794,지하철
암사역사공원,강동구,암사동,37.55695,127.13702,지하철
성남,성남시 분당구,백현동,37.39468,127.11945,지하철
운정,파주시,동패동,37.71614,126.72841,지하철
대곡,고양시 덕양구,대장동,37.63191,126.81113,지하철
킨텍스,고양시 일산서구,대화동,37.66532,126.74843,지하철
연신내,은평구,대조동,37.61878,126.9213,지하철
서울,중구,봉래동2가,37.55569,126.97296,지하철
삼성,강남구,삼성동,37.50887,127.06324,지하철
수서,강남구,수서동,37.48637,127.10161,지하철
성남,성남시 분당구,이매동,37.39467,127.12058,지하철
구성,용인시 기흥구,보정동,37.29913,127.10389,지하철
동탄,화성시,오산동,37.20034,127.09569,지하철
종로2가사거리,종로구,종로2가,37.56980554,126.9877523,버스
창경궁.서울대학교병원,종로구,연건동,37.57943293,126.9965206,버스
명륜3가.성대입구,종로구,명륜4가,37.58258001,126.9982508,버스
종로2가.삼일교,종로구,관철동,37.56857927,126.9876131,버스
혜화동로터리.여운형활동터,종로구,혜화동,37.586243,127.001744,버스
서대문역사거리,종로구,평동,37.566137,126.966893,버스
서울역사박물관.경희궁앞,종로구,신문로2가,37.569135,126.97038,버스
서울역사박물관.경희궁앞,종로구,신문로2가,37.56951198,126.970759,버스
광화문역,종로구,세종로,37.57014168,126.9763534,버스
광화문역,종로구,종로1가,37.57023966,126.9778803,버스
종로1가,종로구,종로1가,37.57014825,126.9810661,버스
종로1가,종로구,종로1가,37.57027101,126.9816283,버스
종로2가,종로구,종로2가,37.57017238,126.9849903,버스
종로2가,종로구,종로2가,37.57023789,126.9865354,버스
종로3가.탑골공원,종로구,종로2가,37.57020889,126.9893256,버스
종로3가.탑골공원,종로구,종로3가,37.57036054,126.9899878,버스
종로4가.종묘,종로구,종로3가,37.570507,126.9947219,버스
종로4가.종묘,종로구,종로4가,37.570635,126.9953957,버스
종로5가.광장시장,종로구,종로4가,37.570786,126.9990605,버스
종로5가.광장시장,종로구,종로5가,37.57093017,126.9996038,버스
종로6가.동대문종합시장,종로구,종로5가,37.57101117,127.0044628,버스
종로6가.동대문종합시장,종로구,종로5가,37.57112723,127.0057137,버스
동대문역.흥인지문,종로구,창신동,37.57244754,127.0138159,버스
동대문역.흥인지문,종로구,창신동,37.57210531,127.0124518,버스
동묘앞,종로구,숭인동,37.57383216,127.0186103,버스
동묘앞,종로구,숭인동,37.57424646,127.0195528,버스
경기상고,종로구,청운동,37.58755022,126.9693635,버스
신교동,종로구,효자동,37.58329552,126.9702627,버스
경기상고,종로구,청운동,37.58719079,126.9697701,버스
경복고교,종로구,청운동,37.58516003,126.9708802,버스
청운중학교,종로구,청운동,37.58781058,126.9726741,버스
자하문고개.윤동주문학관,종로구,청운동,37.59218662,126.9671262,버스
자하문고개.윤동주문학관,종로구,청운동,37.59233532,126.9671907,버스
청운중학교,종로구,청운동,37.58842196,126.9722631,버스
경복고교,종로구,청운동,37.5850633,126.9714039,버스
통인시장종로구보건소,종로구,통인동,37.5803257,126.97105,버스
통인시장종로구보건소,종로구,창성동,37.58051321,126.9713851,버스
효자동,종로구,효자동,37.58309104,126.970621,버스
사직단.어린이도서관,종로구,사직동,37.57513553,126.9679907,버스
경복궁역1번출구,종로구,내자동,37.57616149,126.9714158,버스
경복궁역2번출구,종로구,체부동,37.57704014,126.9721994,버스
경복궁역3번출구,종로구,통의동,37.57767139,126.9722829,버스
경복궁,종로구,중학동,37.57557679,126.9787471,버스
광화문역2번출구.KT광화문지사,종로구,세종로,37.57232093,126.9774163,버스
영추문,종로구,세종로,37.57893039,126.9739818,버스
광화문역6번출구,종로구,세종로,37.57004483,126.9764072,버스
서울역사박물관.강북삼성병원,종로구,신문로2가,37.570023,126.971248,버스
새문안교회,종로구,신문로1가,37.57033689,126.9728386,버스
광화문역7번출구,종로구,신문로1가,37.570365,126.975837,버스
세종문화회관,종로구,세종로,37.57364893,126.9769976,버스
서울경찰청.경복궁역,종로구,내자동,37.57574466,126.9714843,버스
사직단,종로구,사직동,37.57485535,126.968189,버스
광화문역6번출구.광화문빌딩,종로구,세종로,37.56950355,126.9768637,버스
덕성여중고,종로구,송현동,37.57576939,126.9819722,버스
안국역.서울공예박물관,종로구,안국동,37.57606956,126.9839958,버스
국민은행세검정지점,종로구,신영동,37.60466298,126.960888,버스
세검정초등학교,종로구,신영동,37.60250228,126.9612198,버스
세검정.상명대,종로구,홍지동,37.60047709,126.9582921,버스
상명대입구.석파랑,종로구,홍지동,37.59941335,126.9585702,버스
하림각,종로구,부암동,37.59813307,126.9617068,버스
자하문터널입구.석파정,종로구,부암동,37.59559351,126.9636435,버스
부암동주민센터.무계원,종로구,부암동,37.59276708,126.9642222,버스
부암동주민센터.무계원,종로구,부암동,37.59278617,126.9651419,버스
자하문터널입구.석파정,종로구,부암동,37.59555757,126.9639776,버스
하림각,종로구,부암동,37.59814765,126.9622153,버스
상명대입구.세검정교회,종로구,홍지동,37.59961633,126.9592406,버스
세검정.상명대,종로구,홍지동,37.6006471,126.9591558,버스
세검정초등학교,종로구,신영동,37.60226807,126.9614329,버스
국민은행세검정지점,종로구,신영동,37.60484616,126.9611927,버스
승가사입구,종로구,구기동,37.61158441,126.956306,버스
구기동현대빌라,종로구,구기동,37.6100355,126.9564576,버스
구기터널.삼성출판박물관,종로구,구기동,37.60860989,126.9562103,버스
구기터널.삼성출판박물관,종로구,구기동,37.6083054,126.9564167,버스
구기동,종로구,구기동,37.60696445,126.9585298,버스
구기동,종로구,구기동,37.6070088,126.9591017,버스
승가사입구,종로구,구기동,37.61148,126.956482,버스
갑을씨티텔앞,종로구,평창동,37.60437097,126.963535,버스
평창파출소,종로구,평창동,37.60532237,126.9660433,버스
평창동주민센터,종로구,평창동,37.60660737,126.9695663,버스
일성아파트,종로구,평창동,37.60887236,126.9729237,버스
롯데아파트,종로구,평창동,37.61038972,126.9763156,버스
롯데아파트,종로구,평창동,37.610248,126.976652,버스
벽산평창힐스아파트,종로구,평창동,37.60819,126.972797,버스
예능교회,종로구,평창동,37.606517,126.97,버스
서울예술고등학교.평창동주민센터,종로구,평창동,37.60577876,126.9676276,버스
화정박물관,종로구,평창동,37.60450382,126.9648103,버스
강북삼성병원.경교장,종로구,평동,37.56814593,126.9686005,버스
독립문역.서대문형무소역사관,종로구,무악동,37.573395,126.959322,버스
금화초등학교.서울시교육청,종로구,교남동,37.56825381,126.9645273,버스
서대문역사거리.적십자병원,종로구,평동,37.56710815,126.9675878,버스
독립문,종로구,교북동,37.57134302,126.9614303,버스
창덕궁.서울돈화문국악당,종로구,운니동,37.57754057,126.9885394,버스
서린동.SK서린빌딩,종로구,서린동,37.5692639,126.9800948,버스
청계1가.광교,종로구,관철동,37.56868439,126.9849267,버스
청계2가.수표교,종로구,관수동,37.56844532,126.9908172,버스
청계4가.세운교,종로구,예지동,37.5689254,126.9965617,버스
청계5가.광장시장,종로구,예지동,37.56945128,126.9997974,버스
원남동,종로구,원남동,37.57453251,126.9973383,버스
창덕궁.우리소리박물관,종로구,운니동,37.57727265,126.9889539,버스
안국역6번출구.인사동,종로구,관훈동,37.57579898,126.9841344,버스
조계사.종로경찰서,종로구,견지동,37.57252231,126.9831556,버스
조계사.종로경찰서,종로구,견지동,37.57248581,126.9828259,버스
안국동,종로구,견지동,37.57461057,126.9827201,버스
효제동.김상옥의거터,종로구,효제동,37.5745,127.00223,버스
종로5가.효제초등학교,종로구,효제동,37.57287901,127.0021442,버스
창덕궁.돈화문국악당,종로구,권농동,37.57743277,126.991235,버스
종로5가역6번출구,종로구,종로5가,37.5705596,127.0021827,버스
청계5가.마전교,종로구,종로5가,37.56983511,127.0028494,버스
동대문,종로구,종로6가,37.57172624,127.0084126,버스
충신동,종로구,충신동,37.57402235,127.0062788,버스
충신동,종로구,충신동,37.57446028,127.0063434,버스
현대그룹빌딩,종로구,연지동,37.57591041,127.0008066,버스
방송통신대.이화장,종로구,동숭동,37.578043,127.002437,버스
혜화역2번출구.마로니에공원,종로구,동숭동,37.58111949,127.0022769,버스
혜화역3번출구.서울대병원입구,종로구,연건동,37.58095597,127.0018482,버스
방송통신대.이화장,종로구,연건동,37.57778897,127.0019783,버스
이화동(이화장),종로구,연건동,37.57611936,127.0006951,버스
창경궁.서울대학교병원,종로구,연건동,37.57882799,126.9968717,버스
이화동(이화장),종로구,이화동,37.57593729,127.0032708,버스
혜화동로터리,종로구,혜화동,37.58558033,127.0006878,버스
명륜동2가.성균관대입구,종로구,명륜2가,37.58341708,126.9993413,버스
혜화역.서울연극센터(장면총리가옥),종로구,혜화동,37.58403069,127.0014609,버스
혜화역.동성중고(장면총리가옥),종로구,혜화동,37.58453294,127.0015562,버스
종로구민회관.창신동두산아파트,종로구,창신동,37.57409268,127.0155555,버스
동묘앞역6번출구,종로구,창신동,37.57168496,127.0156014,버스
동묘앞역5번출구,종로구,숭인동,37.57192215,127.015945,버스
청계2가교차로,종로구,관철동,37.5684809,126.9878779,버스
창신3동주민센터,종로구,창신동,37.578413,127.015178,버스
숭인1동주민센터.창신역4번출구,종로구,숭인동,37.57862816,127.0154558,버스
동묘앞역.롯데캐슬천지인,종로구,숭인동,37.57418005,127.0158024,버스
신설동로터리,종로구,숭인동,37.57569473,127.0228414,버스
동묘앞역2번출구,종로구,숭인동,37.57364311,127.0175235,버스
구기동현대빌라,종로구,구기동,37.609682,126.956622,버스
광장시장,종로구,예지동,37.56949631,126.9977438,버스
혜화경찰서,종로구,인의동,37.57258074,126.9974788,버스
서울역사박물관,종로구,신문로1가,37.56990034,126.9721318,버스
청계3가.관수교,종로구,장사동,37.56868879,126.9937794,버스
청계6가.버들다리,종로구,종로6가,37.56993039,127.0080377,버스
청계7가.맑은내다리,종로구,창신동,37.57004196,127.0130967,버스
청계8가.영도교,종로구,창신동,37.57089499,127.0181256,버스
원남동사거리,종로구,원남동,37.57576174,126.9981123,버스
숭인동,종로구,숭인동,37.57427215,127.0204373,버스
조계사,종로구,견지동,37.57280034,126.9831609,버스
세종문화회관,종로구,세종로,37.57336557,126.9770167,버스
이화동(이화장),종로구,이화동,37.576257,127.002955,버스
상명대정문,종로구,홍지동,37.601417,126.955143,버스
이북오도청,종로구,구기동,37.61272348,126.955973,버스
경복궁역(효자로입구),종로구,세종로,37.57670951,126.9743023,버스
상명대입구.세검정교회,종로구,홍지동,37.59944351,126.9597922,버스
상명대입구.석파랑,종로구,홍지동,37.59957181,126.9581941,버스
종로중부새마을금고,종로구,종로6가,37.57241749,127.0065911,버스
신설동로터리.신한은행앞.서울풍물시장,종로구,숭인동,37.57425481,127.0231951,버스
청계2가.삼일교,종로구,관철동,37.56834543,126.9869891,버스
청계8가.황학교,종로구,숭인동,37.57213073,127.022787,버스
평창동삼성아파트,종로구,평창동,37.61118009,126.9787981,버스
안국역.인사동,종로구,경운동,37.57633293,126.9855365,버스
안국역.서울공예박물관,종로구,안국동,37.57641401,126.9848871,버스
창덕궁,종로구,운니동,37.57722809,126.9890031,버스
남인사마당,종로구,인사동,37.57131917,126.9874286,버스
평창파출소,종로구,평창동,37.60568122,126.9668167,버스
삼청공원,종로구,삼청동,37.58822768,126.9816469,버스
수성동계곡,종로구,옥인동,37.58208138,126.9644679,버스
명륜3가종점,종로구,명륜3가,37.59094838,126.9928637,버스
명륜새마을금고,종로구,명륜1가,37.58778547,126.9967901,버스
서대문역3번출구,종로구,평동,37.56633706,126.9663939,버스
낙산공원,종로구,창신동,37.58040372,127.0087216,버스
인사미술공간.세탁소,종로구,원서동,37.58141098,126.9893671,버스
화정박물관,종로구,평창동,37.6048012,126.9648837,버스
금융연수원,종로구,삼청동,37.58663983,126.9816583,버스
박노수미술관,종로구,누상동,37.58099674,126.9666035,버스
샘미용실.종로구청소년상담복지센터,종로구,명륜3가,37.59030953,126.9932227,버스
서울국제고등학교,종로구,명륜1가,37.58907159,126.9972903,버스
화정박물관,종로구,평창동,37.60498061,126.9652008,버스
적십자병원후문앞,종로구,교남동,37.56752954,126.9652273,버스
서울성곽.성대후문,종로구,명륜3가,37.58936638,126.9895694,버스
빨래터.고희동미술관,종로구,원서동,37.58298722,126.9890634,버스
세검초등학교,종로구,신영동,37.60425228,126.9614908,버스
삼청동주민센터,종로구,삼청동,37.58426383,126.9819072,버스
통인시장,종로구,누하동,37.58044175,126.9684957,버스
양현관,종로구,명륜3가,37.58979142,126.9936044,버스
국민생활관,종로구,명륜1가,37.58974563,126.998862,버스
오거리,종로구,평창동,37.60706212,126.9622629,버스
경희궁자이2.3단지,종로구,교남동,37.56878711,126.9640686,버스
창신쌍용2단지.한성대후문,종로구,창신동,37.5812648,127.0127581,버스
통일부,종로구,삼청동,37.58759481,126.9859477,버스
원서고개,종로구,원서동,37.58308055,126.9878088,버스
종로5가입구,종로구,인의동,37.57179285,126.9976709,버스
삼청파출소,종로구,팔판동,37.58181366,126.981251,버스
오거리.한옥마을입구,종로구,누하동,37.57940462,126.9696089,버스
명륜시장.성대후문,종로구,명륜3가,37.58851105,126.9952543,버스
혜화초등학교,종로구,명륜1가,37.58725323,126.9998517,버스
청련사입구,종로구,평창동,37.60798038,126.9624312,버스
영천시장,종로구,교북동,37.57008186,126.9627389,버스
명신초.삼선푸르지오.힐스테이트,종로구,창신동,37.58210621,127.0145563,버스
감사원,종로구,계동,37.58621065,126.9852901,버스
중앙중고,종로구,계동,37.58309218,126.9869653,버스
인왕빌딩,종로구,구기동,37.60792833,126.9577443,버스
종로4가.종묘공원,종로구,종로3가,37.57068903,126.9946203,버스
국립민속박물관,종로구,세종로,37.57925518,126.9795534,버스
광화문새마을금고,종로구,통인동,37.57936877,126.9711466,버스
새마을금고,종로구,명륜3가,37.58773706,126.9965181,버스
혜화우체국,종로구,혜화동,37.58603766,127.0006137,버스
언덕앞,종로구,평창동,37.60895398,126.9637922,버스
경희궁자이4단지,종로구,홍파동,37.57070222,126.9621148,버스
종로센트레빌후문.e편한세상보문아파트,종로구,숭인동,37.58177439,127.0161855,버스
사우디대사관앞.경남빌라,종로구,가회동,37.58410567,126.9850312,버스
안국선원.삼거리,종로구,가회동,37.58279098,126.9849941,버스
구기터널입구,종로구,구기동,37.60820461,126.9567769,버스
종로3가역9번출구,종로구,묘동,37.57108758,126.9920932,버스
경복궁,종로구,세종로,37.57695016,126.9793378,버스
소나무집,종로구,평창동,37.61127707,126.9641105,버스
독립문역3번출구,종로구,교북동,37.57287848,126.9597453,버스
청룡사.보문파크뷰자이아파트,종로구,숭인동,37.58001895,127.0170071,버스
북촌한옥마을입구.정세권활동터,종로구,가회동,37.58159973,126.9849422,버스
종로1.2.3.4가동주민센터,종로구,와룡동,37.57438371,126.9911314,버스
창덕궁,종로구,와룡동,37.57608925,126.99062,버스
아름다운실버,종로구,평창동,37.61201006,126.9654637,버스
독립문초등학교,종로구,무악동,37.57386997,126.9606775,버스
종로센트레빌아파트,종로구,숭인동,37.58035344,127.0156927,버스
가회동주민센터,종로구,가회동,37.57997294,126.9849543,버스
구기빌라,종로구,구기동,37.60626861,126.9579797,버스
원남로터리,종로구,원남동,37.57623737,126.9975115,버스
보현산신각,종로구,평창동,37.61348252,126.9657791,버스
린덴바움숲유치원,종로구,행촌동,37.57466928,126.961804,버스
쌍용아파트입구.창신역,종로구,창신동,37.58051123,127.0149636,버스
아름다운가게.정독도서관,종로구,재동,37.57894808,126.9851272,버스
산정빌라,종로구,구기동,37.60515199,126.9574922,버스
이화사거리,종로구,연건동,37.57650956,127.0020915,버스
박종화고택입구,종로구,평창동,37.61431026,126.9676873,버스
무악현대아파트후문,종로구,무악동,37.57633723,126.9619412,버스
헌법재판소.안국역,종로구,재동,37.5773872,126.9858152,버스
청구빌라,종로구,구기동,37.60461026,126.956984,버스
서울대어린이병원응급실.갑상선센터,종로구,연건동,37.57811888,126.999503,버스
화인빌라,종로구,평창동,37.61293453,126.9685386,버스
넓은마당,종로구,행촌동,37.57527281,126.962888,버스
창신초등학교,종로구,창신동,37.5769032,127.0153886,버스
수운회관,종로구,경운동,37.57521894,126.9866693,버스
상명대후문,종로구,홍지동,37.60402558,126.9573354,버스
힐탑,종로구,평창동,37.61160556,126.9690206,버스
신학대학교총회본부,종로구,행촌동,37.57397631,126.9634446,버스
낙원상가,종로구,경운동,37.57375637,126.9874149,버스
완성빌라,종로구,홍지동,37.60340209,126.9575011,버스
서울대병원장례식장,종로구,연건동,37.5805554,126.997431,버스
혜화역1번출구,종로구,혜화동,37.58347299,127.0017633,버스
감나무골공원,종로구,평창동,37.61240596,126.9699479,버스
한국사회과학자료원.이회영기념관,종로구,사직동,37.57366701,126.9641239,버스
동묘앞역8번출구,종로구,창신동,37.57269435,127.0142454,버스
종로2가.탑골공원,종로구,인사동,37.57057137,126.9875484,버스
경진빌라,종로구,홍지동,37.60200372,126.9578304,버스
성대입구,종로구,명륜2가,37.58335331,126.9992849,버스
청와대,종로구,세종로,37.5829713,126.9737681,버스
춘추문,종로구,팔판동,37.58312761,126.9796554,버스
경복궁.국립민속박물관,종로구,세종로,37.57941352,126.9795911,버스
효자로입구(가상),종로구,세종로,37.57628833,126.9744666,버스
EN갤러리,종로구,평창동,37.6134218,126.9706087,버스
유림회관앞,종로구,명륜1가,37.5858956,126.9969805,버스
성균관대정문,종로구,명륜3가,37.58495635,126.9966204,버스
600주년기념관,종로구,명륜3가,37.5873281,126.9939426,버스
성균관대운동장,종로구,명륜3가,37.587863,126.99237,버스
학생회관,종로구,명륜3가,37.58742039,126.9936746,버스
종로문화센터,종로구,사직동,37.57469356,126.9645321,버스
동대문역2번출구,종로구,창신동,37.57204945,127.0117218,버스
종각역YMCA,종로구,종로2가,37.57039764,126.9850893,버스
서교빌라,종로구,홍지동,37.60198906,126.9571554,버스
경복궁역,종로구,통의동,37.57707221,126.9724733,버스
성대입구,종로구,명륜2가,37.5832668,126.998853,버스
무애사,종로구,평창동,37.61390043,126.9718458,버스
단군성전앞,종로구,사직동,37.57556009,126.9653175,버스
동대문종합시장,종로구,종로5가,37.57121613,127.004958,버스
상명초등학교,종로구,홍지동,37.60092381,126.9567154,버스
법련사,종로구,사간동,37.57658798,126.9796651,버스
광화문새마을금고,종로구,통인동,37.57949309,126.9710277,버스
성균관대학교,종로구,명륜3가,37.584886,126.996646,버스
참샘골공원,종로구,평창동,37.6146097,126.9742525,버스
활터앞,종로구,사직동,37.57681261,126.9653294,버스
종로5가역.중부교육지원청,종로구,종로5가,37.57141925,127.0020898,버스
인사동들머리.3.1독립선언터,종로구,공평동,37.57194702,126.983297,버스
정독도서관,종로구,소격동,37.58026054,126.9800805,버스
오거리.한옥마을입구,종로구,통인동,37.57946844,126.9697393,버스
평창공원지킴터입구,종로구,평창동,37.6163964,126.9757439,버스
창경궁.고궁호텔.메이플레이스호텔,종로구,원남동,37.57655816,126.9974492,버스
광화문,종로구,신문로1가,37.57033749,126.9755695,버스
종로1가,종로구,종로1가,37.57037,126.980129,버스
종로2가,종로구,종로2가,37.57008246,126.9864618,버스
종로3가역11번출구,종로구,종로3가,37.5706349,126.9932082,버스
종로3가,종로구,종로3가,37.57010243,126.9909932,버스
종로4가,종로구,종로4가,37.57046926,126.9962507,버스
동대문종합시장종로6가,종로구,종로5가,37.5708648,127.0032912,버스
종로도서관,종로구,사직동,37.57648423,126.9671252,버스
경복궁역,종로구,내자동,37.57617809,126.9715056,버스
경복궁역7번출구,종로구,내자동,37.57581917,126.971682,버스
안국역,종로구,안국동,37.57661375,126.9852296,버스
안국역,종로구,경운동,37.57631851,126.985506,버스
창덕궁,종로구,운니동,37.57752042,126.9889001,버스
성대입구,종로구,명륜2가,37.5832828,126.9992358,버스
종로사우나,종로구,낙원동,37.57380111,126.9877504,버스
엄마분식,종로구,홍지동,37.60124243,126.9557163,버스
삼청파출소,종로구,화동,37.58164517,126.9813258,버스
통인시장.종로구보건소,종로구,누하동,37.58033503,126.9687505,버스
종로5가역.광장시장,종로구,종로5가,37.57077247,127.000039,버스
평창동산림제3초소,종로구,평창동,37.61735605,126.9771031,버스
배화여중고,종로구,사직동,37.57677876,126.9676986,버스
대학로입구.이화사거리,종로구,연건동,37.57598417,127.0025802,버스
운현궁,종로구,운니동,37.57527161,126.9869814,버스
상명대입구,종로구,홍지동,37.60002101,126.9569583,버스
삼청동주민센터,종로구,삼청동,37.58468468,126.9822105,버스
박노수미술관,종로구,옥인동,37.58102656,126.9668945,버스
김창열.윤명로화실,종로구,평창동,37.616305,126.9783685,버스
사직공원.경복궁역입구,종로구,사직동,37.57622069,126.9689039,버스
충신시장,종로구,충신동,37.57497665,127.0054049,버스
안국역2번출구앞,종로구,재동,37.57717282,126.9861183,버스
금융연수원,종로구,삼청동,37.58587767,126.9818479,버스
감람산기도원,종로구,평창동,37.61594393,126.979873,버스
카센터.터널앞,종로구,사직동,37.57409862,126.9658895,버스
재동초등학교,종로구,재동,37.57879109,126.9853617,버스
삼청공원삼거리.옥호정터,종로구,삼청동,37.58741852,126.9817445,버스
이화사거리,종로구,연건동,37.57532007,127.0022813,버스
연화정사,종로구,평창동,37.614649,126.9794938,버스
대신중고,종로구,행촌동,37.57261781,126.9616893,버스
현대사거리,종로구,계동,37.57924178,126.9866354,버스
교남동주민센터,종로구,교북동,37.57218198,126.9613278,버스
부암동주민센터.무계원,종로구,부암동,37.59293534,126.9637682,버스
형제봉입구,종로구,평창동,37.61286432,126.9816862,버스
교남동새마을금고,종로구,교북동,37.57149436,126.9623375,버스
창신초교,종로구,숭인동,37.57603721,127.0157201,버스
가회동주민센터,종로구,가회동,37.57994265,126.9851294,버스
볼링장,종로구,계동,37.57925544,126.9879589,버스
석파정.서울미술관,종로구,부암동,37.59476432,126.9637824,버스
지구촌교회,종로구,평창동,37.61310603,126.9792421,버스
월암공원,종로구,홍파동,37.57122609,126.9646919,버스
숭인1동주민센터,종로구,숭인동,37.577415,127.0155607,버스
북촌한옥마을입구.정세권활동터,종로구,가회동,37.58128077,126.9851687,버스
하림각,종로구,부암동,37.59768473,126.9629664,버스
보현빌라,종로구,평창동,37.61538226,126.9784206,버스
스위스대사관,종로구,송월동,37.57014132,126.9656961,버스
안국선원.삼거리,종로구,가회동,37.58274325,126.9852205,버스
세검정교회,종로구,홍지동,37.59938802,126.9600292,버스
혜화동로터리,종로구,혜화동,37.58591961,127.0010032,버스
김종영미술관,종로구,평창동,37.61326379,126.9781123,버스
서울시교육청,종로구,평동,37.56938168,126.9666999,버스
창신쌍용1단지.종로센트레빌아파트,종로구,숭인동,37.58032282,127.0155693,버스
사우디대사관.북촌힐스,종로구,가회동,37.58386331,126.9852486,버스
상명대입구,종로구,홍지동,37.59985447,126.9574023,버스
혜화초등학교,종로구,혜화동,37.58738929,126.9999909,버스
강북삼성병원,종로구,평동,37.56853152,126.9683377,버스
청룡사.보문파크뷰자이아파트,종로구,숭인동,37.57978465,127.0171509,버스
감사원,종로구,계동,37.58626565,126.9855618,버스
국민생활관,종로구,혜화동,37.5896276,126.9993138,버스
종로센트레빌후문.e편한세상보문아파트,종로구,숭인동,37.58189784,127.0162354,버스
통일부,종로구,원서동,37.58753085,126.9861073,버스
서울국제고등학교,종로구,명륜1가,37.58907429,126.9971408,버스
성대후문.와룡공원,종로구,명륜3가,37.58915228,126.989734,버스
상명초등학교,종로구,홍지동,37.60090493,126.9568174,버스
새마을금고,종로구,명륜1가,37.58784069,126.996569,버스
경진빌라,종로구,홍지동,37.60186409,126.9579482,버스
명륜시장.성대후문,종로구,명륜3가,37.58872461,126.9952305,버스
완성빌라,종로구,홍지동,37.60333997,126.9576665,버스
양현관,종로구,명륜3가,37.589768,126.9937686,버스
상명대후문,종로구,구기동,37.60407158,126.9574634,버스
샘미용실.종로구청소년상담복지센터,종로구,명륜3가,37.59025457,126.9934084,버스
산정빌라,종로구,구기동,37.60528358,126.9575782,버스
구기빌라,종로구,구기동,37.60613345,126.9579809,버스
마트앞,종로구,구기동,37.60669871,126.9587565,버스
국민은행.세검정지점,종로구,신영동,37.60495417,126.9608727,버스
혜화역4번출구,종로구,명륜4가,37.58350804,127.0015539,버스
방송통신대앞,종로구,연건동,37.57869736,127.0019927,버스
서울대치과대학,종로구,연건동,37.5774083,126.997801,버스
효제초교.연동교회.김마리아활동터,종로구,효제동,37.57364134,127.0022088,버스
성균관대학교,종로구,명륜3가,37.58846387,126.9900036,버스
서울대치과대학,종로구,연건동,37.57757273,126.9978632,버스
이화사거리,종로구,연건동,37.57694834,127.0020085,버스
서울대학교병원현관.암병원현관,종로구,연건동,37.57908728,126.9981632,버스
종각.공평유적전시관,종로구,공평동,37.57159379,126.9832427,버스
조계사,종로구,견지동,37.57360211,126.9831364,버스
동대문역JW메리어트동대문호텔,종로구,종로6가,37.57063698,127.0092821,버스
대학로,종로구,동숭동,37.58189612,127.0021204,버스
창경궁,종로구,와룡동,37.57915963,126.9964163,버스
창덕궁,종로구,와룡동,37.57753017,126.9901776,버스
인사동.북촌,종로구,안국동,37.57589502,126.9837978,버스
경복궁.국립민속박물관,종로구,세종로,37.57933918,126.9795487,버스
세종문화회관,종로구,세종로,37.57313885,126.976912,버스
통인시장,종로구,통인동,37.57911876,126.9713316,버스
세종문화회관,종로구,세종로,37.57315586,126.9770139,버스
종각역,종로구,서린동,37.56937996,126.9828944,버스
인사동.탑골공원,종로구,종로2가,37.57011554,126.9888006,버스
종묘.세운상가,종로구,종로3가,37.57037362,126.9934997,버스
광장시장,종로구,종로5가,37.57075214,126.9996789,버스
동묘.숭인동도깨비시장,종로구,숭인동,37.5734766,127.0180439,버스
서울풍물시장,종로구,숭인동,37.57334003,127.0231781,버스
청와대,종로구,세종로,37.58268481,126.97376,버스
남대문세무서,중구,저동1가,37.56498481,126.9875299,버스
국가인권위.안중근활동터,중구,저동1가,37.56435047,126.9878515,버스
서울역버스환승센터,중구,봉래동2가,37.55514602,126.9722571,버스
서울역버스환승센터,중구,봉래동2가,37.55540298,126.9725925,버스
서울역버스환승센터,중구,봉래동2가,37.55538899,126.9727238,버스
서울역버스환승센터,중구,봉래동2가,37.55547941,126.9728548,버스
서울역버스환승센터.강우규의거터,중구,봉래동2가,37.55541416,126.9729403,버스
숭례문,중구,남대문로5가,37.55863886,126.9737784,버스
숭례문(가상),중구,봉래동1가,37.55979677,126.9743556,버스
서울시청,중구,을지로1가,37.56613826,126.9806321,버스
만리동고개,중구,만리동2가,37.55178706,126.9626582,버스
손기정체육공원입구,중구,만리동2가,37.55444595,126.9662339,버스
서울의료보건고등학교.서울역서부,중구,만리동1가,37.5558479,126.9689026,버스
서울역서부,중구,만리동1가,37.55623764,126.9691514,버스
서울역서부,중구,봉래동2가,37.555855,126.969293,버스
중림동교차로,중구,중림동,37.55838363,126.9691354,버스
종근당.충정로역,중구,중림동,37.55964888,126.9645408,버스
한국경제신문사.서소문역사공원,중구,중림동,37.56021115,126.967868,버스
한국경제신문사.서소문역사공원,중구,중림동,37.56062347,126.9681135,버스
경찰청.동북아역사재단,중구,의주로1가,37.56304949,126.9691267,버스
장충동써미트호텔,중구,장충동1가,37.56227366,127.006675,버스
농협은행.유관순활동터,중구,의주로1가,37.56490628,126.9677868,버스
염천교,중구,봉래동1가,37.55986963,126.9731141,버스
숭례문,중구,남대문로5가,37.55840106,126.9733579,버스
숭례문.한국일보,중구,남대문로5가,37.55877131,126.9737376,버스
후암삼거리,중구,남대문로5가,37.5534056,126.9759938,버스
숭례문,중구,남대문로5가,37.55876338,126.9743627,버스
숭례문,중구,남대문로5가,37.55841953,126.9740437,버스
숭례문,중구,남대문로5가,37.55800065,126.9736279,버스
남대문시장악세사리전문상가,중구,남창동,37.5588724,126.9759977,버스
숭례문남산방향,중구,남대문로5가,37.55855816,126.9756721,버스
남대문시장.신세계앞,중구,회현동1가,37.56119108,126.9800598,버스
북창동.남대문시장,중구,남대문로3가,37.56123,126.978282,버스
시청앞,중구,태평로2가,37.56219717,126.9764437,버스
삼성본관앞,중구,태평로2가,37.56205175,126.9759075,버스
시청서소문2청사,중구,태평로2가,37.56276421,126.9761487,버스
시청서소문2청사,중구,서소문동,37.56319014,126.9746522,버스
시청.서소문청사,중구,서소문동,37.56352484,126.9749539,버스
광교,중구,남대문로1가,37.56810692,126.9828444,버스
서울신문사,중구,태평로1가,37.56836329,126.9773647,버스
명동성당,중구,저동1가,37.56497416,126.9874194,버스
우리은행종로지점,중구,남대문로1가,37.56783904,126.9828659,버스
롯데백화점,중구,남대문로2가,37.56450698,126.982207,버스
해운센터.롯데영플라자,중구,남대문로2가,37.56289078,126.9815478,버스
롯데영프라자,중구,남대문로2가,37.562885,126.982008,버스
명동입구B,중구,남대문로2가,37.56442477,126.9823981,버스
신세계백화점,중구,충무로1가,37.56112734,126.9814315,버스
남대문시장.회현역,중구,남창동,37.55826752,126.9777651,버스
남대문시장.회현역,중구,남창동,37.55849203,126.9784645,버스
남산3호터널,중구,회현동1가,37.55831045,126.9827404,버스
남산3호터널.서울애니메이션센터,중구,회현동2가,37.55952609,126.9826359,버스
명동역4번출구,중구,남산동1가,37.56065785,126.9849158,버스
퇴계로2가.명동역5번출구,중구,충무로1가,37.56093258,126.9843583,버스
퇴계로3가.한옥마을.한국의집,중구,필동1가,37.56125082,126.9917772,버스
퇴계로3가.한옥마을.한국의집,중구,필동1가,37.56090197,126.9924098,버스
충무로역2번출구.대한극장앞,중구,필동2가,37.56123759,126.9947285,버스
충무로역8번출구.대한극장앞,중구,충무로4가,37.56203716,126.9964922,버스
초동,중구,인현동1가,37.56334618,126.993112,버스
을지로입구.로얄호텔,중구,을지로2가,37.56587574,126.9853903,버스
을지로입구.시청입구,중구,을지로1가,37.56613826,126.9811712,버스
을지로2가.기업은행본점.서울노동청,중구,을지로2가,37.56624623,126.9865234,버스
을지로2가.파인에비뉴,중구,을지로2가,37.56607271,126.9886708,버스
을지로3가,중구,을지로3가,37.56637298,126.99026,버스
을지로3가,중구,을지로3가,37.56612052,126.9913276,버스
을지로4가,중구,을지로4가,37.56668416,126.9959336,버스
을지로4가.베스트웨스턴국도,중구,을지로4가,37.56640104,126.9968473,버스
중구청앞.덕수중학교,중구,예관동,37.5647746,126.9981401,버스
방산시장.을지로4가역6번출구,중구,을지로4가,37.56681829,126.9992585,버스
을지로5가.중부시장,중구,을지로5가,37.56662004,127.001115,버스
방산시장.훈련원종합체육관,중구,방산동,37.56796085,127.0024045,버스
을지로5가,중구,을지로5가,37.56582435,127.0025946,버스
을지로6가.국립중앙의료원,중구,을지로6가,37.56616983,127.0062316,버스
광희동,중구,광희동1가,37.56505283,127.0072097,버스
광희동,중구,광희동2가,37.56517255,127.0077223,버스
을지로6가.국립중앙의료원,중구,을지로6가,37.56646311,127.0058435,버스
동대문역사문화공원,중구,을지로6가,37.56735414,127.0083555,버스
동대문역사문화공원,중구,을지로7가,37.5674835,127.0091685,버스
충무아트센터.스포츠센터.중부소방서,중구,신당동,37.56516753,127.0135231,버스
충무아트센터.스포츠센터.중부소방서,중구,신당동,37.56501789,127.0147409,버스
성동공업고등학교(무궁화회관),중구,흥인동,37.56834819,127.0157558,버스
성동공업고등학교앞,중구,흥인동,37.56869506,127.0161295,버스
신당역1번출구.서울중앙시장,중구,황학동,37.56572828,127.0187427,버스
신당역4번출구.서울중앙시장,중구,신당동,37.56549207,127.0194795,버스
성동고등학교,중구,황학동,37.56559419,127.0221822,버스
성동고등학교,중구,신당동,37.56524109,127.0223979,버스
신당동떡볶이타운.중구여성플라자,중구,신당동,37.56279546,127.015096,버스
신당동떡볶이타운.중구여성플라자,중구,신당동,37.56231004,127.0151909,버스
청구초등학교.청구역,중구,신당동,37.5589483,127.0132161,버스
장충초등학교.청구역,중구,신당동,37.5592574,127.0130317,버스
약수역2번출구.가온도서관,중구,신당동,37.55579291,127.0110429,버스
약수역3번출구.약수하이츠,중구,신당동,37.55574961,127.0113797,버스
약수역4번출구.금호터널입구,중구,신당동,37.553399,127.012012,버스
약수역5번출구.금호터널입구,중구,신당동,37.55292373,127.0118693,버스
약수역8번출구.신당사회복지관,중구,신당동,37.55386465,127.0099567,버스
약수역7번출구.약수동주민센터,중구,신당동,37.55285097,127.0092978,버스
송도병원앞,중구,신당동,37.55026765,127.0077187,버스
송도병원앞,중구,신당동,37.55022712,127.0073984,버스
약수역1번출구,중구,신당동,37.55625253,127.0097556,버스
장충체육관앞,중구,장충동1가,37.55833622,127.0080611,버스
장충체육관앞,중구,장충동2가,37.55800173,127.0078282,버스
장충동.동국대입구,중구,장충동1가,37.56062132,127.0059098,버스
장충동.동국대입구,중구,장충동1가,37.56066639,127.0056291,버스
퇴계로6가,중구,쌍림동,37.56340113,127.0039011,버스
퇴계로6가,중구,쌍림동,37.56352844,127.0033758,버스
퇴계로5가.충무초등학교,중구,묵정동,37.56238041,126.999966,버스
퇴계로5가.중구청,중구,충무로5가,37.56278042,126.9997252,버스
국립극장.반얀트리호텔,중구,장충동2가,37.55148182,127.0010947,버스
국립극장.반얀트리호텔,중구,장충동2가,37.55153396,127.0007526,버스
청구역2번출구,중구,신당동,37.55996006,127.0146561,버스
청구역3번출구,중구,신당동,37.55993038,127.0142192,버스
동화동,중구,신당동,37.56002447,127.0181258,버스
동화동,중구,신당동,37.55981268,127.0182737,버스
백범광장,중구,회현동1가,37.555737,126.980093,버스
남대문경찰서,중구,남대문로5가,37.55412819,126.9738404,버스
남대문시장앞.이회영활동터,중구,남창동,37.56093942,126.9785804,버스
남산케이블카.남산산책로입구,중구,회현동1가,37.55526518,126.9839798,버스
동대입구역.장충동,중구,장충동2가,37.558362,127.005445,버스
약수역10번출구,중구,신당동,37.556256,127.009322,버스
청계1가.광교,중구,삼각동,37.56857079,126.9833922,버스
청계2가.삼일교,중구,수표동,37.56784047,126.9885302,버스
청계4가.배오개다리,중구,주교동,37.56848437,126.9971755,버스
청계5가.방산시장,중구,주교동,37.56921496,127.0008266,버스
청계6가.평화시장,중구,방산동,37.56944119,127.0043806,버스
청계7가.동평화.청평화시장,중구,신당동,37.56951354,127.0138508,버스
청계8가.영도교,중구,황학동,37.57072592,127.0189972,버스
신한은행본점,중구,태평로2가,37.56119655,126.9755852,버스
퇴계로2가.명동역7번출구,중구,충무로2가,37.560988,126.985336,버스
광희동.동대문역사문화공원역,중구,을지로7가,37.56541133,127.0091092,버스
버티고개,중구,신당동,37.54780415,127.0060242,버스
버티고개,중구,신당동,37.54765049,127.0061899,버스
청계3가.관수교,중구,입정동,37.56821346,126.9929651,버스
청계6가.오간수교,중구,을지로6가,37.56948518,127.0090361,버스
충무로역.매일경제,중구,필동1가,37.56169057,126.9933889,버스
을지로입구역.광교,중구,남대문로1가,37.56764926,126.9825656,버스
신당파인힐하나유보라,중구,신당동,37.56498098,127.024856,버스
명동입구,중구,남대문로2가,37.56472274,126.9824744,버스
남산북측순환로입구,중구,장충동2가,37.55069862,126.9988218,버스
신당동삼성아파트.금호여중,중구,신당동,37.5585545,127.0187299,버스
신당동대우푸르지오.금호여중,중구,신당동,37.55780783,127.0192882,버스
황학동주민센터,중구,황학동,37.56685562,127.0234024,버스
신당초등학교앞,중구,신당동,37.56448134,127.0239173,버스
금호베스트빌.래미안하이베르,중구,신당동,37.56164521,127.0240513,버스
금호베스트빌.래미안하이베르,중구,신당동,37.56225445,127.0243472,버스
신당초등학교,중구,신당동,37.56450284,127.0242404,버스
방산종합시장,중구,방산동,37.56780587,127.0019301,버스
황학동롯데캐슬,중구,황학동,37.57166017,127.022034,버스
광희문.광희동사거리,중구,광희동2가,37.56454992,127.008611,버스
광희문.광희동사거리,중구,광희동2가,37.56440161,127.0096779,버스
황학동롯데캐슬,중구,황학동,37.57081975,127.0232959,버스
한국은행앞,중구,남대문로3가,37.56140811,126.97929,버스
서울기동대.광희초등학교,중구,신당동,37.56792221,127.0144829,버스
동대문디자인플라자,중구,신당동,37.56770075,127.0119962,버스
서대문역사거리.농협중앙회,중구,충정로1가,37.56688486,126.9679803,버스
서울스퀘어앞,중구,봉래동2가,37.55534163,126.9732317,버스
북창동.남대문시장,중구,남대문로4가,37.56084629,126.9769187,버스
힐튼호텔,중구,남창동,37.55636774,126.9765672,버스
힐튼호텔,중구,남창동,37.55662674,126.9767113,버스
시청앞.덕수궁,중구,정동,37.56621228,126.9768356,버스
남대문세무서.국가인권위원회,중구,저동1가,37.56508396,126.9878661,버스
장충문화체육센터.권기옥활동터,중구,장충동2가,37.5601745,127.0025921,버스
남산1호터널,중구,예장동,37.55740518,126.9921666,버스
남산예장버스환승주차장,중구,예장동,37.55974,126.989289,버스
약수역.3.6호선,중구,신당동,37.55330466,127.0117056,버스
조선일보,중구,태평로1가,37.56873398,126.9768831,버스
시청역,중구,정동,37.566031,126.97701,버스
서울역,중구,봉래동2가,37.55820126,126.9713291,버스
숭례문앞,중구,태평로2가,37.56151644,126.9762361,버스
프레스센터,중구,태평로1가,37.56739609,126.9773391,버스
신당역하나은행,중구,신당동,37.56542311,127.0215879,버스
염천교,중구,순화동,37.55979257,126.9711137,버스
한국경제신문사,중구,중림동,37.56093341,126.9679526,버스
응봉근린공원.금호산,성동구,금호동2가,37.5535217,127.016919,버스
서울방송고등학교.남산타운아파트,중구,신당동,37.54958602,127.0124098,버스
서울방송고등학교.남산타운아파트,중구,신당동,37.54961194,127.0122784,버스
중구청소년센터.남산타운2상가,중구,신당동,37.55165491,127.0127512,버스
중구청소년센터.남산타운2상가,중구,신당동,37.55190274,127.0121656,버스
약수시장.남산타운동문,중구,신당동,37.55173322,127.01085,버스
약수지구대,중구,신당동,37.5528411,127.0119578,버스
남대문시장,중구,남대문로3가,37.56142846,126.9793973,버스
을지로입구역롯데호텔,중구,소공동,37.56580472,126.9803053,버스
소공동웨스틴조선호텔,중구,소공동,37.56451783,126.9796461,버스
서울광장,중구,소공동,37.565352,126.978885,버스
광화문코리아나호텔,중구,태평로1가,37.56840139,126.9769075,버스
서소문KAL빌딩,중구,서소문동,37.56333874,126.9743183,버스
동국대입구앰배서더호텔,중구,장충동2가,37.55977171,127.0026102,버스
광화문,중구,태평로1가,37.568799,126.9769068,버스
시청덕수궁,중구,정동,37.566254,126.976921,버스
바비엥스위트,중구,의주로1가,37.56510899,126.9676373,버스
서울역,중구,남대문로5가,37.55781956,126.9728596,버스
명동역.세종호텔,중구,충무로2가,37.56108601,126.9864493,버스
충무로역.호텔피제이,중구,충무로4가,37.56171802,126.9955605,버스
남대문시장,중구,남창동,37.56096738,126.9787309,버스
이비스엠버서더호텔,중구,남대문로2가,37.56435343,126.9823877,버스
프레이저플레이스,중구,의주로1가,37.56284768,126.9692683,버스
서울역,중구,봉래동2가,37.55816,126.971336,버스
아카시아호텔.웨스턴코업레지던스,중구,을지로5가,37.56655061,127.0034787,버스
을지로코업레지던스,중구,을지로6가,37.56623336,127.0053975,버스
토요코인호텔.이비스버젯호텔,중구,광희동2가,37.56459135,127.0089473,버스
약수역,중구,신당동,37.55378896,127.0098978,버스
남산밀레니엄힐튼호텔,중구,남대문로5가,37.55546657,126.9759753,버스
서울역,중구,봉래동1가,37.5580158,126.9720457,버스
숭례문라마다&스위트호텔,중구,순화동,37.56061096,126.9720685,버스
시청역더플라자호텔,중구,태평로2가,37.5641562,126.9779059,버스
시청.서울신문사,중구,태평로1가,37.56829932,126.9773647,버스
프레이저플레이스남대문,중구,남대문로4가,37.561376,126.9762666,버스
프레이저플레이스남대문,중구,태평로2가,37.56106678,126.9755366,버스
동대문역사문화공원,중구,을지로7가,37.56538519,127.0092451,버스
광희동더스프라지르서울동대문,중구,광희동2가,37.56473333,127.0075553,버스
동대문디자인플라자DDP,중구,을지로6가,37.56785291,127.0092138,버스
베이튼호텔,중구,쌍림동,37.56499932,127.0026364,버스
광화문,중구,태평로1가,37.56894357,126.9768853,버스
덕수궁,중구,정동,37.566106,126.976925,버스
남대문시장,중구,태평로2가,37.56092315,126.9753967,버스
명동,중구,충무로2가,37.56075833,126.9856195,버스
남산골한옥마을,중구,필동1가,37.56099506,126.9924384,버스
앰버서더호텔,중구,장충동2가,37.5604635,127.0026254,버스
신라호텔,중구,장충동2가,37.5583034,127.0054272,버스
동대문디자인플라자.동대문시장,중구,을지로7가,37.5668754,127.0085549,버스
동대문디자인프라자,중구,을지로6가,37.56776256,127.0091304,버스
방산.중부시장,중구,을지로4가,37.56685688,126.9994423,버스
을지로3가,중구,을지로3가,37.56653491,126.9923256,버스
을지로입구,중구,을지로1가,37.56613096,126.9810013,버스
명동입구,중구,남대문로2가,37.56415262,126.9823016,버스
신당동중앙시장,중구,황학동,37.56575532,127.0194166,버스
남산오르미,중구,회현동2가,37.55819405,126.9831349,버스
한강대교북단.LG유플러스,용산구,한강로3가,37.52404994,126.963121,버스
한강대교북단.LG유플러스,용산구,한강로3가,37.52430606,126.9631848,버스
신용산역,용산구,한강로2가,37.527293,126.966207,버스
신용산역,용산구,한강로2가,37.52792049,126.9666192,버스
용산우체국,용산구,한강로2가,37.53149701,126.970235,버스
용산우체국,용산구,한강로2가,37.53205037,126.9705641,버스
삼각지역,용산구,한강로1가,37.53518014,126.9736858,버스
삼각지역,용산구,한강로1가,37.5359845,126.9741609,버스
숙대입구역,용산구,남영동,37.54329563,126.9725378,버스
숙대입구역,용산구,갈월동,37.54375602,126.9722321,버스
갈월동,용산구,동자동,37.5509756,126.9722373,버스
갈월동,용산구,동자동,37.54953372,126.9717082,버스
남영역,용산구,갈월동,37.54200692,126.9719272,버스
남영역,용산구,갈월동,37.541823,126.972069,버스
신용산역3번출구,용산구,한강로2가,37.52888957,126.9673498,버스
서울드래곤시티,용산구,한강로3가,37.53215669,126.9630604,버스
용산역3번출구.용산차고지,용산구,한강로3가,37.53180791,126.9642146,버스
한강대교북단,용산구,한강로3가,37.52496899,126.9635707,버스
서계동,용산구,동자동,37.5524743,126.9693405,버스
서계동,용산구,서계동,37.5516705,126.969222,버스
청파동,용산구,청파동1가,37.54899162,126.970122,버스
청파시장,용산구,청파동1가,37.54867903,126.9698626,버스
숙대입구역.청파동주민센터,용산구,청파동2가,37.54538125,126.9707772,버스
숙대입구역.청파동주민센터,용산구,청파동2가,37.54548616,126.9704189,버스
남영역,용산구,갈월동,37.540813,126.971032,버스
남영역,용산구,원효로1가,37.54057027,126.9706761,버스
용산전자상가17동,용산구,한강로2가,37.53377926,126.9660271,버스
용산전자상가19동,용산구,한강로2가,37.53351349,126.9657072,버스
용산전자상가10동,용산구,한강로3가,37.5332725,126.9619641,버스
용산전자상가12동,용산구,한강로3가,37.53305741,126.962169,버스
용산전자상가.전자랜드,용산구,한강로3가,37.53277906,126.9583252,버스
용산전자상가.전자랜드,용산구,원효로3가,37.53305612,126.9583364,버스
원효대교북단,용산구,한강로3가,37.53198537,126.956111,버스
용산경찰서,용산구,원효로1가,37.54050321,126.9691858,버스
용산경찰서,용산구,원효로1가,37.53999946,126.9690615,버스
용산꿈나무종합타운.원효로우체국,용산구,원효로1가,37.5386139,126.9669291,버스
용산e편한세상,용산구,원효로2가,37.53746206,126.9654678,버스
남정초등학교,용산구,원효로2가,37.53631875,126.9636632,버스
원효로2가,용산구,원효로2가,37.53623744,126.9629911,버스
원효로2가사거리,용산구,원효로2가,37.53493384,126.9610704,버스
원효로3가,용산구,원효로3가,37.53404076,126.9581798,버스
원효로3가,용산구,원효로3가,37.53379572,126.9583248,버스
용암초등학교입구.이태원주공아파트,용산구,용산동2가,37.54411594,126.9886646,버스
이태원동남산대림아파트.용산동아파트,용산구,이태원동,37.53987437,126.98748,버스
용산한신아파트,용산구,용산동2가,37.53980547,126.9871086,버스
해방촌,용산구,용산동2가,37.53781774,126.9866091,버스
국군재정관리단,용산구,이태원동,37.53731771,126.9868496,버스
용산구청,용산구,이태원동,37.530303,126.991163,버스
용산구청,용산구,용산동4가,37.52940958,126.9911699,버스
한강중학교,용산구,동빙고동,37.52545875,126.9921715,버스
한강중학교앞,용산구,서빙고동,37.52450259,126.9924288,버스
서빙고역1번출구,용산구,서빙고동,37.52004642,126.9899502,버스
장충단로입구,용산구,한남동,37.545795,127.002202,버스
남산예술원,용산구,한남동,37.544437,127.00204,버스
서울중부기술교육원.블루스퀘어,용산구,한남동,37.54157768,127.0035398,버스
서울시중부기술교육원.블루스퀘어,용산구,한남동,37.5411749,127.0031776,버스
순천향대학병원,용산구,한남동,37.53644224,127.0057302,버스
순천향대학병원,용산구,한남동,37.5356114,127.0062994,버스
순천향대학병원,용산구,한남동,37.53579346,127.0054994,버스
순천향대학병원.한남오거리,용산구,한남동,37.53549068,127.005729,버스
한남오거리,용산구,한남동,37.53284782,127.0083126,버스
남산도서관.용산도서관,용산구,후암동,37.552282,126.980835,버스
남산도서관.용산도서관,용산구,후암동,37.55204425,126.981134,버스
후암약수터,용산구,후암동,37.54869,126.98432,버스
후암약수터,용산구,후암동,37.54839526,126.9841669,버스
보성여중고입구,용산구,용산동2가,37.54639685,126.98584,버스
보성여중고입구,용산구,용산동2가,37.54625985,126.9856318,버스
남산체육관,용산구,이태원동,37.54270388,126.9927902,버스
남산체육관,용산구,이태원동,37.54250475,126.992917,버스
하얏트호텔,용산구,이태원동,37.54175355,126.9961358,버스
하얏트호텔,용산구,이태원동,37.5408661,126.9974258,버스
용마루고개(서울자동차고등학교),용산구,효창동,37.54063689,126.9584647,버스
용마루고개.효창파크푸르지오아파트,용산구,효창동,37.54029991,126.958552,버스
효창공원앞역.이봉창역사울림관,용산구,효창동,37.53927197,126.9618971,버스
효창공원앞역.이봉창역사울림관,용산구,효창동,37.53882848,126.9626979,버스
용산꿈나무종합타운.보건분소,용산구,원효로1가,37.53842682,126.9649998,버스
용산꿈나무종합타운.보건분소,용산구,원효로2가,37.538295,126.964648,버스
원효로제1동주민센터,용산구,문배동,37.53766072,126.9669923,버스
전쟁기념관,용산구,용산동1가,37.53475867,126.9768578,버스
전쟁기념관,용산구,용산동3가,37.53465117,126.9753831,버스
녹사평역,용산구,용산동2가,37.53510696,126.9851183,버스
녹사평역,용산구,용산동4가,37.53475822,126.9853047,버스
용산구청.이태원시장,용산구,이태원동,37.53438305,126.9904707,버스
용산구청.이태원시장,용산구,이태원동,37.53411271,126.9900096,버스
이태원역1번출구.해밀턴호텔,용산구,이태원동,37.534552,126.993043,버스
이태원역4번출구.해밀턴호텔,용산구,이태원동,37.53435397,126.9934293,버스
이태원119안전센터,용산구,이태원동,37.53479,126.996387,버스
이태원119안전센터,용산구,한남동,37.53460415,126.9971799,버스
한남동주민센터,용산구,한남동,37.53704589,127.0004667,버스
한남동주민센터,용산구,한남동,37.5367073,127.0006043,버스
한강진역.블루스퀘어,용산구,한남동,37.540805,127.001695,버스
한강진역.블루스퀘어,용산구,한남동,37.54092918,127.0020254,버스
서울역11번출구,용산구,동자동,37.55361688,126.9738944,버스
후암삼거리,용산구,후암동,37.55254084,126.9765772,버스
후암시장,용산구,후암동,37.55068919,126.9770645,버스
후암시장,용산구,후암동,37.54974673,126.9775446,버스
용산중고,용산구,후암동,37.54665979,126.9781856,버스
용산중고,용산구,후암동,37.547205,126.978225,버스
후암동종점,용산구,후암동,37.54669893,126.9809588,버스
용산중고,용산구,용산동1가,37.54574,126.977563,버스
남영동주민센터,용산구,후암동,37.54581261,126.9768703,버스
남영동주민센터,용산구,용산동1가,37.5453624,126.9750573,버스
남영우체국,용산구,남영동,37.54512412,126.9732354,버스
남영우체국,용산구,갈월동,37.54536815,126.9734814,버스
한남시범아파트,용산구,한남동,37.53794297,127.0122608,버스
한남시범아파트,용산구,한남동,37.53770414,127.0126715,버스
한남동,용산구,한남동,37.5339127,127.0084446,버스
한남동,용산구,한남동,37.53375499,127.0087003,버스
이촌동동부센트레빌,용산구,이촌동,37.52155954,126.9660096,버스
이촌동두산위브트레지움.한강대우아파트,용산구,이촌동,37.52157348,126.9675283,버스
이촌1동충신교회앞,용산구,이촌동,37.52128315,126.9684808,버스
이촌동한가람아파트.이촌역,용산구,이촌동,37.5206563,126.9718843,버스
이촌동한강맨션.이촌역,용산구,이촌동,37.52018049,126.9727098,버스
신용산초등학교,용산구,이촌동,37.51984977,126.9745085,버스
신용산초등학교.중경고등학교,용산구,이촌동,37.51907753,126.976248,버스
중경고등학교.이촌동강촌아파트,용산구,이촌동,37.51891785,126.9775234,버스
이촌동점보아파트,용산구,이촌동,37.5183828,126.9784409,버스
이촌동현대아파트,용산구,이촌동,37.51853368,126.978712,버스
금강병원.반도아파트,용산구,이촌동,37.51770433,126.9811234,버스
서빙고신동아아파트,용산구,용산동6가,37.51793695,126.9851054,버스
서빙고신동아아파트,용산구,용산동6가,37.51748597,126.9853714,버스
만리동고개,용산구,서계동,37.55167001,126.9628216,버스
손기정체육공원,용산구,서계동,37.55421533,126.966423,버스
숙대입구역,용산구,청파동3가,37.544479,126.970799,버스
남영역,용산구,청파동3가,37.54222024,126.9709245,버스
숙명여대도서관앞,용산구,청파동2가,37.54484687,126.9672217,버스
숙명여대도서관앞,용산구,청파동2가,37.54484124,126.9664465,버스
숙명여대정문,용산구,청파동3가,37.5449595,126.9641095,버스
숙명여대정문,용산구,청파동2가,37.54513077,126.9643097,버스
숙명여대후문.이봉창활동터,용산구,청파동2가,37.54608397,126.9632996,버스
효창공원후문,용산구,효창동,37.54679103,126.9625779,버스
한겨레신문사입구,용산구,효창동,37.54588062,126.9591929,버스
대한노인회중앙회,용산구,효창동,37.54378904,126.9576684,버스
효창운동장.효창동주민센터,용산구,효창동,37.54220952,126.9617671,버스
효창동주민센터.금양초등학교,용산구,효창동,37.54162396,126.9622337,버스
금양초등학교,용산구,효창동,37.54129925,126.9620007,버스
효창공원역,용산구,용문동,37.53878602,126.9610379,버스
도원삼성래미안아파트,용산구,도원동,37.5397768,126.9574339,버스
도원삼성래미안아파트,용산구,도원동,37.53962541,126.9572103,버스
중앙하이츠빌라앞,용산구,용문동,37.53801446,126.9600336,버스
중앙하이츠빌라앞,용산구,용문동,37.53797386,126.9598809,버스
용문시장,용산구,용문동,37.53634792,126.960968,버스
용문시장,용산구,원효로2가,37.5359792,126.9613596,버스
용산전자상가입구,용산구,신계동,37.53457017,126.9622225,버스
용산전자상가입구,용산구,원효로2가,37.53466112,126.9619447,버스
신용산지하차도,용산구,한강로3가,37.53283488,126.9636682,버스
신용산지하차도,용산구,한강로3가,37.53259,126.963882,버스
신용산역5번출구,용산구,한강로2가,37.53003386,126.9676785,버스
용산역,용산구,한강로3가,37.52886661,126.9658225,버스
용산푸르지오써밋,용산구,한강로3가,37.52757562,126.9647596,버스
용산푸르지오써밋,용산구,한강로3가,37.52723093,126.9645788,버스
용산역광장앞,용산구,한강로2가,37.528333,126.965617,버스
용산역사박물관.용산철도고등학교,용산구,한강로3가,37.52559728,126.966015,버스
용산역사박물관.용산철도고등학교,용산구,한강로3가,37.52530577,126.9671194,버스
용산세무서,용산구,한강로3가,37.52373184,126.969244,버스
용산세무서,용산구,용산동5가,37.52362139,126.9701544,버스
이촌역,용산구,용산동5가,37.52266892,126.9739086,버스
이촌역,용산구,용산동5가,37.52236347,126.9740269,버스
국립중앙박물관용산가족공원,용산구,용산동6가,37.52089801,126.9786512,버스
국립중앙박물관용산가족공원,용산구,용산동6가,37.52087549,126.9799562,버스
서빙고역교차로,용산구,서빙고동,37.520427,126.9899,버스
서빙고초등학교,용산구,서빙고동,37.52117112,126.9908894,버스
한강중학교,용산구,용산동6가,37.52511406,126.9913627,버스
금호베스트빌앞,용산구,서빙고동,37.52263626,126.9907182,버스
서빙고동,용산구,서빙고동,37.51980432,126.9934203,버스
서빙고동주민센터,용산구,서빙고동,37.520384,126.9948813,버스
동빙고동,용산구,동빙고동,37.52081836,126.9966907,버스
동빙고동,용산구,동빙고동,37.52126256,126.997039,버스
보광신동아아파트삼성리버빌아파트,용산구,보광동,37.524738,127.0020297,버스
보광동신동아아파트,용산구,보광동,37.52562379,127.0015149,버스
보광동주민센터,용산구,보광동,37.52645912,127.0005046,버스
기업은행보광동지점,용산구,보광동,37.52800885,126.9993071,버스
기업은행보광동지점,용산구,보광동,37.52818201,126.9988968,버스
한국폴리텍1대학,용산구,보광동,37.53019599,126.9967926,버스
한국폴리텍1대학,용산구,보광동,37.53052935,126.9965748,버스
이태원역.보광동입구,용산구,이태원동,37.5334,126.994213,버스
이태원역.보광동입구,용산구,이태원동,37.53382242,126.994227,버스
한남역.용산노인종합복지관,용산구,한남동,37.53122393,127.0067957,버스
한남역.용산노인종합복지관,용산구,한남동,37.53066879,127.0077699,버스
이촌119안전센터.성촌공원,용산구,이촌동,37.53007998,126.9529475,버스
성촌공원.포르쉐센터용산,용산구,한강로3가,37.53017103,126.9546065,버스
성촌공원.포르쉐센터용산,용산구,이촌동,37.52974742,126.9543511,버스
이촌2동주민센터,용산구,한강로3가,37.52773644,126.955064,버스
이촌2동주민센터,용산구,이촌동,37.52770289,126.9548606,버스
이촌2동대림아파트.새남터성지,용산구,이촌동,37.52617531,126.9563231,버스
이촌2동대림아파트.새남터성지,용산구,이촌동,37.52602927,126.9561659,버스
서부이촌동입구,용산구,한강로3가,37.52386405,126.9594954,버스
이촌2동강변아파트,용산구,이촌동,37.52344621,126.959781,버스
원효2동산호아파트후문,용산구,원효로4가,37.53226001,126.9500127,버스
청암동강변삼성아파트,용산구,청암동,37.53461443,126.9482435,버스
청암동강변삼성아파트,용산구,원효로4가,37.534015,126.949323,버스
원효2동산호아파트,용산구,원효로4가,37.53301777,126.9505416,버스
원효2동산호아파트,용산구,원효로4가,37.5331089,126.9508278,버스
원효로풍전아파트,용산구,원효로4가,37.53212865,126.9535225,버스
원효로풍전아파트,용산구,원효로4가,37.53236877,126.9545136,버스
원효풍전아파트,용산구,원효로3가,37.53274214,126.9559182,버스
원효2동주민센터,용산구,산천동,37.5344941,126.9513962,버스
산천동리버힐삼성아파트,용산구,산천동,37.53450034,126.9511923,버스
산천동,용산구,신창동,37.53532039,126.9536425,버스
산천동,용산구,신창동,37.53540813,126.9533822,버스
신창동세방아파트,용산구,신창동,37.53570832,126.9549576,버스
신창동세방아파트,용산구,신창동,37.53583005,126.9549471,버스
남이장군사당,용산구,용문동,37.53665907,126.9579938,버스
남이장군사당,용산구,용문동,37.53675446,126.9575932,버스
용문시장.용문동새마을금고,용산구,용문동,37.53707162,126.9595338,버스
용문시장.용문동새마을금고,용산구,용문동,37.53714921,126.9591968,버스
순천향병원입구,용산구,한남동,37.53263055,127.0067506,버스
남산서울타워,중구,예장동,37.55101447,126.9911948,버스
청심경로당,용산구,산천동,37.53388792,126.9506907,버스
삼성테마트,용산구,원효로4가,37.53374669,126.9503849,버스
서빙고동금호베스트빌,용산구,서빙고동,37.52261379,126.990991,버스
한남동하이페리온,용산구,한남동,37.52784398,127.0055474,버스
서빙고역1번출구,용산구,서빙고동,37.52003451,126.9894855,버스
문배동이안아파트앞,용산구,한강로1가,37.53887,126.9710604,버스
갈월동.숙대입구역10번출구,용산구,갈월동,37.54638586,126.9716592,버스
삼각지역11번출구,용산구,한강로1가,37.536204,126.974548,버스
숙대입구,용산구,청파동3가,37.54453055,126.9705229,버스
원효대교북단,용산구,원효로4가,37.53213836,126.9556103,버스
문배동이안아파트앞,용산구,문배동,37.5383645,126.9707995,버스
순천향병원입구,용산구,한남동,37.53269451,127.0069961,버스
숙명여대입구,용산구,청파동2가,37.54488446,126.9696435,버스
서빙고초등학교,용산구,서빙고동,37.52084129,126.99061,버스
한강대교스카이스위트,용산구,이촌동,37.52133077,126.9608162,버스
한강대교전망카페,용산구,이촌동,37.521236,126.9613435,버스
노들섬,용산구,이촌동,37.51751618,126.9586052,버스
노들섬,용산구,이촌동,37.51736384,126.9590377,버스
용암초등학교.이태원2동주민센터,용산구,이태원동,37.544673,126.990733,버스
용암초등학교.이태원2동주민센터,용산구,이태원동,37.54484967,126.9909321,버스
효창공원삼거리.윤봉길의사등묘역,용산구,청파동2가,37.54460709,126.9638369,버스
서울역공항철도15번출구,용산구,서계동,37.55307791,126.9688468,버스
용산꿈나무종합타운,용산구,원효로1가,37.53848693,126.9672403,버스
남산도서관,용산구,후암동,37.55234367,126.9818462,버스
하얏트호텔,용산구,이태원동,37.54066038,126.9969933,버스
한신아파트,용산구,용산동2가,37.53898273,126.9866957,버스
순천향병원,용산구,한남동,37.5332488,127.0048157,버스
용암경로당입구,용산구,용산동2가,37.54059662,126.9869184,버스
한남오거리,용산구,한남동,37.53309011,127.0066567,버스
가야랑앞,용산구,이태원동,37.54019528,126.9936041,버스
용암한신아파트,용산구,용산동2가,37.54207717,126.9874353,버스
효창공원후문,용산구,효창동,37.54706884,126.9608921,버스
디지텍고등학교앞,용산구,이태원동,37.53980318,126.991626,버스
우리들가정의원,용산구,용산동2가,37.54323151,126.987795,버스
도원삼성래미안아파트101동앞,용산구,도원동,37.53906859,126.9562321,버스
성도약국,용산구,이태원동,37.53945068,126.9895541,버스
남산교회입구,용산구,용산동2가,37.54467134,126.9866472,버스
신애교회,용산구,효창동,37.54551904,126.9584869,버스
시장,용산구,이태원동,37.53892255,126.9885516,버스
해방촌오거리,용산구,용산동2가,37.54572995,126.9851475,버스
보광동주민센터,용산구,보광동,37.52614734,127.0000973,버스
대한노인회중앙회,용산구,효창동,37.54403681,126.9576287,버스
도원삼성래미안아파트101동앞,용산구,도원동,37.53902226,126.9562966,버스
신흥교회앞,용산구,용산동2가,37.54474572,126.9833868,버스
군인아파트,용산구,동빙고동,37.52600406,126.9963177,버스
원효사.백범김구기념관,용산구,효창동,37.54314017,126.9585663,버스
녹사평역,용산구,용산동4가,37.53501104,126.9858713,버스
큰빛의집앞,용산구,용산동2가,37.54454818,126.9819982,버스
몬드리안서울이태원,용산구,동빙고동,37.52853051,126.9926264,버스
도원삼성래미안아파트,용산구,도원동,37.53968795,126.9576859,버스
후암동종점,용산구,후암동,37.54670079,126.9813662,버스
용산구청,용산구,이태원동,37.53031911,126.9914495,버스
용산고등학교,용산구,후암동,37.5461364,126.9795092,버스
외빈차고,용산구,이태원동,37.53172938,126.9921712,버스
효창공원앞역.이봉창역사울림관,용산구,효창동,37.53967102,126.9614323,버스
갈월동사회복지회관,용산구,갈월동,37.54539013,126.9740852,버스
청화아파트,용산구,이태원동,37.53141679,126.9951323,버스
동작대로(가상),용산구,용산동6가,37.51590858,126.9829602,버스
용산경찰서,용산구,원효로1가,37.5410233,126.9698057,버스
숙대역7번출구,용산구,갈월동,37.54347578,126.9722968,버스
보광동삼거리,용산구,보광동,37.53073299,126.9968251,버스
중앙하이츠빌라,용산구,용문동,37.53856833,126.9594786,버스
원효우체국,용산구,원효로1가,37.53896727,126.9673538,버스
보광초등학교,용산구,보광동,37.53134303,126.9967764,버스
용문동시장.새마을금고,용산구,용문동,37.5373483,126.9596343,버스
수미용실,용산구,보광동,37.5313728,126.9984023,버스
용문동주민센터,용산구,용문동,37.53814739,126.959119,버스
문배어린이공원,용산구,문배동,37.53693839,126.9697251,버스
문배어린이공원,용산구,문배동,37.53714312,126.96959,버스
영동김밥,용산구,보광동,37.53103579,127.0007739,버스
한강대교(가상),용산구,이촌동,37.52172772,126.9606612,버스
도깨비시장,용산구,보광동,37.53085466,127.002246,버스
리버힐빌라앞,용산구,한남동,37.53172603,127.0008837,버스
신용산역,용산구,한강로2가,37.52991665,126.9674545,버스
보광교회,용산구,한남동,37.532273,126.9991865,버스
용산우체국,용산구,한강로2가,37.53137629,126.9703154,버스
숙대역5번출구,용산구,남영동,37.54403813,126.9725115,버스
이슬람사원,용산구,한남동,37.53298846,126.9979655,버스
삼각지역,용산구,한강로1가,37.53450655,126.9732731,버스
갈월동,용산구,갈월동,37.54632411,126.9720931,버스
보광초등학교후문앞,용산구,이태원동,37.53309022,126.995698,버스
반포대교(가상),용산구,서빙고동,37.5188785,126.9940056,버스
동자경로당,용산구,동자동,37.55028671,126.9741955,버스
이태원역앞,용산구,이태원동,37.53418055,126.9957002,버스
녹사평역.용산구청,용산구,이태원동,37.53513958,126.9871838,버스
후암시장,용산구,후암동,37.55006648,126.9768044,버스
후암동주민센터앞,용산구,후암동,37.54836448,126.9777058,버스
제일기획,용산구,한남동,37.53487086,126.9984396,버스
대성교회,용산구,이태원동,37.53869997,126.988452,버스
용산고,용산구,용산동2가,37.54590833,126.9789525,버스
성도약국,용산구,이태원동,37.53927766,126.9894308,버스
후암동종점,용산구,용산동2가,37.54650165,126.9813595,버스
디지텍고등학교앞,용산구,이태원동,37.53971398,126.9918569,버스
큰빛의집앞,용산구,용산동2가,37.54448328,126.9819077,버스
가야랑앞,용산구,이태원동,37.54008896,126.9937523,버스
신흥교회앞,용산구,용산동2가,37.54462317,126.9833879,버스
해방촌오거리,용산구,용산동2가,37.54570295,126.9853965,버스
남산교회입구,용산구,용산동2가,37.54455059,126.9866223,버스
우리들가정의원,용산구,용산동2가,37.54324231,126.9876592,버스
용암한신아파트,용산구,용산동2가,37.54238805,126.9874137,버스
용암경로당입구,용산구,용산동2가,37.54109853,126.9869602,버스
한신아파트,용산구,용산동2가,37.53898812,126.9865577,버스
갑을빌딩,용산구,갈월동,37.54909587,126.9720388,버스
리버힐삼성아파트후문,용산구,청암동,37.53494624,126.9487208,버스
만리시장입구,용산구,서계동,37.5515678,126.9630413,버스
배문중고등학교,용산구,서계동,37.55037493,126.9636168,버스
청파초등학교,용산구,청파동2가,37.54858348,126.9633755,버스
동부이촌동,용산구,이촌동,37.52013925,126.972673,버스
강촌APT,용산구,이촌동,37.51910004,126.9761942,버스
남산그랜드하얏트호텔,용산구,한남동,37.53982597,126.9973679,버스
청파초등학교,용산구,청파동1가,37.54846998,126.9635057,버스
배문중고교,용산구,서계동,37.55038127,126.9637289,버스
만리시장입구,용산구,서계동,37.55177599,126.9631453,버스
청암자이아파트,용산구,청암동,37.53486723,126.9485683,버스
신동아APT,용산구,용산동6가,37.5175986,126.9853624,버스
한남동,용산구,한남동,37.53716,127.005237,버스
한남동,용산구,한남동,37.535854,127.005492,버스
신동아APT,용산구,용산동6가,37.51792209,126.9853035,버스
강촌APT,용산구,이촌동,37.51890573,126.9773129,버스
동부이촌동,용산구,이촌동,37.52067791,126.9718175,버스
이촌동두산위브트레지움,용산구,이촌동,37.52149367,126.9659919,버스
이촌동두산위브트레지움,용산구,이촌동,37.52152836,126.9675735,버스
이촌현대아파트.금강병원,용산구,이촌동,37.51771874,126.9810408,버스
이촌현대아파트.금강병원,용산구,이촌동,37.51850812,126.978748,버스
한남역,용산구,한남동,37.53120681,127.0067323,버스
도원삼성래미안아파트단지내,용산구,도원동,37.5381983,126.9553881,버스
IP부띠끄호텔,용산구,한남동,37.53488978,126.9984792,버스
IP부띠끄호텔,용산구,한남동,37.53516,126.998386,버스
한남동주민센터,용산구,한남동,37.53411538,127.0006053,버스
용산CJ나인파크,용산구,문배동,37.53587066,126.969553,버스
용산e편한세상,용산구,신계동,37.5344622,126.9672212,버스
이집트대사관.한남더힐아파트,용산구,한남동,37.53525687,127.0112747,버스
이집트대사관.한남더힐아파트,용산구,한남동,37.53624088,127.011431,버스
한남역,용산구,한남동,37.53058499,127.0077438,버스
한남동,용산구,한남동,37.53375693,127.0085732,버스
한남동,용산구,한남동,37.53396315,127.0085657,버스
필리핀대사관,용산구,이태원동,37.54069996,126.9950933,버스
필리핀대사관,용산구,이태원동,37.54057021,126.99516,버스
서울드래곤시티용산,용산구,한강로3가,37.532097,126.961552,버스
전쟁기념관,용산구,한강로1가,37.53840147,126.9734852,버스
용산역,용산구,한강로3가,37.52907676,126.9658972,버스
국립중앙박물관,용산구,용산동6가,37.52084762,126.9785496,버스
이태원,용산구,이태원동,37.53433859,126.9904417,버스
남산서울타워,중구,예장동,37.55114199,126.9909862,버스
하얏트호텔,용산구,이태원동,37.54089188,126.9972013,버스
답십리역사거리,성동구,용답동,37.56544961,127.0543962,버스
청년회의소.서울새활용플라자,성동구,용답동,37.56203536,127.0604823,버스
장한평역,성동구,용답동,37.56118992,127.0660927,버스
상왕십리역,성동구,하왕십리동,37.5643358,127.0290749,버스
상왕십리역,성동구,하왕십리동,37.56469363,127.0286813,버스
왕십리센트라스아파트,성동구,하왕십리동,37.565213,127.0248052,버스
왕십리교회,성동구,상왕십리동,37.56663004,127.0236794,버스
뉴타운아파트,성동구,하왕십리동,37.5648724,127.0269698,버스
청계벽산아파트.텐즈힐아파트,성동구,하왕십리동,37.56885848,127.0303755,버스
청계벽산아파트.텐즈힐아파트,성동구,하왕십리동,37.56795982,127.0300384,버스
왕십리도선동주민센터,성동구,상왕십리동,37.56761644,127.0246447,버스
왕십리2동주민센터,성동구,하왕십리동,37.56244961,127.0332626,버스
코스모타워.서울신용보증재단성동지점,성동구,하왕십리동,37.56298226,127.0329029,버스
성동구청,성동구,도선동,37.56312659,127.0359164,버스
상왕십리역,성동구,도선동,37.56487166,127.0302446,버스
상왕십리역.센트라스아파트,성동구,홍익동,37.56586011,127.0299768,버스
신금호역4번출구,성동구,금호동2가,37.55414281,127.0205311,버스
마장동주민센터,성동구,마장동,37.5673235,127.0445738,버스
마장역,성동구,마장동,37.56559873,127.0422829,버스
성동노인복지관,성동구,마장동,37.56493759,127.0415861,버스
마장축산물시장,성동구,마장동,37.57095053,127.0380207,버스
마장축산물시장,성동구,마장동,37.57025901,127.0375114,버스
도선사거리,성동구,마장동,37.56702082,127.036954,버스
도선사거리,성동구,마장동,37.56664878,127.0364846,버스
마장동금호아파트,성동구,마장동,37.56307133,127.041859,버스
마장동금호아파트,성동구,마장동,37.56215772,127.0415812,버스
한양대부속고등학교,성동구,행당동,37.5609241,127.0414132,버스
한양대부속고등학교,성동구,행당동,37.56038812,127.0411546,버스
한양대앞.한양시장,성동구,행당동,37.5585824,127.0409668,버스
한양대앞,성동구,행당동,37.55852546,127.0406535,버스
한양대정문,성동구,행당동,37.55638837,127.0431286,버스
한양대정문앞,성동구,행당동,37.5569939,127.0431384,버스
무학여고앞,성동구,행당동,37.557854,127.0342332,버스
무학여고,성동구,행당동,37.55789531,127.0338673,버스
왕십리역,성동구,행당동,37.55994731,127.036192,버스
왕십리역,성동구,행당동,37.56033656,127.0362669,버스
왕십리역,성동구,행당동,37.56072354,127.0346873,버스
행당1동주민센터.성동소방서,성동구,행당동,37.55826718,127.038404,버스
서울숲삼부아파트,성동구,행당동,37.55872308,127.0379493,버스
응봉동주민센터,성동구,응봉동,37.55339896,127.0335008,버스
응봉동주민센터,성동구,응봉동,37.55376121,127.0334387,버스
응봉사거리,성동구,행당동,37.55529188,127.034458,버스
응봉동현대아파트,성동구,응봉동,37.54973246,127.0305745,버스
응봉동현대아파트,성동구,응봉동,37.550222,127.0309,버스
대현산배수지공원입구,성동구,금호동1가,37.556474,127.0200357,버스
신금호역,성동구,금호동1가,37.55560517,127.0201176,버스
신금호역,성동구,금호동2가,37.55567687,127.0199214,버스
금호고등학교,성동구,금호동1가,37.55347807,127.0219551,버스
금호고등학교.금호자이1차아파트입구,성동구,금호동2가,37.55310773,127.0229329,버스
금호동벽산아파트,성동구,금호동1가,37.5511644,127.0256791,버스
래미안하이리버아파트,성동구,금호동2가,37.55145821,127.0254234,버스
금호사거리,성동구,금호동1가,37.54887914,127.0260631,버스
금호사거리,성동구,금호동2가,37.54946397,127.0259773,버스
금남시장앞.백범학원터,성동구,금호동4가,37.54808522,127.0218686,버스
금남시장앞.백범학원터,성동구,금호동3가,37.54828876,127.0224878,버스
금호역,성동구,금호동4가,37.54772837,127.016267,버스
금호역,성동구,금호동3가,37.54854771,127.0154795,버스
금옥초등학교앞,성동구,금호동4가,37.54696731,127.0198923,버스
금옥초등학교앞,성동구,금호동4가,37.5462572,127.0182356,버스
힐스테이트서울숲리버아파트,성동구,금호동4가,37.54788771,127.0270576,버스
삼성래미안아파트앞,성동구,금호동4가,37.54834987,127.0275127,버스
옥수삼성아파트.래미안옥수리버젠,성동구,옥수동,37.54362049,127.0148476,버스
옥수삼성아파트.래미안옥수리버젠,성동구,옥수동,37.54380343,127.0146552,버스
미타사입구,성동구,옥수동,37.54485562,127.0168373,버스
래미안옥수리버젠.옥수중앙교회,성동구,옥수동,37.54591558,127.0148446,버스
래미안옥수리버젠.옥수중앙교회,성동구,옥수동,37.545782,127.014698,버스
옥수파크힐스아파트앞,성동구,옥수동,37.54711609,127.0130389,버스
옥수파크힐스아파트앞,성동구,옥수동,37.54702043,127.013016,버스
옥수동종점,성동구,옥수동,37.54933748,127.0125833,버스
옥정중학교입구,성동구,옥수동,37.54090407,127.0113027,버스
옥정중학교입구,성동구,옥수동,37.54087707,127.0109995,버스
성수1가1동새마을금고,성동구,성수동1가,37.53822046,127.0495477,버스
성수1가새마을금고,성동구,성수동1가,37.5383307,127.0495105,버스
천주교성수동성당앞,성동구,성수동1가,37.53937047,127.0461394,버스
천주교성수동성당앞,성동구,성수동1가,37.53930553,127.046074,버스
뚝도아리수정수센터수도박물관,성동구,성수동1가,37.54097724,127.0442026,버스
뚝도아리수정수센터수도박물관,성동구,성수동1가,37.541407,127.04399,버스
서울숲역2번출구,성동구,성수동1가,37.54293173,127.0447086,버스
서울숲역3번출구,성동구,성수동1가,37.54306294,127.0444981,버스
성동구민종합체육센터,성동구,성수동1가,37.54607197,127.0448961,버스
성동구민종합체육센터,성동구,성수동1가,37.54649799,127.044534,버스
성수공고앞,성동구,성수동1가,37.53997243,127.050315,버스
성수공고앞,성동구,성수동2가,37.54003883,127.0507596,버스
경일초등학교입구,성동구,성수동1가,37.54108002,127.0463724,버스
경일초등학교입구,성동구,성수동1가,37.54137975,127.0460161,버스
성동교남단,성동구,성수동1가,37.54951636,127.0444566,버스
성동교남단,성동구,성수동1가,37.55050752,127.0439628,버스
상원,성동구,성수동1가,37.55143713,127.0460506,버스
상원,성동구,성수동1가,37.55174774,127.0466619,버스
영동대교북단,성동구,성수동2가,37.53694242,127.0607393,버스
경수중학교,성동구,성수동2가,37.53976026,127.0624289,버스
성수119안전센터,성동구,성수동2가,37.53734169,127.0601321,버스
성수119안전센터,성동구,성수동2가,37.537532,127.059997,버스
경수중학교,성동구,성수동2가,37.53816503,127.0570118,버스
경수중학교,성동구,성수동2가,37.53828654,127.0572982,버스
뚝도시장,성동구,성수동2가,37.53858661,127.0553996,버스
뚝도시장,성동구,성수동2가,37.53885073,127.0552588,버스
성원중성수동이마트앞,성동구,성수동2가,37.53909394,127.0534265,버스
성원중성수동이마트앞,성동구,성수동2가,37.539511,127.052845,버스
서울숲지구대앞,성동구,성수동2가,37.53786772,127.0523417,버스
서울숲지구대앞,성동구,성수동2가,37.53805092,127.0522589,버스
뚝도시장구길,성동구,성수동2가,37.537192,127.05527,버스
뚝도시장구길,성동구,성수동2가,37.53755207,127.0549268,버스
성수동진주타운,성동구,성수동2가,37.53661744,127.0574889,버스
성수동진주타운,성동구,성수동2가,37.53675909,127.0574923,버스
영동대교,성동구,성수동2가,37.536356,127.059982,버스
영동대교,성동구,성수동2가,37.53643821,127.0600657,버스
화양사거리,성동구,성수동2가,37.54727767,127.0666629,버스
성수사거리.성수초등학교,성동구,성수동2가,37.54282189,127.0641613,버스
서울효사랑병원,성동구,성수동2가,37.54126364,127.0632745,버스
성수2가3동주민센터,성동구,성수동2가,37.54962437,127.0553884,버스
제인병원,성동구,송정동,37.54935113,127.0568367,버스
성동세무서앞,성동구,성수동2가,37.54799468,127.0621854,버스
성동세무서,성동구,송정동,37.54823913,127.0643373,버스
송정동서울숲아이파크,성동구,송정동,37.55182548,127.0692473,버스
송정동건영아파트,성동구,송정동,37.555205,127.07115,버스
군자교남단,성동구,송정동,37.55753716,127.0724415,버스
신답역,성동구,용답동,37.57021108,127.0475026,버스
용답동로데오거리.답십리역,성동구,용답동,37.56570333,127.0539458,버스
서울교통공사.서울새활용플라자,성동구,용답동,37.5620495,127.0569134,버스
뚝섬서울숲,성동구,성수동1가,37.54461804,127.0366012,버스
뚝섬서울숲,성동구,성수동1가,37.54567186,127.0363946,버스
사근동하이츠아파트앞,성동구,사근동,37.56119842,127.048606,버스
사근동하이츠아파트앞,성동구,사근동,37.56130618,127.0486882,버스
사근동주민센터,성동구,사근동,37.56081442,127.0456489,버스
사근동주민센터,성동구,사근동,37.56093153,127.0457112,버스
사근고개,성동구,사근동,37.56116171,127.0445909,버스
사근고개,성동구,사근동,37.56125556,127.0445102,버스
한양지구대,성동구,행당동,37.56021435,127.0420211,버스
한양지구대,성동구,행당동,37.56024458,127.0419242,버스
사근동벽산아파트,성동구,사근동,37.5601892,127.0499269,버스
뚝섬역8번출구,성동구,성수동1가,37.54769283,127.0455095,버스
뚝섬역2번출구,성동구,성수동1가,37.547575,127.046846,버스
뚝섬역5번출구,성동구,성수동1가,37.54648034,127.0492754,버스
뚝섬역4번출구,성동구,성수동1가,37.54680019,127.0492756,버스
성수역1번출구,성동구,성수동2가,37.54541968,127.0538294,버스
SK테크노빌딩앞,성동구,성수동2가,37.545888,127.050228,버스
SK테크노빌딩앞,성동구,성수동1가,37.54576985,127.0500259,버스
경동초등학교입구,성동구,성수동1가,37.54377243,127.0494809,버스
경동초등학교입구,성동구,성수동1가,37.5433913,127.0492129,버스
경일초등학교앞,성동구,성수동1가,37.54076843,127.0482363,버스
경일초등학교앞,성동구,성수동1가,37.54091938,127.0481685,버스
한양여대앞,성동구,사근동,37.55951,127.0503,버스
도선고등학교.꽃재교회,성동구,하왕십리동,37.56709321,127.0277828,버스
성수역4번출구,성동구,성수동2가,37.54478786,127.0545807,버스
리버하우스,성동구,성수동1가,37.55090026,127.0510061,버스
리버하우스,성동구,성수동1가,37.5512302,127.0506905,버스
성수사거리,성동구,성수동2가,37.542562,127.062352,버스
성수사거리,성동구,성수동2가,37.54279808,127.0623621,버스
성동제일새마을금고,성동구,사근동,37.5608116,127.0471033,버스
성동제일새마을금고,성동구,사근동,37.56088413,127.0473013,버스
청계9가.텐즈힐2단지 정문앞,성동구,상왕십리동,37.57074945,127.0255654,버스
뚝섬서울숲,성동구,성수동1가,37.54345278,127.0375619,버스
서울숲1번출입구,성동구,성수동1가,37.54222306,127.0426959,버스
서울숲1번출입구,성동구,성수동1가,37.54197811,127.0429744,버스
용답휴식공원,성동구,용답동,37.56931211,127.0480538,버스
용답휴식공원,성동구,용답동,37.56955418,127.0479373,버스
성수2가3동주민센터,성동구,송정동,37.55042513,127.0542376,버스
극동그린아파트앞,성동구,옥수동,37.54200084,127.0113917,버스
마장역,성동구,마장동,37.56634697,127.0430338,버스
행당신동아.행당푸르지오아파트,성동구,행당동,37.55614084,127.0340193,버스
숭신초등학교,성동구,하왕십리동,37.56716762,127.0281959,버스
극동아파트,성동구,하왕십리동,37.55809745,127.0239338,버스
풍림아파트,성동구,하왕십리동,37.55914272,127.0239062,버스
벽산아파트,성동구,행당동,37.55560229,127.0256886,버스
대림아파트,성동구,행당동,37.55657383,127.024926,버스
행당역,성동구,행당동,37.5570009,127.0290983,버스
행당역,성동구,행당동,37.55707937,127.0287644,버스
무학여고,성동구,행당동,37.55839115,127.0330163,버스
극동그린아파트,성동구,옥수동,37.54206463,127.011905,버스
성수동차고지,성동구,성수동2가,37.535793,127.055682,버스
제민약국,성동구,성수동2가,37.53659215,127.0585185,버스
왕십리자이.신당현대아파트,성동구,하왕십리동,37.560847,127.02363,버스
왕십리자이.신당현대아파트,성동구,하왕십리동,37.5611519,127.0241021,버스
제민약국,성동구,성수동2가,37.536507,127.058488,버스
우리은행화양동지점,성동구,성수동2가,37.54811642,127.0661377,버스
황학교.텐즈힐몰,성동구,상왕십리동,37.57005175,127.0236037,버스
마장동주민센터,성동구,마장동,37.56706321,127.0446425,버스
왕십리광장.왕십리역7번출구,성동구,행당동,37.56112833,127.0368888,버스
왕십리광장.왕십리역4번출구,성동구,행당동,37.56136444,127.0371334,버스
한양대동문앞,성동구,사근동,37.55564329,127.049676,버스
왕십리도선동주민센터,성동구,상왕십리동,37.56781696,127.0244127,버스
한양여대앞,성동구,사근동,37.55922439,127.0506193,버스
행당중학교,성동구,행당동,37.55378087,127.0430247,버스
살곶이체육공원앞,성동구,사근동,37.55635904,127.0510192,버스
송정동현대아이파크아파트,성동구,송정동,37.55218712,127.0686201,버스
극동아파트5동,성동구,옥수동,37.54315954,127.011079,버스
대우아파트관리실,성동구,금호동4가,37.54621412,127.0199839,버스
신금호역,성동구,금호동1가,37.55459318,127.0204908,버스
옥수역,성동구,옥수동,37.54148275,127.0168166,버스
송정동자치회관,성동구,송정동,37.55088549,127.0687628,버스
대우아파트후문,성동구,금호동4가,37.54693907,127.0216589,버스
금호1가동주민센터,성동구,금호동1가,37.55512902,127.0221955,버스
왕십리민자역사,성동구,행당동,37.56184269,127.0378535,버스
무쇠막,성동구,금호동4가,37.54527775,127.0246948,버스
송정어린이집,성동구,송정동,37.54900258,127.0677474,버스
대경생활과학고등학교,성동구,금호동2가,37.55597143,127.017537,버스
금북초등학교.e편한세상금호105동,성동구,금호동1가,37.55553782,127.0237361,버스
무학여고,성동구,행당동,37.55749161,127.0339124,버스
힐스테이트서울숲리버,성동구,금호동4가,37.54674459,127.0253856,버스
성수SKV1센터1동,성동구,성수동2가,37.54581693,127.0655812,버스
극동아파트상가,성동구,옥수동,37.54291975,127.0121009,버스
금호4가동주민센터.대도빌딩,성동구,금호동4가,37.54805265,127.0225635,버스
화단삼거리,성동구,금호동3가,37.54841742,127.0198767,버스
금호어린이집,성동구,금호동2가,37.5567335,127.0186202,버스
논골.금호벽산아파트.성동공유센터,성동구,금호동1가,37.55553949,127.0253044,버스
행당서울숲푸르지오상가앞,성동구,행당동,37.55561737,127.0338927,버스
법학학술정보관,성동구,사근동,37.55704033,127.048575,버스
성수이비즈센터,성동구,성수동2가,37.5465774,127.0630584,버스
한남하이츠아파트,성동구,옥수동,37.54005431,127.0115923,버스
금호사거리,성동구,금호동4가,37.54800159,127.0252691,버스
금호산입구,성동구,금호동2가,37.55672209,127.0195737,버스
한진아파트후문,성동구,행당동,37.5560183,127.0269971,버스
신동아아파트후문,성동구,행당동,37.55489468,127.0326937,버스
올림픽체육관맞은편,성동구,사근동,37.55693416,127.0492908,버스
경수중학교입구,성동구,성수동2가,37.54351104,127.0600883,버스
제일감리교회,성동구,금호동4가,37.54786612,127.0269037,버스
신금호역,성동구,금호동2가,37.55438062,127.0196369,버스
제3법학관,성동구,사근동,37.55623391,127.0486368,버스
행당서울숲푸르지오109동앞,성동구,행당동,37.55445344,127.0317164,버스
벽산아파트정문,성동구,금호동1가,37.5526575,127.0252792,버스
성수역2번출구,성동구,성수동2가,37.5442691,127.0576391,버스
옥수종합사회복지관,성동구,옥수동,37.54088049,127.0128519,버스
응봉동현대아파트,성동구,응봉동,37.54980253,127.0307682,버스
행당2동주민센터,성동구,행당동,37.5577376,127.0306538,버스
응봉경로당앞,성동구,응봉동,37.55262793,127.0316422,버스
금호119안전센터,성동구,금호동1가,37.55418706,127.0247308,버스
경동초등학교입구,성동구,성수동2가,37.54589389,127.0511563,버스
옥수삼성아파트,성동구,옥수동,37.54063526,127.0139485,버스
현대공업사앞,성동구,응봉동,37.54995073,127.0325678,버스
두산상가후문.106동,성동구,금호동3가,37.5491854,127.0167387,버스
중앙병원,성동구,금호동2가,37.55196128,127.0193176,버스
무학중학교.무학여고,성동구,행당동,37.55821,127.0331283,버스
만물상회앞,성동구,응봉동,37.55282727,127.0312234,버스
논골사거리,성동구,금호동1가,37.55531503,127.0248124,버스
응봉초등학교.대림아파트,성동구,응봉동,37.55106784,127.0334307,버스
한신아파트,성동구,금호동3가,37.55075381,127.0192957,버스
올림픽체육관앞,성동구,사근동,37.55701511,127.0496304,버스
상봉노인정앞,성동구,응봉동,37.55287394,127.0302832,버스
논골신협.대림아파트후문,성동구,금호동1가,37.55770298,127.0245744,버스
옥수삼성아파트,성동구,옥수동,37.54075326,127.0143208,버스
응봉역.광희중,성동구,응봉동,37.55204254,127.0344339,버스
우리은행.백범학원터,성동구,금호동4가,37.54800691,127.0211726,버스
금호공원,성동구,금호동3가,37.54967696,127.019575,버스
대현산체육관입구,성동구,응봉동,37.5530799,127.0298542,버스
한양대학교경영대학,성동구,사근동,37.5570854,127.0485298,버스
지하철2호선성수역,성동구,성수동2가,37.54477028,127.0546618,버스
옥수종합사회복지관,성동구,옥수동,37.54088675,127.0132276,버스
대우아파트입구,성동구,금호동4가,37.54598344,127.0191632,버스
원형화단,성동구,금호동3가,37.54859296,127.0194898,버스
성동구청,성동구,행당동,37.56413555,127.0364064,버스
금봉어린이집.또또와마트,성동구,금호동1가,37.55290619,127.0288091,버스
한양대병원후문,,,37.56000511,127.0419652,버스
경수중학교입구,성동구,성수동2가,37.54336298,127.0596206,버스
옥정중학교,성동구,옥수동,37.54133299,127.0113322,버스
응봉사거리,성동구,행당동,37.55486744,127.0345427,버스
천은교회.성동청소년상담복지센터,성동구,행당동,37.55469568,127.0267907,버스
극동아파트상가,성동구,옥수동,37.54291161,127.0123679,버스
무학여고,성동구,행당동,37.55771859,127.0342554,버스
한전입구,성동구,마장동,37.5662652,127.0351185,버스
논골입구.성동공유센터,성동구,행당동,37.55554964,127.0255716,버스
극동아파트7동,성동구,옥수동,37.54361893,127.012754,버스
성동보건소,성동구,홍익동,37.56649464,127.0331863,버스
행당역.대림아파트정문,성동구,행당동,37.55704966,127.0286716,버스
청계벽산아파트,성동구,하왕십리동,37.56826244,127.0303705,버스
논골.e편한세상금호114동,성동구,금호동1가,37.55519162,127.0246041,버스
코스모타워,성동구,도선동,37.56279399,127.0332904,버스
화단앞,성동구,금호동3가,37.54862447,127.019654,버스
성동사회복지관.청계천박물관,성동구,마장동,37.57030347,127.0334778,버스
금호119안전센터,성동구,금호동1가,37.55426368,127.0245724,버스
왕약국,성동구,송정동,37.54834119,127.0655473,버스
상왕십리역,성동구,도선동,37.5647437,127.0302514,버스
금호공원,성동구,금호동3가,37.5496508,127.0197742,버스
성동구도시관리공단.서울시시설관리공단,성동구,마장동,37.57182891,127.0368612,버스
e편한세상금호117동,성동구,금호동1가,37.55265763,127.0246822,버스
왕십리자이.신당현대아파트,성동구,하왕십리동,37.56084707,127.0236902,버스
중앙슈퍼,성동구,송정동,37.54951566,127.0665318,버스
한신아파트,성동구,금호동3가,37.5507583,127.0194078,버스
금호고등학교,성동구,금호동1가,37.55309839,127.023553,버스
극동.풍림아파트,성동구,하왕십리동,37.55904489,127.023641,버스
GS25,성동구,송정동,37.55030467,127.0671618,버스
중앙병원앞,성동구,금호동2가,37.55212796,127.0194715,버스
도선동사거리,성동구,마장동,37.56676758,127.0365327,버스
논골신협.대림아파트후문,성동구,금호동1가,37.55751195,127.0245189,버스
송정동자치회관입구,성동구,송정동,37.5511351,127.0678257,버스
성동구청,성동구,도선동,37.56335405,127.036041,버스
논골사거리,성동구,금호동1가,37.55612602,127.0247742,버스
신금호역,성동구,금호동2가,37.55433559,127.0197856,버스
성동중앙교회.벽산아파트정문,성동구,금호동1가,37.55300672,127.0248775,버스
무학중학교.무학여고,성동구,행당동,37.55842262,127.0332891,버스
천은교회.성동청소년상담복지센터,성동구,금호동1가,37.55459194,127.0266661,버스
금호어린이집,성동구,금호동2가,37.556743,127.0182315,버스
행당2동주민센터,성동구,행당동,37.55782957,127.0304206,버스
금봉어린이집.또또와마트,성동구,금호동1가,37.55264238,127.0287944,버스
대경생활과학고등학교,성동구,금호동2가,37.55606875,127.0175178,버스
대현산체육관입구,성동구,응봉동,37.55296294,127.0297135,버스
GS주유소,성동구,금호동4가,37.54681133,127.0251254,버스
대림아파트후문,성동구,행당동,37.5561715,127.0269327,버스
상봉노인정앞,성동구,응봉동,37.55267311,127.0302182,버스
서울숲푸르지오아파트정문,성동구,금호동4가,37.54525619,127.0243938,버스
대림상가,성동구,응봉동,37.55387828,127.0344662,버스
충북상회,성동구,응봉동,37.5527923,127.0310094,버스
서울숲푸르지오아파트후문,성동구,금호동4가,37.5435444,127.0228036,버스
무학여고,성동구,행당동,37.5581244,127.0338768,버스
무학여고,성동구,행당동,37.55809952,127.0342446,버스
응봉사거리,성동구,행당동,37.5553019,127.0340902,버스
응봉사거리,성동구,행당동,37.55508011,127.0344919,버스
응봉역.광희중,성동구,응봉동,37.55220114,127.0344034,버스
응봉경로당앞,성동구,응봉동,37.55238843,127.031694,버스
금호초등학교,성동구,금호동2가,37.55268843,127.0194943,버스
응봉초등학교.대림아파트,성동구,응봉동,37.5508021,127.033168,버스
행당서울숲푸르지오109동앞,성동구,행당동,37.55438612,127.0318012,버스
현대공업사앞,성동구,응봉동,37.55010593,127.0324417,버스
신동아아파트후문,성동구,행당동,37.55468771,127.0328358,버스
신동아아파트,성동구,응봉동,37.54976756,127.0300982,버스
행당서울숲푸르지오상가앞,성동구,행당동,37.55557299,127.0340187,버스
삼성래미안아파트,성동구,금호동4가,37.54837509,127.0275591,버스
금호사거리,성동구,금호동3가,37.5481765,127.0250613,버스
금남시장앞.백범학원터,성동구,금호동4가,37.54827449,127.021648,버스
왕십리광장.왕십리역7번출구,성동구,행당동,37.56104655,127.0365163,버스
두산상가후문.106동,성동구,금호동3가,37.54933842,127.0166851,버스
극동아파트7동,성동구,옥수동,37.54372076,127.0126657,버스
두산아파트113동,성동구,금호동3가,37.5505885,127.0160758,버스
두산아파트109동,성동구,금호동3가,37.54988947,127.0166307,버스
극동아파트4동,성동구,옥수동,37.54353164,127.0115883,버스
극동아파트4동,성동구,옥수동,37.5435055,127.0116845,버스
두산아파트109동,성동구,금호동3가,37.54991499,127.016797,버스
두산아파트115동,성동구,금호동3가,37.55105588,127.0159607,버스
금호역,성동구,금호동3가,37.54854922,127.0169909,버스
금호역.두산상가경비실,성동구,금호동3가,37.54861301,127.0166208,버스
금호역,성동구,금호동4가,37.54842402,127.0164273,버스
금호역.3호선,성동구,금호동4가,37.54829423,127.0166253,버스
화단삼거리,성동구,금호동4가,37.54821898,127.0196278,버스
두산아파트113동,성동구,금호동3가,37.55078794,127.0162396,버스
벽산아파트501동앞,성동구,금호동1가,37.5548867,127.0254385,버스
벽산아파트505동앞,성동구,금호동1가,37.55440101,127.0262518,버스
벽산아파트111동앞,성동구,금호동1가,37.55306308,127.0267898,버스
벽산아파트206동앞,성동구,금호동1가,37.55215254,127.0272674,버스
벽산아파트202동앞,성동구,금호동1가,37.55149025,127.0273469,버스
벽산하이피아상가앞,성동구,금호동1가,37.55219616,127.0256433,버스
우리은행.백범학원터,성동구,금호동4가,37.54826595,127.0211246,버스
행당푸르지오아파트,성동구,행당동,37.55623906,127.0340035,버스
왕십리역,성동구,행당동,37.56105361,127.0369827,버스
옥정중학교,성동구,옥수동,37.54124739,127.0113005,버스
옥정중학교,성동구,옥수동,37.54097445,127.0109935,버스
옥수삼성아파트,성동구,옥수동,37.54360878,127.0148091,버스
옥수삼성아파트,성동구,옥수동,37.54379082,127.0146145,버스
금옥초등학교.금호대우아파트,성동구,금호동4가,37.54647457,127.0189291,버스
금옥초등학교.금호대우아파트,성동구,금호동4가,37.54658996,127.0186519,버스
금호사거리,성동구,금호동4가,37.54797844,127.0241853,버스
금호사거리,성동구,금호동3가,37.54817651,127.0250025,버스
금호삼성래미안,성동구,금호동4가,37.54787691,127.0269818,버스
금호삼성래미안,성동구,금호동4가,37.54836158,127.0275354,버스
응봉현대아파트,성동구,응봉동,37.5497629,127.0307014,버스
응봉현대아파트,성동구,응봉동,37.55013049,127.0309019,버스
응봉주민센터,성동구,응봉동,37.55344401,127.0335212,버스
응봉주민센터,성동구,응봉동,37.55399906,127.0336018,버스
래미안옥수리버젠아파트상가,성동구,옥수동,37.54437279,127.015727,버스
옥수동주민센터.옥수동성당,성동구,옥수동,37.54360617,127.0140192,버스
국민은행,성동구,옥수동,37.54269716,127.0122219,버스
국민은행,성동구,옥수동,37.5427782,127.0127561,버스
옥수동주민센터.옥수동성당,성동구,옥수동,37.54323766,127.0136717,버스
삼성아파트정문,성동구,옥수동,37.54382678,127.0152935,버스
성동노인종합복지관,성동구,마장동,37.56520977,127.0414403,버스
중앙하이츠아파트,성동구,마장동,37.56525269,127.0389001,버스
민자역사후문,성동구,마장동,37.56354928,127.0383643,버스
금호1가동주민센터,성동구,금호동1가,37.55472829,127.0208123,버스
금호정형외과,성동구,금호동2가,37.55408677,127.0204579,버스
금호고등학교앞,성동구,금호동2가,37.55297995,127.0233929,버스
벽산하이피아상가,성동구,금호동1가,37.55196713,127.0260018,버스
벽산노인정,성동구,금호동1가,37.55105871,127.0268505,버스
벽산아파트107동,성동구,금호동1가,37.55168754,127.0274313,버스
벽산아파트109동,성동구,금호동1가,37.55261144,127.0274448,버스
벽산아파트505동,성동구,금호동1가,37.55432168,127.0263706,버스
벽산아파트501동,성동구,금호동1가,37.5550079,127.0255888,버스
광희중학교.응봉역,성동구,응봉동,37.55191103,127.0350585,버스
한신아파트후문,성동구,행당동,37.5537403,127.037073,버스
한신아파트정문,성동구,행당동,37.55483475,127.0353825,버스
민자역사후문,성동구,마장동,37.56308291,127.0386951,버스
중앙하이츠아파트,성동구,마장동,37.5650543,127.0384487,버스
삼성래미안아파트,성동구,마장동,37.56549402,127.0402756,버스
금북초등학교입구,성동구,금호동1가,37.55565589,127.0236162,버스
대현산배수지공원앞,성동구,금호동1가,37.55517771,127.0220575,버스
선영약국,성동구,홍익동,37.56677218,127.0306172,버스
텐즈힐아파트101동.115동,성동구,하왕십리동,37.56698243,127.0292796,버스
숭신초등학교.도선고등학교앞,성동구,하왕십리동,37.56732969,127.0271676,버스
왕십리도선동주민센터,성동구,하왕십리동,37.56770843,127.0259157,버스
텐즈힐아파트120동.213동앞,성동구,하왕십리동,37.56912306,127.0260063,버스
왕십리중앙교회,성동구,하왕십리동,37.57000156,127.0267072,버스
청계현대아파트,성동구,마장동,37.57016549,127.0430257,버스
청계장원아파트,성동구,마장동,37.56932918,127.0447486,버스
마장2교사거리,성동구,마장동,37.56797516,127.0454637,버스
마장2교사거리,성동구,마장동,37.56818275,127.0456033,버스
청계장원아파트,성동구,마장동,37.56934274,127.0448455,버스
옥수교회,성동구,옥수동,37.54523715,127.016009,버스
텐즈힐아파트107동앞,성동구,하왕십리동,37.56956858,127.0285145,버스
응봉동현대아파트,성동구,응봉동,37.54986196,127.030938,버스
논골.대림아파트107동.금호동벽산아파트,성동구,행당동,37.5558964,127.0249544,버스
옥수역5.6번출구,성동구,옥수동,37.54185375,127.0169984,버스
서울숲푸르지오아파트,성동구,금호동4가,37.5450151,127.0237433,버스
언더스탠드에비뉴,성동구,성수동1가,37.543572,127.042776,버스
성동구민체육센터,성동구,성수동1가,37.545138,127.044474,버스
경일중고등학교,성동구,성수동1가,37.542316,127.049131,버스
이마트.서울숲힐스테이트아파트,성동구,성수동2가,37.540121,127.052284,버스
서울숲코오롱디지털타워2차,성동구,성수동2가,37.541411,127.05399,버스
서울경찰청제6기동단,성동구,성수동2가,37.540076,127.054739,버스
한라시그마밸리앞,성동구,성수동2가,37.539647,127.05532,버스
성수역3번출구,성동구,성수동2가,37.543842,127.057061,버스
서울숲코오롱디지털타워2차,성동구,성수동2가,37.541461,127.053848,버스
이마트.서울숲힐스테이트아파트,성동구,성수동2가,37.540528,127.05257,버스
현대그린아파트,성동구,성수동1가,37.540523,127.049622,버스
성수역3번출구,성동구,성수동2가,37.54355983,127.0566907,버스
경일중고등학교,성동구,성수동1가,37.542503,127.04921,버스
한라시그마밸리,성동구,성수동2가,37.53990607,127.0551786,버스
서울경찰청제6기동단,성동구,성수동2가,37.54022816,127.0547712,버스
서울숲역,성동구,성수동1가,37.543869,127.045146,버스
성동구민종합체육센터,성동구,성수동1가,37.54527,127.044515,버스
서울숲2번출입구,성동구,성수동1가,37.543527,127.04255,버스
서울숲9번출입구,성동구,성수동1가,37.54363749,127.0375591,버스
옥수역4번출구,성동구,옥수동,37.54181185,127.0176125,버스
성수대교북단교차로,성동구,성수동1가,37.54429585,127.035517,버스
마장역,성동구,마장동,37.56611408,127.0426522,버스
마장역,성동구,마장동,37.56564741,127.0423948,버스
옥정초등학교,성동구,옥수동,37.54088924,127.0154196,버스
e편한세상금호109동,성동구,금호동1가,37.55348259,127.0218758,버스
왕십리KCC스위첸아파트,성동구,하왕십리동,37.5603742,127.0268267,버스
금호베스트빌아파트노인정앞,성동구,하왕십리동,37.56187332,127.0250695,버스
응봉역.광희중학교,성동구,응봉동,37.55187861,127.0352979,버스
대림강변타운아파트A상가,성동구,응봉동,37.55479017,127.0357172,버스
리버그린동아아파트정문,성동구,응봉동,37.55349324,127.0375237,버스
서울숲리버뷰자이아파트제2주차장,성동구,행당동,37.55616527,127.0394073,버스
서울숲리버뷰자이아파트제2주차장,성동구,행당동,37.55572157,127.0392798,버스
서울숲리버뷰자이아파트제1주차장,성동구,행당동,37.55419708,127.038889,버스
왕십리로교차로,성동구,행당동,37.55771977,127.0389354,버스
왕십리로교차로,성동구,행당동,37.55776761,127.0391339,버스
리버그린동아아파트,성동구,응봉동,37.55334439,127.0382721,버스
서울숲리버뷰자이아파트제1주차장,성동구,행당동,37.55450974,127.0392367,버스
왕십리역6-1번출구,성동구,행당동,37.56079238,127.037913,버스
행당동서울숲더샵,성동구,행당동,37.55780723,127.0397223,버스
행당동서울숲더샵,성동구,행당동,37.55800088,127.0399091,버스
서울숲공원,성동구,성수동1가,37.5420906,127.0425737,버스
성수역수제화거리,성동구,성수동2가,37.54515802,127.0546184,버스
한양대역,성동구,행당동,37.55686515,127.0432471,버스
한양대학교병원본관1층,성동구,사근동,37.55945987,127.0438016,버스
한양대학교병원본관1층,성동구,사근동,37.55945161,127.0435712,버스
한양대학교병원응급실,성동구,사근동,37.55981246,127.0445986,버스
한양대학교류마티스병원동관,성동구,사근동,37.55997012,127.0446524,버스
한양대학교백남학술정보관,성동구,사근동,37.55899635,127.0446277,버스
한양종합기술연구원.생활과학대학,성동구,사근동,37.55906038,127.0449123,버스
한양대학교생활과학대학,성동구,사근동,37.55680349,127.0465029,버스
한양대학교제2의학관,성동구,사근동,37.55933134,127.042131,버스
한양대학교정문,,,37.55777611,127.0421228,버스
군자교입구,광진구,중곡동,37.55874099,127.0756461,버스
군자교입구,광진구,군자동,37.55879373,127.0749003,버스
군자역.용마초등학교,광진구,중곡동,37.55609891,127.0824731,버스
군자역.용마초등학교,광진구,능동,37.55626982,127.0815564,버스
중곡동입구삼거리,광진구,중곡동,37.55449655,127.0865505,버스
어린이대공원후문아차산역,광진구,구의동,37.55120847,127.0901492,버스
어린이대공원후문아차산역,광진구,능동,37.5527549,127.0892142,버스
중곡동입구삼거리,광진구,능동,37.554926,127.085229,버스
새밭교회,광진구,구의동,37.54898341,127.0931845,버스
새밭교회,광진구,구의동,37.54895793,127.0926145,버스
광나루역,광진구,광장동,37.54574097,127.1026491,버스
광나루역,광진구,광장동,37.54515886,127.10376,버스
군자교,광진구,중곡동,37.56153286,127.075203,버스
군자교,광진구,중곡동,37.56238618,127.0752287,버스
메리놀외방선교회,광진구,중곡동,37.55895087,127.077335,버스
메리놀외방선교회,광진구,중곡동,37.55908662,127.0776319,버스
중곡1동주민센터입구,광진구,중곡동,37.56052242,127.0783835,버스
중곡1동주민센터입구,광진구,중곡동,37.5608783,127.0784037,버스
중곡1동사거리,광진구,중곡동,37.56245368,127.0794725,버스
중곡1동사거리,광진구,중곡동,37.56248135,127.0792818,버스
중마초등학교.중곡제일골목시장앞,광진구,중곡동,37.56498069,127.0808444,버스
용마사거리,광진구,중곡동,37.56229075,127.0818721,버스
중곡2동주민센터앞,광진구,중곡동,37.55988373,127.0808553,버스
중곡2동주민센터앞,광진구,중곡동,37.55984027,127.0811552,버스
중곡동성당앞,광진구,중곡동,37.56316824,127.0829363,버스
종합의료복합단지,광진구,중곡동,37.56388824,127.0833601,버스
대원여자고등학교앞,광진구,중곡동,37.562118,127.087052,버스
중곡보건지소,광진구,중곡동,37.55991949,127.0869846,버스
신성시장앞,광진구,중곡동,37.55831636,127.0876755,버스
중곡우체국앞,광진구,중곡동,37.56157731,127.0838853,버스
면곡시장,광진구,중곡동,37.56974605,127.0797293,버스
면곡시장,광진구,중곡동,37.57002722,127.0794405,버스
중곡아파트,광진구,중곡동,37.56640123,127.0778997,버스
중곡아파트,광진구,중곡동,37.56579555,127.077177,버스
중마초등학교.중곡제일골목시장앞,광진구,중곡동,37.56523071,127.0808531,버스
중곡역입구,광진구,중곡동,37.56634043,127.081615,버스
중곡역입구,광진구,중곡동,37.56665978,127.0816482,버스
중곡3동주민센터앞,광진구,중곡동,37.56853602,127.0827951,버스
중곡3동주민센터앞,광진구,중곡동,37.56849153,127.0826419,버스
면곡시장앞,광진구,중곡동,37.57079492,127.0832844,버스
면곡시장앞,광진구,중곡동,37.57108313,127.0834488,버스
용암사입구,광진구,중곡동,37.56791599,127.0860566,버스
용곡삼거리,광진구,중곡동,37.56793345,127.0855902,버스
중곡역.국립정신건강센터,광진구,중곡동,37.56604642,127.0845455,버스
대원고교앞,광진구,중곡동,37.56396603,127.0867086,버스
용암사입구,광진구,중곡동,37.567868,127.0863735,버스
대원고교앞,광진구,중곡동,37.56419922,127.0869681,버스
대원여자고등학교앞,광진구,중곡동,37.56269505,127.0873094,버스
신성시장,광진구,중곡동,37.55831895,127.0879298,버스
중곡동입구,광진구,중곡동,37.55419672,127.088669,버스
어린이대공원앞,광진구,능동,37.55204586,127.0770315,버스
능동사거리.군자역6번출구,광진구,능동,37.55517668,127.0786347,버스
구의사거리.광진소방서앞,광진구,능동,37.54524958,127.0839777,버스
어린이회관,광진구,능동,37.545612,127.079201,버스
구의사거리.광진소방서앞,광진구,구의동,37.54499866,127.0843024,버스
광진경찰서,광진구,구의동,37.54153366,127.0836883,버스
광진경찰서,광진구,구의동,37.54308737,127.0846474,버스
광진경찰서,광진구,구의동,37.54221011,127.0842427,버스
광진구청,광진구,구의동,37.53896485,127.0834074,버스
구의역2번출구,광진구,구의동,37.53770269,127.0879773,버스
래미안구의파크스위트,광진구,구의동,37.54471589,127.0890122,버스
구의2동주민센터입구,광진구,구의동,37.54925157,127.0897847,버스
구의2동주민센터입구,광진구,구의동,37.54864168,127.0895859,버스
구의사거리,광진구,구의동,37.54565109,127.085747,버스
구의사거리,광진구,구의동,37.54581736,127.0863481,버스
래미안구의파크스위트,광진구,구의동,37.54496382,127.0890507,버스
현대아파트앞,광진구,구의동,37.5395525,127.0940087,버스
현대아파트앞,광진구,구의동,37.53964377,127.0941743,버스
광진우체국,광진구,구의동,37.537998,127.090409,버스
강변역A,광진구,구의동,37.5361137,127.0937169,버스
테크노마트앞.강변역,광진구,구의동,37.53686451,127.093755,버스
구의현대2단지아파트,광진구,구의동,37.53785337,127.0965425,버스
올림픽대교북단사거리,광진구,구의동,37.5433927,127.09321,버스
올림픽대교북단사거리,광진구,광장동,37.54338872,127.0936876,버스
광장동현대아파트앞,광진구,광장동,37.54190911,127.0977641,버스
광장동현대아파트앞,광진구,광장동,37.54207254,127.0989722,버스
광나루역.극동아파트,광진구,광장동,37.5435355,127.1029629,버스
광나루역.극동아파트,광진구,광장동,37.54424248,127.1033203,버스
어린이대공원역2번출구,광진구,능동,37.546984,127.075378,버스
워커힐아파트.광장동,광진구,광장동,37.54789576,127.106715,버스
워커힐아파트앞,광진구,광장동,37.55049601,127.1090264,버스
워커힐입구,광진구,광장동,37.55061343,127.1087232,버스
광진구청,광진구,자양동,37.53876278,127.0831892,버스
자양사거리,광진구,자양동,37.53693378,127.0824321,버스
자양사거리,광진구,자양동,37.5367503,127.0821045,버스
자양초등학교앞,광진구,자양동,37.53794785,127.0784674,버스
자양초등학교앞,광진구,자양동,37.53742286,127.0792651,버스
건국대학교앞,광진구,자양동,37.53874521,127.0750483,버스
자양미소약국.자양골목시장,광진구,자양동,37.53275,127.077319,버스
자양동우체국.중앙농협,광진구,자양동,37.53157273,127.0814131,버스
자양하늘채베르아파트앞,광진구,자양동,37.53219224,127.084608,버스
자양동잠실대교북단,광진구,자양동,37.53295532,127.0848057,버스
신자초등학교앞,광진구,자양동,37.53044032,127.0749155,버스
자양미소약국.자양골목시장,광진구,자양동,37.53270034,127.0768713,버스
자양동우체국.중앙농협,광진구,자양동,37.53153084,127.0807387,버스
동서울우편집중국앞,광진구,자양동,37.53505211,127.0843377,버스
자양하늘채베르아파트앞,광진구,자양동,37.53197322,127.0846733,버스
자양동잠실대교북단,광진구,자양동,37.53212015,127.0858514,버스
자양2동주민센터,광진구,자양동,37.527949,127.08517,버스
구립행복마루어린이집,광진구,자양동,37.527743,127.082213,버스
자양한강도서관,광진구,자양동,37.528429,127.078333,버스
구의역3번출구,광진구,자양동,37.53751863,127.0882894,버스
국민은행신자양지점,광진구,자양동,37.53557191,127.0668747,버스
신양초등학교앞,광진구,자양동,37.53491182,127.0692877,버스
신양초등학교앞,광진구,자양동,37.53523371,127.0689474,버스
뚝도변전소앞,광진구,자양동,37.536091,127.0689076,버스
광진문화예술회관,광진구,자양동,37.53856525,127.0701692,버스
건국대학교앞,광진구,자양동,37.53844611,127.0748754,버스
신자초등학교앞,광진구,자양동,37.530768,127.074922,버스
자양우성아파트앞,광진구,자양동,37.53379524,127.0734113,버스
자양우성아파트앞,광진구,자양동,37.53394696,127.0734067,버스
자양고교앞,광진구,자양동,37.53457909,127.0711714,버스
자양고교앞,광진구,자양동,37.53431586,127.0713601,버스
대동아파트앞,광진구,자양동,37.536419,127.068967,버스
국민은행신자양지점,광진구,자양동,37.53572933,127.0672016,버스
영동교골목시장,광진구,자양동,37.53950299,127.0626913,버스
건대입구역6번출구,광진구,자양동,37.54082688,127.0672789,버스
건대로데오거리입구,광진구,자양동,37.539081,127.070158,버스
노룬산시장앞,광진구,자양동,37.53680587,127.0629447,버스
영동대교북단,광진구,자양동,37.53671469,127.0611888,버스
노룬산시장앞,광진구,자양동,37.53660675,127.0628993,버스
신양초등학교앞,광진구,자양동,37.53380284,127.0679167,버스
자양4동주민센터앞,광진구,자양동,37.533632,127.067497,버스
성수사거리,광진구,화양동,37.54315851,127.0647766,버스
화양사거리,광진구,화양동,37.54723184,127.0670886,버스
광진광장,광진구,화양동,37.54771517,127.0715209,버스
어린이대공원역4번출구,광진구,화양동,37.54662164,127.0736285,버스
한아름공원,광진구,화양동,37.543765,127.072222,버스
건대입구역사거리.건대병원,광진구,구의동,37.548983,127.093185,버스
건대입구역1번출구,광진구,화양동,37.54089575,127.0681673,버스
어린이대공원역3번출구,광진구,화양동,37.54680458,127.0751469,버스
건대입구역사거리.건대병원,광진구,화양동,37.54081986,127.0712485,버스
어린이회관,광진구,화양동,37.54527222,127.0795953,버스
천주교화양동성당,광진구,화양동,37.54590439,127.0735882,버스
송정동서울숲아이파크,광진구,군자동,37.55170446,127.0695975,버스
송정동건영아파트,광진구,군자동,37.55475377,127.0712986,버스
군자교남단,광진구,군자동,37.55741097,127.0727879,버스
중앙농협군자지점,광진구,군자동,37.55770855,127.0767091,버스
중앙농협군자지점,광진구,군자동,37.55715628,127.0765591,버스
능동우편취급국,광진구,군자동,37.55616091,127.0760329,버스
군자삼거리,광진구,군자동,37.55497555,127.0752869,버스
군자삼거리,광진구,군자동,37.55464662,127.0753228,버스
세종초등학교.세종사이버대학교앞,광진구,군자동,37.55352488,127.0733967,버스
세종초교앞,광진구,군자동,37.55386665,127.0743618,버스
군자새마을금고.성동광진위센터,광진구,군자동,37.55185121,127.0713225,버스
군자새마을금고앞,광진구,군자동,37.55135665,127.0710878,버스
장안초등학교,광진구,군자동,37.54869231,127.0707548,버스
장안초등학교,광진구,군자동,37.54858017,127.0704836,버스
화양사거리,광진구,군자동,37.5483289,127.0686842,버스
광진광장,광진구,군자동,37.54800515,127.0715411,버스
어린이대공원앞.세종대학교,광진구,군자동,37.549752,127.07544,버스
능동교회앞,광진구,군자동,37.55287399,127.0769927,버스
능동사거리.군자역7번출구,광진구,군자동,37.556322,127.07882,버스
아차산역삼거리,광진구,중곡동,37.55458123,127.086786,버스
용마초등학교,광진구,중곡동,37.55654226,127.0817237,버스
어린이대공원후문,광진구,구의동,37.55086668,127.0905076,버스
서울화양동우체국,광진구,화양동,37.54811041,127.0687744,버스
중곡동입구,광진구,중곡동,37.55479896,127.0882622,버스
제일은행사거리,광진구,자양동,37.53355053,127.0747506,버스
동곡삼거리,광진구,중곡동,37.56367394,127.0779539,버스
건대병원입구,광진구,화양동,37.54210848,127.0714728,버스
광진청소년센터,광진구,광장동,37.54595149,127.1053745,버스
강변역B,광진구,구의동,37.53605415,127.0937384,버스
테크노마트앞.강변역,광진구,구의동,37.53690502,127.0938031,버스
중곡동성당,광진구,중곡동,37.56276542,127.0824011,버스
종합의료복합단지,광진구,중곡동,37.56437307,127.0833027,버스
중곡역.국립정신건강센터,광진구,중곡동,37.5662295,127.084325,버스
용곡삼거리,광진구,중곡동,37.5685783,127.0855998,버스
구의3동주민센터,광진구,구의동,37.53906841,127.0925471,버스
