name,type,gu_name,dong_name,latitude,longitude
런드리익스프레스샵 논현점,셀프빨래방,강남구,논현1동,37.5070516,127.0293596
크린토피아 코인워시365 논현역점,셀프빨래방,강남구,논현1동,37.5098222,127.0277507
크린업24 강남논현점,셀프빨래방,강남구,논현1동,37.5099898,127.0258803
워시엔조이 강남논현점,셀프빨래방,강남구,논현1동,37.5102822,127.0239352
크린업24 강남역삼점,셀프빨래방,강남구,역삼1동,37.4970034,127.0298357
24시셀프빨래대장 일원점,셀프빨래방,강남구,일원본동,37.4828994,127.0834454
더런드리 논현점,셀프빨래방,강남구,논현1동,37.5111198,127.0293267
워시엔죠이셀프빨래방 역삼1호점,셀프빨래방,강남구,역삼1동,37.4917309,127.0372698
자탁소셀프빨래방 역삼직영점,셀프빨래방,강남구,역삼2동,37.4936191,127.0424151
빨래터빨래방 역삼점,셀프빨래방,강남구,역삼1동,37.5020995,127.0339263
크린토피아 코인워시365 청담경원점,셀프빨래방,강남구,청담동,37.5235931,127.0450641
워시엔조이 청담점,셀프빨래방,강남구,청담동,37.522158,127.0457381
어반런드렛 청담,셀프빨래방,강남구,청담동,37.5254831,127.0489544
세탁나눔방24시,셀프빨래방,강남구,청담동,37.5264397,127.04968
워시큐셀프빨래방 신논현점,셀프빨래방,강남구,논현1동,37.5057599,127.027426
아쿠아워시 강남언주역점,셀프빨래방,강남구,역삼1동,37.5067636,127.0331066
크린토피아 코인워시 강남언주역점,셀프빨래방,강남구,논현1동,37.5079461,127.0322315
크린토피아 코인워시365 역삼1동점,셀프빨래방,강남구,역삼1동,37.5066527,127.0415582
펭귄에이전시 (penguin agency),셀프빨래방,강남구,삼성2동,37.5137167,127.0486405
위니아24크린샵 삼성점,셀프빨래방,강남구,삼성2동,37.5103691,127.0534108
화이트365 삼성점,셀프빨래방,강남구,삼성2동,37.5118015,127.0465731
코인워시24셀프빨래터 강남대치점,셀프빨래방,강남구,대치4동,37.4988282,127.0533586
아쿠아워시 논현점,셀프빨래방,강남구,논현2동,37.5106397,127.0361861
버블맨24셀프빨래방 언주역점,셀프빨래방,강남구,역삼1동,37.5060377,127.0367484
빨래터빨래방 역삼본점,셀프빨래방,강남구,역삼2동,37.5005674,127.0423818
런드리나인셀프빨래방 일원점,셀프빨래방,강남구,일원1동,37.490887,127.0873361
런드리9 셀프빨래방 일원점,셀프빨래방,강남구,일원1동,37.490887,127.0873361
에코런드렛셀프빨래방 강남자곡동점,셀프빨래방,강남구,세곡동,37.4737132,127.1034188
낭만빨래방 역삼역점,셀프빨래방,강남구,역삼1동,37.4971759,127.0336379
위니아24크린샵 역삼점,셀프빨래방,강남구,역삼1동,37.5049603,127.0396529
워시엔조이 선릉역점,셀프빨래방,강남구,역삼1동,37.5051548,127.0442448
크린토피아 코인워시 선릉역점,셀프빨래방,강남구,역삼1동,37.5056945,127.0462538
런드리존 논현점,셀프빨래방,강남구,논현1동,37.5103819,127.0274448
화이트365 강남논현점,셀프빨래방,강남구,논현2동,37.5114375,127.0330551
화이트365 강남점,셀프빨래방,강남구,논현2동,37.5183238,127.0376459
더런드리 셀프빨래방 암사점,셀프빨래방,강동구,암사1동,37.5532288,127.1300076
셀빨래방 암사동점,셀프빨래방,강동구,암사1동,37.5541113,127.1357689
화이트24셀프빨래방 천호점,셀프빨래방,강동구,천호3동,37.5403805,127.1282011
아쿠아워시 셀프빨래방 명일동점,셀프빨래방,강동구,명일1동,37.5501562,127.1461581
24시셀프빨래방 천호2호점,셀프빨래방,강동구,천호2동,37.5468463,127.1322039
셀빨래방 고덕점,셀프빨래방,강동구,고덕1동,37.5604684,127.1517976
코인워시셀프빨래방 천호길동점,셀프빨래방,강동구,천호1동,37.54792,127.1412891
이지워시 셀프빨래방 명일점,셀프빨래방,강동구,명일2동,37.5486854,127.1542121
셀빨래방 성내점,셀프빨래방,강동구,성내3동,37.5299209,127.1366084
이지워시 셀프빨래방 둔촌점,셀프빨래방,강동구,둔촌2동,37.5326059,127.1393231
워시스토리셀프빨래방 강동성내타운점,셀프빨래방,강동구,성내3동,37.5336301,127.1346185
워시피플셀프빨래방,셀프빨래방,강동구,명일1동,37.5475763,127.1445742
워시엔조이 셀프빨래방 천호역점,셀프빨래방,강동구,천호2동,37.5428092,127.1237211
워시쿱 24시 셀프빨래방 암사점,셀프빨래방,강동구,암사1동,37.5501863,127.1300022
천호동 셀프빨래방 런드리라운지24 천호3동점,셀프빨래방,강동구,천호3동,37.539228,127.1320283
셀빨래방,셀프빨래방,강동구,천호3동,37.542161,127.1376986
워시팡팡무인셀프빨래방 성내점,셀프빨래방,강동구,성내2동,37.5342938,127.1257315
24시셀프빨래방,셀프빨래방,강동구,성내2동,37.5334398,127.1268991
위니아대우24크린샵셀프빨래방 서울둔촌점,셀프빨래방,강동구,둔촌2동,37.5307829,127.1416631
워시쿱셀프빨래방미아점무인아이스크림할인점,식품판매,강북구,송중동,37.6222006,127.0287701
워시팡팡 셀프빨래방,세탁소,강북구,송천동,37.6222035,127.0260022
크린토피아 코인워시 미아역점,셀프빨래방,강북구,미아동,37.6297048,127.0239136
뽀송이 셀프빨래방,세탁소,강북구,우이동,37.6578698,127.0134608
크린업24 미아뉴타운점,셀프빨래방,강북구,삼각산동,37.6185505,127.0188472
화이트365 수유시장점,셀프빨래방,강북구,삼양동,37.6301531,127.022125
크린토피아 코인워시365 수유1동주민센터점,셀프빨래방,강북구,수유1동,37.6300038,127.0169774
화이트365 화계역점,셀프빨래방,강북구,수유1동,37.6326045,127.0153626
화이트365 미아점,셀프빨래방,강북구,미아동,37.6246146,127.0249659
빨래방24시 송천점,셀프빨래방,강북구,송천동,37.6186991,127.0238523
크린업24 길음뉴타운점,셀프빨래방,강북구,송천동,37.6117497,127.0230935
위니아대우24크린샵 미아점,셀프빨래방,강북구,송중동,37.6135321,127.0342565
더런드리 미아점,셀프빨래방,강북구,송중동,37.6146152,127.0348918
런드리나인 셀프빨래방 오패산점,셀프빨래방,강북구,송중동,37.6249469,127.0321441
크린토피아 코인워시365 강북미아해링턴점,셀프빨래방,강북구,송중동,37.616937,127.0346104
워시하우스 미아사거리점,셀프빨래방,강북구,송중동,37.6145884,127.0325606
24시셀프코인빨래방,셀프빨래방,강북구,번3동,37.6271971,127.0399267
스피드퀸,셀프빨래방,강북구,번3동,37.6271971,127.0399267
코런셀프빨래방,셀프빨래방,강서구,화곡1동,37.5340725,126.8417257
AMPM워시큐 셀프빨래방 발산역점,셀프빨래방,강서구,가양1동,37.5618344,126.8388113
워시프렌즈 서울마곡동점,셀프빨래방,강서구,가양1동,37.5655159,126.8400405
에코런드렛 셀프빨래방 화곡동점,셀프빨래방,강서구,화곡8동,37.5357709,126.8489506
브로스셀프빨래방 화곡점,셀프빨래방,강서구,화곡3동,37.5436333,126.8365611
워시팡팡 셀프빨래방발산점,세탁소,강서구,발산1동,37.5530873,126.8326184
에코런드렛 빨래방&amp;아이스크림 화곡4동점,셀프빨래방,강서구,화곡4동,37.5309931,126.8601403
24시셀프빨래방 방화동,셀프빨래방,강서구,방화2동,37.5632082,126.8072819
24시셀프빨래방 화곡점,셀프빨래방,강서구,화곡4동,37.5319853,126.8592546
워시앤디 셀프빨래방 까치산점,셀프빨래방,강서구,화곡1동,37.5306105,126.842514
워시프렌즈 서울까치산점,셀프빨래방,강서구,화곡8동,37.5349549,126.8500332
아인워시 24시셀프빨래방 화곡점,셀프빨래방,강서구,화곡2동,37.5316347,126.8546487
워시팡팡셀프빨래방 남부시장점,셀프빨래방,강서구,화곡4동,37.533809,126.8616585
에코런드렛 셀프빨래방&amp;아이스크림 마곡직영점,셀프빨래방,강서구,가양1동,37.559888,126.8291698
화이트24셀프빨래방 등촌점,셀프빨래방,강서구,등촌1동,37.5556209,126.8591396
우리셀프빨래방협동조합 강서구청점,셀프빨래방,강서구,화곡본동,37.5474583,126.848581
셀빨래방 화곡점,셀프빨래방,강서구,화곡6동,37.5488915,126.8504397
워시타임셀프빨래방 김포공항동점,셀프빨래방,강서구,공항동,37.5539043,126.8144736
백의민족 셀프빨래방 등촌점,셀프빨래방,강서구,등촌2동,37.5455753,126.8613306
화이트24셀프빨래방 마곡나루역점,셀프빨래방,강서구,가양1동,37.5689315,126.8261437
24시셀프빨래방 신이주단지점,셀프빨래방,강서구,공항동,37.5548614,126.8179212
화이트24셀프빨래방 개화산역점,셀프빨래방,강서구,방화2동,37.572303,126.8069941
화이트24셀프빨래방 양천향교역점,셀프빨래방,강서구,가양1동,37.568266,126.8403596
미스터셀프크리닝 방화2점,셀프빨래방,강서구,방화1동,37.5698141,126.8152452
화이트24 셀프빨래방 양천향교점,셀프빨래방,강서구,가양1동,37.5708356,126.8403756
워시프레쉬 화곡점,셀프빨래방,강서구,화곡본동,37.5425889,126.8477588
워시팡팡무인셀프빨래방 화곡본점,셀프빨래방,강서구,화곡8동,37.5387912,126.8478197
아쿠아워시 서울강서화곡동점,셀프빨래방,강서구,화곡6동,37.5545091,126.8520186
이지워시 셀프빨래방 화곡점,셀프빨래방,강서구,화곡1동,37.5385782,126.8354767
런드리킹 셀프빨래방 신사점,셀프빨래방,관악구,신사동,37.4837267,126.9216598
워시프렌즈 서울삼성동점,셀프빨래방,관악구,삼성동,37.4644976,126.9269064
워시피플셀프빨래방 관악봉천은천점,셀프빨래방,관악구,보라매동,37.4869358,126.9393778
늘푸른 셀프드라이크리닝 신림동점,셀프빨래방,관악구,난곡동,37.4691916,126.9242383
파란빨래방 난곡사거리점,셀프빨래방,관악구,미성동,37.479464,126.9128484
런드리라운지24셀프빨래방 낙성대점,셀프빨래방,관악구,행운동,37.4762018,126.9665166
워시프렌즈셀프빨래방 서울신림점,셀프빨래방,관악구,신사동,37.485323,126.9198081
화이트빨래방,셀프빨래방,관악구,신림동,37.4859247,126.9308676
에코런드렛셀프빨래방 관악구신림점,셀프빨래방,관악구,신림동,37.4861555,126.9335779
워시 프레쉬 셀프빨래방 신림역점,세탁소,관악구,서원동,37.4825552,126.9338871
워시프레쉬 셀프빨래방 신림역2호점,셀프빨래방,관악구,서원동,37.484215,126.933964
파란빨래방,셀프빨래방,관악구,낙성대동,37.4776204,126.9553142
하이브 셀프빨래방,셀프빨래방,관악구,남현동,37.47577,126.9755237
퍼펙트30분빨래방 당곡역점,셀프빨래방,관악구,보라매동,37.4910757,126.9287129
워시원 서울대학동점,셀프빨래방,관악구,대학동,37.4677405,126.9364431
워시프렌즈 서울대학동점,셀프빨래방,관악구,대학동,37.4664422,126.9361442
무인셀프 365일빨래방,셀프빨래방,관악구,대학동,37.4669936,126.9374894
셀빨래방 보라매점,셀프빨래방,관악구,보라매동,37.4912113,126.9249903
클린빨래방,셀프빨래방,관악구,서림동,37.4749068,126.9407491
워시피플셀프빨래방 신림보라매점,셀프빨래방,관악구,보라매동,37.4885979,126.9305018
센트럴빨래방 파란신림점,셀프빨래방,관악구,신림동,37.4870925,126.9304952
더런드리셀프빨래방 봉천은천점,셀프빨래방,관악구,은천동,37.4841842,126.9454916
워시엔조이 셀프빨래방 봉천중앙점,셀프빨래방,관악구,은천동,37.483488,126.9449953
버블맨24셀프빨래방 봉천점,셀프빨래방,관악구,중앙동,37.4833224,126.9492909
착한EM빨래방,셀프빨래방,관악구,중앙동,37.4829015,126.9506717
파란셀프빨래방,셀프빨래방,관악구,대학동,37.4688674,126.93892
클린업24시 셀프빨래방 서울대점,셀프빨래방,관악구,서림동,37.4716647,126.9384035
크린업24 서울대대학동점,셀프빨래방,관악구,대학동,37.4680788,126.9364282
런드리카페 셀프빨래방 신림점,셀프빨래방,관악구,대학동,37.4680295,126.9345628
버블맨24 셀프빨래방,셀프빨래방,관악구,서림동,37.4749363,126.9370368
화이트빨래방 신림역점,셀프빨래방,관악구,서원동,37.4820835,126.9306623
워시엔조이 신림역2호점,셀프빨래방,관악구,신림동,37.4858711,126.928162
런드리라운지24 셀프빨래방 신림점,셀프빨래방,관악구,신림동,37.4875944,126.9294281
셀프크리닝,셀프빨래방,관악구,신원동,37.481772,126.9275911
워시피플 셀프빨래방 봉천동점,셀프빨래방,관악구,청룡동,37.4797059,126.9486168
24시간셀프빨래방 은천점,셀프빨래방,관악구,은천동,37.4838184,126.9438376
셀프빨래방24,셀프빨래방,관악구,청룡동,37.4819881,126.9398842
워시앤조이셀프빨래방 관악조원점,셀프빨래방,관악구,조원동,37.481346,126.9087317
이지워시셀프빨래방 관악청룡점,셀프빨래방,관악구,청룡동,37.4789865,126.9448754
자탁소 셀프빨래방 쑥고개점,셀프빨래방,관악구,청룡동,37.4802306,126.9417547
더런드리 청룡점,셀프빨래방,관악구,청룡동,37.4806339,126.9458664
청림24시셀프빨래방,셀프빨래방,관악구,청림동,37.4886505,126.959506
24시셀프빨래플러스 청림점,셀프빨래방,관악구,청림동,37.4886505,126.959506
워시팡팡 셀프빨래방 서울대입구점,셀프빨래방,관악구,행운동,37.4818377,126.9564952
자탁소 셀프빨래방 낙성대행운점,셀프빨래방,관악구,행운동,37.4794233,126.9598971
워시피플 셀프빨래방 봉천낙성대행운점,셀프빨래방,관악구,행운동,37.4814478,126.9600223
런드리킹셀프빨래방 신림대학동점,셀프빨래방,관악구,대학동,37.4686183,126.9355923
월드크리닝 서울신림점,셀프빨래방,관악구,대학동,37.4702264,126.9359625
워시스토리 서울광장점,셀프빨래방,광진구,광장동,37.5475301,127.1043067
모지트,셀프빨래방,광진구,군자동,37.5547631,127.0756709
클린클린24시 셀프빨래방 건대점,셀프빨래방,광진구,화양동,37.5445946,127.0707222
워시팡팡 24시빨래방 군자점,셀프빨래방,광진구,중곡1동,37.561574,127.0802376
24H중곡센터1 워시앤드라이,셀프빨래방,광진구,중곡3동,37.5660476,127.0834527
워시프렌즈 셀프빨래방,셀프빨래방,광진구,자양4동,37.5378412,127.0689943
코인워시24셀프발래방 건대점,셀프빨래방,광진구,화양동,37.5452142,127.0686164
화이트365 건대후문점,셀프빨래방,광진구,화양동,37.5451597,127.0759972
샤인워시 화양점,셀프빨래방,광진구,화양동,37.5465685,127.0725567
워시앤조이셀프빨래방,세탁소,광진구,화양동,37.5467638,127.0703412
워시엔조이 화양점,셀프빨래방,광진구,화양동,37.5467638,127.0703412
위워시 군자역점,셀프빨래방,광진구,중곡1동,37.5588379,127.0776401
코인워시24빨래터 KCLA광진점,셀프빨래방,광진구,자양4동,37.53776,127.0664117
햇빛촌24시셀프빨래터,셀프빨래방,광진구,중곡3동,37.5711256,127.0814969
워시피플셀프빨래방광진구화양동점,세탁소,광진구,화양동,37.5478143,127.0678101
24시셀프빨래방 자양점,셀프빨래방,광진구,자양4동,37.539323,127.0633098
화이트365 건대입구역점,셀프빨래방,광진구,화양동,37.5430664,127.0681086
유니셀프 화양점,셀프빨래방,광진구,화양동,37.5439134,127.0655825
워시엔조이 군자점,셀프빨래방,광진구,군자동,37.5545503,127.0723461
24시셀프빨래방 워시쿱얼음왕국중곡1동점,식품판매,광진구,중곡1동,37.5594159,127.0762533
워시프렌즈 중곡동점,셀프빨래방,광진구,중곡1동,37.5642171,127.0785097
런드리밍 중곡2호점,셀프빨래방,광진구,중곡3동,37.5676438,127.079643
아쿠아워시 서울자양점,셀프빨래방,광진구,자양2동,37.5291558,127.0817827
워시테리아 군자점,셀프빨래방,광진구,군자동,37.5568004,127.0760705
우리셀프빨래협동조합 세종대점,셀프빨래방,광진구,군자동,37.5551345,127.0752618
코인워시 24 세종대점,셀프빨래방,광진구,군자동,37.5551345,127.0752618
화이트365 건대동문회관점,셀프빨래방,광진구,자양3동,37.5383893,127.0749108
위니아24시크린샵 서울구의점,셀프빨래방,광진구,구의3동,37.5392349,127.092202
크린업24 화양점,셀프빨래방,광진구,화양동,37.5450219,127.0673412
워시엔조이 건대자양점,셀프빨래방,광진구,자양1동,37.5357864,127.0780866
워시팡팡 자양광진점,셀프빨래방,광진구,자양1동,37.5349697,127.0785493
워시엔조이 중곡군자역점,셀프빨래방,광진구,중곡2동,37.556527,127.08307
화이트365 중곡점,셀프빨래방,광진구,중곡2동,37.5576685,127.0864123
워시프렌즈 셀프빨래방 중곡사거리점,셀프빨래방,광진구,중곡2동,37.5590182,127.0869917
호박빨래방,셀프빨래방,광진구,자양1동,37.5379004,127.0829701
버블맨24셀프빨래방 자양점,셀프빨래방,광진구,자양1동,37.5349018,127.0826783
런드리플립플랍셀프빨래방 구의점,셀프빨래방,광진구,구의1동,37.5439839,127.0893113
런드리밍,셀프빨래방,광진구,중곡2동,37.5576509,127.0813194
코인워시24 능동어린이대공원점,셀프빨래방,광진구,능동,37.5548459,127.0810984
햇빛촌24시 셀프빨래터 중곡2호점,셀프빨래방,광진구,중곡2동,37.5548106,127.0874879
빨리셀프크리닝 개봉점,셀프빨래방,구로구,개봉2동,37.4923701,126.8534008
우리셀프빨래방협동조합 개봉점,셀프빨래방,구로구,개봉3동,37.4839497,126.8535462
크린업24 오류동역점,셀프빨래방,구로구,오류1동,37.4955852,126.8466467
24시셀프빨래방 오류점,셀프빨래방,구로구,오류1동,37.4948295,126.8420242
빨래방,셀프빨래방,구로구,고척1동,37.5046497,126.863331
이지워시 셀프빨래방 구로동점,셀프빨래방,구로구,구로3동,37.4885093,126.8908012
더런드리셀프빨래방 구로본동점,셀프빨래방,구로구,구로2동,37.4904604,126.8830769
워시프렌즈셀프빨래방 서울구로4동점,셀프빨래방,구로구,구로2동,37.4909823,126.8872144
워시팡팡 무인셀프빨래방 구로초점,셀프빨래방,구로구,구로2동,37.4962947,126.8849176
뽀송뽀송24시빨래방,셀프빨래방,구로구,구로2동,37.4982099,126.885865
하이빌빨래방,셀프빨래방,구로구,구로2동,37.4982099,126.885865
워시프렌즈 서울구로구청점,셀프빨래방,구로구,구로4동,37.49556,126.8914829
구일셀프빨래방,셀프빨래방,구로구,구로1동,37.4959404,126.8722666
화이트24셀프빨래방 구일점,셀프빨래방,구로구,구로1동,37.4959404,126.8722666
워시프렌즈셀프빨래방 구일역점,셀프빨래방,구로구,구로1동,37.4920247,126.8757919
워시팡팡 셀프빨래방 궁동점,셀프빨래방,구로구,수궁동,37.4974746,126.8300876
워시쿱셀프빨래방 궁동점,셀프빨래방,구로구,수궁동,37.4952585,126.8319808
워시팡팡셀프빨래방 온수점,셀프빨래방,구로구,수궁동,37.492434,126.8197458
워시프레쉬셀프빨래방 신도림포스빌,셀프빨래방,구로구,구로5동,37.5055472,126.891336
코인워시24시빨래방,셀프빨래방,구로구,구로3동,37.4803881,126.8989291
워시프렌즈셀프빨래방 구로구고척점,셀프빨래방,구로구,고척1동,37.5031383,126.862561
워시코인24시 샐프빨래방,세탁소,구로구,고척2동,37.5075882,126.8539526
코인워시24셀프빨래방 목동고척점,셀프빨래방,구로구,고척2동,37.5075882,126.8539526
워시팡팡셀프빨래방 금천1호점,셀프빨래방,금천구,독산1동,37.4719602,126.8896414
워시프렌즈 셀프빨래방 금천 독산1동점,셀프빨래방,금천구,독산1동,37.472392,126.8946132
워시프렌즈 셀프빨래방 서울독산동점,셀프빨래방,금천구,독산1동,37.4528688,126.8901904
남문24시셀프빨래방,셀프빨래방,금천구,독산3동,37.4717184,126.9029146
워시팡팡셀프빨래방 독산3동점,셀프빨래방,금천구,독산3동,37.4763126,126.9033544
현대셀프크리닝,셀프빨래방,금천구,시흥1동,37.455304,126.9056584
행복셀프빨래방,셀프빨래방,금천구,시흥4동,37.4559061,126.9059194
워시피플셀프빨래방 금천독산4동점,셀프빨래방,금천구,독산4동,37.470311,126.9004106
셀프빨래방 가산푸르지오시티점,셀프빨래방,금천구,가산동,37.4753002,126.8908539
24시쎌프빨래방,셀프빨래방,금천구,독산3동,37.4769876,126.9083588
워시엔조이 셀프빨래방 독산2호점,셀프빨래방,금천구,독산1동,37.4685577,126.8922437
워시프렌즈셀프빨래방 금천가산미소지움점,셀프빨래방,금천구,가산동,37.4762916,126.8787002
미소지움셀프빨래방,셀프빨래방,금천구,가산동,37.4762916,126.8787002
위시팡팡셀프빨래방,셀프빨래방,노원구,공릉2동,37.6246193,127.0789422
워시쿱 서울과기대점,셀프빨래방,노원구,하계1동,37.6356688,127.0744147
크린토피아 코인워시365 서울과기대점,셀프빨래방,노원구,하계1동,37.635655,127.0728696
워시스토리 서울노원점,셀프빨래방,노원구,상계2동,37.653283,127.0709421
워시피플셀프빨래방 노원중계동점,셀프빨래방,노원구,중계1동,37.6537579,127.0732234
워시쿱 서울공릉동점,셀프빨래방,노원구,공릉1동,37.6193093,127.0732571
워시프렌즈 셀프빨래방 공릉과기대점,셀프빨래방,노원구,공릉1동,37.6290382,127.0734406
코인24시빨래방 당고개역점,셀프빨래방,노원구,상계3.4동,37.6703059,127.0785559
워시프렌즈 서울상계2동점,셀프빨래방,노원구,상계2동,37.6569377,127.0696338
월드크린셀프크리닝 상계점,셀프빨래방,노원구,상계2동,37.6594432,127.0615323
코인워시24셀프빨래방 중계상계점,셀프빨래방,노원구,상계2동,37.6592553,127.0675206
워시프렌즈셀프빨래방 노원월계2동점,셀프빨래방,노원구,월계2동,37.6325606,127.0517479
크린업24 상계점,셀프빨래방,노원구,상계5동,37.6637089,127.0738729
워시엔조이 상계역점,셀프빨래방,노원구,상계5동,37.6634178,127.0729613
더런드리셀프빨래방 노원상계점,셀프빨래방,노원구,상계5동,37.6619478,127.0668693
워시엔조이 셀프빨래방 상계동점,셀프빨래방,노원구,상계2동,37.661327,127.0663816
더런드리 쌍문점,셀프빨래방,도봉구,쌍문3동,37.6510471,127.0341196
빨래방위드디,셀프빨래방,도봉구,창3동,37.6413781,127.0409952
워시엔조이 셀프빨래방 신도봉점,셀프빨래방,도봉구,도봉1동,37.670489,127.0424797
셀프빨래방 창동점,셀프빨래방,도봉구,창2동,37.6440613,127.0376339
워시프랜즈셀프빨래방 도봉구창동점,세탁소,도봉구,창2동,37.644952,127.0342309
버블맨24 샐프빨래방 쌍문3호점,셀프빨래방,도봉구,쌍문3동,37.6487613,127.0308901
더런드리 셀프빨래방 창동점,셀프빨래방,도봉구,창5동,37.6572113,127.041798
워시엔조이 셀프빨래방 도봉창동점,셀프빨래방,도봉구,창5동,37.6561229,127.0426065
워시프렌즈 셀프빨래방 도봉구 방학동점,셀프빨래방,도봉구,방학1동,37.669094,127.0447525
워시24시 셀프빨래방,셀프빨래방,도봉구,도봉2동,37.6828886,127.0475086
프리머스셀프빨래방,셀프빨래방,도봉구,창3동,37.6361277,127.0398381
버블맨24셀프빨래방 창동점,셀프빨래방,도봉구,창1동,37.6510272,127.0413835
코인워시24빨래터,셀프빨래방,동대문구,회기동,37.5920533,127.0545461
런드리24 제기점,셀프빨래방,동대문구,제기동,37.5849944,127.038228
크린토피아 코인워시 답십리점,셀프빨래방,동대문구,답십리1동,37.572855,127.0524012
크린토피아 코인워시 장안시장점,셀프빨래방,동대문구,장안1동,37.5684929,127.0652065
워시타임 서울장안동점,셀프빨래방,동대문구,장안1동,37.5693186,127.0655821
셀프빨래방24시 장안점,셀프빨래방,동대문구,장안2동,37.569573,127.0731675
런드리익스프레스샵 서울시립대점,셀프빨래방,동대문구,휘경2동,37.5871071,127.0602997
워시피플 동대문휘경동점,셀프빨래방,동대문구,휘경1동,37.5907851,127.0625522
코인워시24 휘경점,셀프빨래방,동대문구,휘경1동,37.5905011,127.0607127
워시팡팡 휘경점,셀프빨래방,동대문구,휘경2동,37.5876544,127.0563864
워시엔조이 용두점,셀프빨래방,동대문구,용신동,37.5763779,127.0335233
위니아24크린샵 서울장안점,셀프빨래방,동대문구,장안2동,37.580028,127.0701654
아쿠아워시셀프빨래방 서울전농동점,셀프빨래방,동대문구,전농1동,37.5819805,127.0520067
워시엔조이 전농점,셀프빨래방,동대문구,전농1동,37.5808029,127.0518833
코인워시24빨래방 고려대점,셀프빨래방,동대문구,제기동,37.5851248,127.0319419
런드리익스프레스샵 고대정문점,셀프빨래방,동대문구,제기동,37.5885142,127.0357178
화이트365 제기동점,셀프빨래방,동대문구,용신동,37.5771555,127.0332807
크린업24 제기동점,셀프빨래방,동대문구,제기동,37.5826703,127.0348095
크린토피아 코인워시365 이문대림점,셀프빨래방,동대문구,이문2동,37.6044037,127.062614
아쿠아워시 장안동점,셀프빨래방,동대문구,장안1동,37.571438,127.0701279
에코런드렛셀프빨래방 장안점,셀프빨래방,동대문구,장안1동,37.5685136,127.0688024
워시팡팡무인셀프빨래방 동대문장안,세탁소,동대문구,장안1동,37.5641178,127.0712954
셀빨래방 장안장평점,셀프빨래방,동대문구,장안1동,37.5675083,127.0712187
워시엔조이 장안점,셀프빨래방,동대문구,장안2동,37.5678615,127.0723007
우리셀프빨래방협동조합 장안점,셀프빨래방,동대문구,장안1동,37.5692035,127.0686966
크린업24 장안점,셀프빨래방,동대문구,장안1동,37.5699615,127.0694712
워시팡팡셀프빨래방 장안2호점,셀프빨래방,동대문구,장안2동,37.5737869,127.0724966
화이트365 장안점,셀프빨래방,동대문구,장안1동,37.5640849,127.067874
호박무인빨래방,셀프빨래방,동대문구,전농1동,37.5757813,127.0571608
위워시 회기역점,셀프빨래방,동대문구,휘경2동,37.5872251,127.0555009
워시프렌즈 셀프빨래방 청량리점,셀프빨래방,동대문구,청량리동,37.5854487,127.0504364
런드리업 셀프빨래방 제기점,셀프빨래방,동대문구,제기동,37.5854089,127.0343173
버블워시빨래방,셀프빨래방,동대문구,이문1동,37.5987037,127.057933
버블워시24 외대점,셀프빨래방,동대문구,이문1동,37.5987037,127.057933
런드리익스프레스샵 이문점,셀프빨래방,동대문구,이문1동,37.5984005,127.0559278
크린토피아 코인워시 이문2동점,셀프빨래방,동대문구,이문1동,37.5983547,127.0555825
크린라이프 답십리점,셀프빨래방,동대문구,답십리1동,37.5698022,127.0494665
더런드리 답십리점,셀프빨래방,동대문구,답십리1동,37.5694964,127.0498995
뽀송빨래터,셀프빨래방,동대문구,용신동,37.5756044,127.0414094
워시빌리지 답십리점,셀프빨래방,동대문구,답십리1동,37.5704338,127.0518314
워시엔조이 장한평점,셀프빨래방,동대문구,장안1동,37.5638565,127.063113
워시엔조이 청계리버리치점,셀프빨래방,동대문구,용신동,37.5702681,127.0307088
크린토피아 코인워시 동대문용두캐슬리치점,셀프빨래방,동대문구,용신동,37.5784517,127.0306241
런드리존 장안센트럴점,셀프빨래방,동대문구,장안2동,37.5738784,127.0671453
24시셀프빨래방 이문점,셀프빨래방,동대문구,이문1동,37.5989582,127.0674935
워시프렌즈셀프빨래방 동대문장한평점,셀프빨래방,동대문구,장안1동,37.5688814,127.0683157
크린토피아 코인워시365 동대문전농배봉초교점,셀프빨래방,동대문구,전농2동,37.5782251,127.0667016
크린앤화이트24시코인셀프빨래방,셀프빨래방,동대문구,장안2동,37.5775692,127.0688885
24시맑은셀프빨래방,셀프빨래방,동대문구,장안2동,37.5775692,127.0688885
워시쿱 장안직영점,셀프빨래방,동대문구,장안1동,37.5633072,127.0612041
에코런드렛셀프빨래방 답십리점,셀프빨래방,동대문구,답십리2동,37.5651861,127.0562375
화이트365 경희대점,셀프빨래방,동대문구,회기동,37.5912672,127.0512791
버블맨24 회기동점,셀프빨래방,동대문구,회기동,37.5908707,127.0542732
셀프빨래방24시,세탁소,동대문구,이문1동,37.5935965,127.0577732
스피드24클리닝,셀프빨래방,동대문구,이문1동,37.5935965,127.0577732
화이트365 휘경점,셀프빨래방,동대문구,휘경1동,37.5906666,127.0579035
런드리익스프레스샵 회기점,셀프빨래방,동대문구,휘경1동,37.5909396,127.0568589
셀프빨래방(사당역점),"가정,생활",동작구,사당1동,37.476408,126.9738885
24시셀프빨래방플러스 노량진점,셀프빨래방,동작구,노량진1동,37.5127569,126.9417006
블링블링24시셀프빨래방,셀프빨래방,동작구,노량진2동,37.5121656,126.937662
합격빨래방워시앤프리 노량진점,셀프빨래방,동작구,노량진1동,37.5124134,126.943281
AMPM워시큐 본동점,셀프빨래방,동작구,노량진1동,37.5110308,126.9549284
화이트빨래방 대방점,셀프빨래방,동작구,대방동,37.5009737,126.9273747
셀피아셀프빨래방 사당점,셀프빨래방,동작구,사당1동,37.4813289,126.9757644
워시피플 셀프빨래방 사당이수점,셀프빨래방,동작구,사당2동,37.4901693,126.9812861
24시간코인세탁소,셀프빨래방,동작구,노량진2동,37.5124006,126.9355117
런드리익스프레스샵 노량진점,셀프빨래방,동작구,노량진1동,37.5121384,126.9461939
에코클린 24 셀프빨래방,셀프빨래방,동작구,노량진1동,37.5124643,126.9474133
더런드리 노량진점,셀프빨래방,동작구,노량진1동,37.5103043,126.9468658
워시피플 동작구보라매점,셀프빨래방,동작구,신대방2동,37.4952832,126.9266895
에코런드렛 빨래방&amp;아이스크림 사당점,셀프빨래방,동작구,사당4동,37.4809986,126.9709315
참빨래셀프빨래방 사당점,셀프빨래방,동작구,사당1동,37.4793484,126.9745223
버블맨24시셀프빨래방 사당점,셀프빨래방,동작구,사당4동,37.4806336,126.9721983
워시프렌즈셀프빨래방 서울사당점,셀프빨래방,동작구,사당1동,37.4807786,126.9781901
빨리셀프크리닝,셀프빨래방,동작구,상도1동,37.4927842,126.9562369
삼성24시셀프빨래방 장승배기점,셀프빨래방,동작구,상도2동,37.5045536,126.9363648
삼성24시셀프빨래방 2호점,셀프빨래방,동작구,상도2동,37.503753,126.9454581
워시엔조이 상도역점,셀프빨래방,동작구,상도1동,37.5023027,126.9512141
24시셀프빨래방플러스 흑석점,셀프빨래방,동작구,흑석동,37.5066266,126.9621838
워시프렌즈 셀프빨래방 상도동점,셀프빨래방,동작구,상도4동,37.4973217,126.9351867
워시클리어셀프빨래방,셀프빨래방,동작구,신대방1동,37.486599,126.9071775
런드리나인 셀프빨래방 런드리스페이스점,셀프빨래방,동작구,대방동,37.5112868,126.9274558
24시셀프빨래방플러스 상도점,셀프빨래방,동작구,상도2동,37.5014493,126.9438142
워시피플셀프빨래방 흑석중앙대점,셀프빨래방,동작구,흑석동,37.5096318,126.9622042
크린라이프 중앙대본점,셀프빨래방,동작구,상도1동,37.5049479,126.9515929
크린토피아 코인워시365 신촌그랑자이점,셀프빨래방,마포구,대흥동,37.5557713,126.9433549
24시 빨래터 이대역점,셀프빨래방,마포구,대흥동,37.5533071,126.9454044
워시엔조이 마포용강점,셀프빨래방,마포구,용강동,37.5422755,126.9382349
코인워시24빨래터 합정역점,셀프빨래방,마포구,합정동,37.5476309,126.9144439
크린토피아 코인워시 마포염리자이점,셀프빨래방,마포구,용강동,37.5433654,126.946188
워시플랜트,셀프빨래방,마포구,서교동,37.5571757,126.921722
워시엔조이 마포합정점,셀프빨래방,마포구,망원1동,37.5533302,126.9083816
코인워시24빨래방 공덕점,셀프빨래방,마포구,아현동,37.5474542,126.9530943
크린토피아 코인워시365 마포애오개역점,셀프빨래방,마포구,공덕동,37.5525007,126.956863
런드리고24 마포역점,셀프빨래방,마포구,용강동,37.5399848,126.9454475
화이트365 마포역점,셀프빨래방,마포구,용강동,37.5399848,126.9454475
셀빨래방 염리점,셀프빨래방,마포구,염리동,37.5489465,126.9491329
크린업24 마포아현점,셀프빨래방,마포구,공덕동,37.5511529,126.9565422
화이트365 공덕점,셀프빨래방,마포구,공덕동,37.5490767,126.9596108
감성빨래방,셀프빨래방,마포구,상암동,37.5768849,126.8961548
마포구청 스타셀프빨래방,셀프빨래방,마포구,성산2동,37.564232,126.9037055
크린업24 마포대흥점,셀프빨래방,마포구,대흥동,37.5484479,126.9411041
크린업24 성산점,셀프빨래방,마포구,성산1동,37.564204,126.915682
24시간빨래하는날,셀프빨래방,마포구,연남동,37.5630927,126.9181589
더런드리 연남점,셀프빨래방,마포구,연남동,37.5643706,126.9180179
런드리익스프레스샵 연남점,셀프빨래방,마포구,연남동,37.5636252,126.9243548
크린토피아 코인워시365 마포건영월드컵점,셀프빨래방,마포구,성산2동,37.5680838,126.9124042
크린토피아 코인워시 합정역점,셀프빨래방,마포구,합정동,37.5465038,126.9130667
원더런드리,셀프빨래방,마포구,공덕동,37.5575861,126.9606911
런드리익스프레스샵 신촌점,셀프빨래방,마포구,서교동,37.554569,126.9336117
몬투노샵,셀프빨래방,마포구,대흥동,37.5549479,126.9379781
크린토피아 코인워시 마포아현초교점,셀프빨래방,마포구,아현동,37.5559403,126.9548075
아쿠아워시 24시 셀프빨래방 아현점,셀프빨래방,마포구,아현동,37.5527458,126.9528639
런드리24 합정해링턴점,셀프빨래방,마포구,서교동,37.5508138,126.916494
워시엔조이 마포연남점,셀프빨래방,마포구,연남동,37.5610343,126.9199526
호스텔클레오 코인런드리,셀프빨래방,마포구,서교동,37.5613828,126.9266646
24시셀프빨래방 상수역점,셀프빨래방,마포구,서강동,37.5459462,126.9231041
워시피플 마포구홍대점,셀프빨래방,마포구,서강동,37.5530711,126.9272691
버블맨24 홍대점,셀프빨래방,마포구,서강동,37.5544795,126.9302525
경의선 빨래방,셀프빨래방,마포구,서교동,37.5547591,126.9314807
빨래살롱,셀프빨래방,마포구,서교동,37.5536943,126.9142647
화이트365 홍대입구역점,셀프빨래방,마포구,서교동,37.5569002,126.9226192
이지워시셀프빨래방 상암점,셀프빨래방,마포구,상암동,37.5748583,126.8953856
런드리24 펭귄하우스 마포성산점,셀프빨래방,마포구,성산1동,37.5588788,126.9163414
버블맨24 마포서교점,셀프빨래방,마포구,성산1동,37.5588788,126.9163414
뽀송빨래방,셀프빨래방,마포구,신수동,37.5450075,126.9353094
크린토피아 코인워시 홈플러스EX마포용강점,셀프빨래방,마포구,용강동,37.5410713,126.9412851
코인워시24 만리동점,셀프빨래방,마포구,공덕동,37.5529761,126.9613037
크린토피아 코인워시 만리한겨레점,셀프빨래방,마포구,공덕동,37.5479361,126.9607398
24시셀프빨래방 만리점,셀프빨래방,마포구,공덕동,37.5487411,126.9635607
워시큐 망원점,셀프빨래방,마포구,망원1동,37.5525734,126.9045638
우리동네빨래방,셀프빨래방,마포구,망원1동,37.5561992,126.9039166
크린토피아 코인워시 남가좌현대점,셀프빨래방,서대문구,남가좌2동,37.5760115,126.9208234
크린토피아 코인워시 남가좌파크뷰자이점,셀프빨래방,서대문구,남가좌1동,37.574402,126.9179078
코인워시24 북가좌점,셀프빨래방,서대문구,북가좌2동,37.5770955,126.9109727
코인워시24빨래터 서대문역점,셀프빨래방,서대문구,충현동,37.5657405,126.9646557
코인셀프빨래방,셀프빨래방,서대문구,충현동,37.5643103,126.9601713
셀빨래방 독립문점,셀프빨래방,서대문구,천연동,37.5684456,126.961683
화이트365 서대문역점,셀프빨래방,서대문구,천연동,37.5668277,126.9639753
워시팡팡 셀프빨래방 명지대점,셀프빨래방,서대문구,남가좌2동,37.5821547,126.9238834
코인워시 24빨래터 명지대점,셀프빨래방,서대문구,홍은2동,37.5816119,126.9247916
워시큐셀프빨래방 명지대점,셀프빨래방,서대문구,남가좌2동,37.5836956,126.9233825
AMPM워시큐 명지대점,셀프빨래방,서대문구,남가좌2동,37.5836956,126.9233825
더런드리 DMC점,셀프빨래방,서대문구,남가좌1동,37.5699013,126.9178357
코인워시24빨래터 북아현점,셀프빨래방,서대문구,충현동,37.5641865,126.9538154
런드리24펭귄하우스 아현점,셀프빨래방,서대문구,북아현동,37.5580681,126.9513991
워시스토리셀프빨래방 연희연세대점,세탁소,서대문구,연희동,37.563121,126.9312236
코인워시24 상명대점,셀프빨래방,서대문구,홍제3동,37.5968772,126.9493252
아쿠아워시 24시 셀프빨래방 홍제점,셀프빨래방,서대문구,홍제3동,37.5918297,126.946262
워시엔조이 홍대역점,셀프빨래방,서대문구,신촌동,37.5590628,126.9284147
크린토피아 코인워시 북아현이편한세상신촌점,셀프빨래방,서대문구,북아현동,37.5576747,126.9529582
크린업24 창천점,셀프빨래방,서대문구,신촌동,37.5573689,126.9392762
버블맨24 신촌역점,셀프빨래방,서대문구,신촌동,37.5577101,126.9422991
화이트365 신촌점,셀프빨래방,서대문구,신촌동,37.558297,126.9394785
런드리데이 신촌점,셀프빨래방,서대문구,신촌동,37.5584008,126.9338351
이지워시셀프빨래방 홍은정원단지점,셀프빨래방,서대문구,홍은2동,37.5866276,126.9346617
워시큐 연희브라운스톤점,셀프빨래방,서대문구,연희동,37.5652133,126.9302076
화이트365 연희점,셀프빨래방,서대문구,연희동,37.5663532,126.9309751
세탁풍경 연희점,셀프빨래방,서대문구,연희동,37.5667634,126.9321058
워시프렌즈 셀프빨래방 연희점,셀프빨래방,서대문구,연희동,37.5693976,126.9321874
코인워시24빨래터 연희점,셀프빨래방,서대문구,연희동,37.5617072,126.9279347
크린업24 북가좌점,셀프빨래방,서대문구,북가좌2동,37.5850892,126.9143999
AMPM 워시큐 이대점,셀프빨래방,서대문구,신촌동,37.557358,126.9441565
런드리익스프레스샵 이대점,셀프빨래방,서대문구,신촌동,37.558131,126.9437627
런드리24 펭귄하우스 이대1호점,셀프빨래방,서대문구,신촌동,37.558131,126.9437627
크린토피아 코인워시365 남가좌래미안1차점,셀프빨래방,서대문구,북가좌2동,37.5799749,126.9159072
워시엔조이 연희점,셀프빨래방,서대문구,연희동,37.5702694,126.9305364
화이트365 명지대점,셀프빨래방,서대문구,남가좌2동,37.5791275,126.9252836
크린토피아 코인워시365 롯데수퍼홍제점,셀프빨래방,서대문구,홍제1동,37.5851683,126.9473981
이지워시 셀프빨래방 홍제점,셀프빨래방,서대문구,홍제1동,37.5876881,126.9444053
크린토피아 코인워시 포방시장점,셀프빨래방,서대문구,홍은1동,37.6005712,126.9491333
이지워시셀프빨래방 홍은점,셀프빨래방,서대문구,홍은1동,37.5990018,126.9446543
런드리24 펭귄랜덤하우스코리아,셀프빨래방,서초구,서초2동,37.4959829,127.0280101
워시엔조이 셀프빨래방 신사잠원점,셀프빨래방,서초구,잠원동,37.5172524,127.0180857
크린토피아 코인워시 반포언구비점,셀프빨래방,서초구,반포1동,37.5048308,127.0206501
셀빨래방 잠원점,셀프빨래방,서초구,잠원동,37.513828,127.0163293
셀프빨래터 방배점,셀프빨래방,서초구,방배본동,37.4913354,126.9863353
화이트365 방배점,셀프빨래방,서초구,방배본동,37.4938492,126.9854329
워시프렌즈 서초우면점,셀프빨래방,서초구,양재1동,37.4685941,127.0275071
워시엔조이 셀프빨래방 서초사랑점,셀프빨래방,서초구,서초3동,37.4896931,127.0076047
셀빨래방 방배점,셀프빨래방,서초구,방배1동,37.4855469,126.9966041
에코런드렛빨래방&amp;아이스크림 방배점,셀프빨래방,서초구,방배1동,37.4842598,126.9916402
위니아24크린샵 방배2호점,셀프빨래방,서초구,방배본동,37.4940268,126.9839603
워시피플 셀프빨래방 서초구 서초우면양재점,세탁소,서초구,서초3동,37.4931705,127.008038
워시프렌즈 셀프빨래방 서초1동점,셀프빨래방,서초구,서초1동,37.4905455,127.0212392
더런드리 강남반포점,셀프빨래방,서초구,반포1동,37.5081033,127.0197562
위워시 반포점,셀프빨래방,서초구,반포1동,37.506605,127.0212232
빨래터빨래방 신논현점,셀프빨래방,서초구,서초4동,37.5035142,127.023276
크린토피아 코인워시 서초푸르지오써밋점,셀프빨래방,서초구,서초4동,37.5015196,127.0217535
워시엔조이 방배점,셀프빨래방,서초구,방배4동,37.4921878,126.9900273
크린토피아 코인워시 서울교대점,셀프빨래방,서초구,서초1동,37.4935094,127.0186785
크린토피아 코인워시 반포미도점,셀프빨래방,서초구,반포4동,37.5006953,127.0104311
자탁소셀프빨래방 잠원점,셀프빨래방,서초구,잠원동,37.5112224,127.017286
크린토피아 코인워시 잠원본점,셀프빨래방,서초구,잠원동,37.5119361,127.0185027
런드리힐 셀프빨래방,셀프빨래방,서초구,양재1동,37.4597249,127.0244643
크린업24 반포점,셀프빨래방,서초구,반포1동,37.5060257,127.0208803
워시엔조이 반포점,셀프빨래방,서초구,반포1동,37.5094284,127.018684
코인워시24셀프빨래방,셀프빨래방,서초구,양재1동,37.4611529,127.0256508
다온런드리셀프빨래방24,셀프빨래방,서초구,서초2동,37.4893134,127.029944
더화이트 송정점,셀프빨래방,성동구,송정동,37.5506345,127.0671769
에코런드렛셀프빨래방&amp;아이스크림 신금호역점,셀프빨래방,성동구,금호2.3가동,37.5550456,127.0196502
크린토피아 코인워시 서울숲힐스테이트점,셀프빨래방,성동구,성수1가1동,37.5411138,127.0506252
코인워시24 한양대점,셀프빨래방,성동구,사근동,37.5611772,127.0402231
크린토피아 코인워시 왕십리역점,셀프빨래방,성동구,사근동,37.561431,127.0410405
크린토피아 코인워시 왕십리텐즈힐점,셀프빨래방,성동구,왕십리도선동,37.5691642,127.0263479
셀프빨래방워시쿱 홍익점,셀프빨래방,성동구,왕십리도선동,37.5654172,127.0309472
24시셀프빨래방 행당점,셀프빨래방,성동구,왕십리2동,37.5610978,127.0302788
화이트365 하왕십리점,셀프빨래방,성동구,왕십리2동,37.5605573,127.0292832
런드리익스프레스샵 한양여대점,셀프빨래방,성동구,사근동,37.5610607,127.0475318
화이트365 사근점,셀프빨래방,성동구,사근동,37.5611097,127.0477285
블루워시 성수점,셀프빨래방,성동구,성수1가2동,37.5491362,127.0482072
셀피아 서울성수동점,셀프빨래방,성동구,성수2가1동,37.5375487,127.0551975
런드리24 펭귄하우스 성수성덕정길점,셀프빨래방,성동구,성수2가1동,37.5367898,127.0561894
우리셀프빨래방,"서비스,산업",성동구,성수2가1동,37.5413684,127.055611
더화이트셀프빨래방 성수동본점,셀프빨래방,성동구,성수1가2동,37.5494959,127.0498269
크린토피아 코인워시365 왕십리센트라스점,셀프빨래방,성동구,왕십리도선동,37.5666029,127.0240825
워시하우스 왕십리점,셀프빨래방,성동구,왕십리도선동,37.5666029,127.0240825
런드리24 아크로서울포레스트점,셀프빨래방,성동구,성수1가1동,37.5441547,127.0433578
크린토피아 코인워시 왕십리홍익점,셀프빨래방,성동구,왕십리도선동,37.5654967,127.0356023
위워시 왕십리점,셀프빨래방,성동구,왕십리도선동,37.564434,127.0342463
우리셀프빨래방협동조합 용답점,셀프빨래방,성동구,용답동,37.5630783,127.0535882
AMPM워시큐 답십리점,셀프빨래방,성동구,용답동,37.5662759,127.0523809
코인워시24 셀프빨래방 용답점,셀프빨래방,성동구,용답동,37.5649036,127.052308
금호셀프빨래방,셀프빨래방,성동구,금호4가동,37.5480851,127.0187753
AMPM워시큐 장한평역점,셀프빨래방,성동구,용답동,37.5609927,127.0651008
런드리24 펭귄하우스 성동점,셀프빨래방,성동구,행당1동,37.5612456,127.0342104
화이트365 안암점,셀프빨래방,성북구,안암동,37.5861209,127.0300528
스토리셀프빨래방,셀프빨래방,성북구,보문동,37.5843732,127.0208558
워시프렌즈 셀프빨래방 성신여대점,셀프빨래방,성북구,삼선동,37.588851,127.0181074
워시팡팡 셀프빨래방24시 안암점,셀프빨래방,성북구,안암동,37.5848811,127.0216545
크린토피아 코인워시 길음래미안점,셀프빨래방,성북구,길음1동,37.6047525,127.0230211
워시콥셀프빨래방석관동얼음왕국,셀프빨래방,성북구,석관동,37.6110143,127.0619897
더런드리 꿈의숲,셀프빨래방,성북구,장위1동,37.6186689,127.0445071
크린토피아 코인워시 돈암초교점,셀프빨래방,성북구,성북동,37.5926759,127.0122857
워시프렌즈 셀프빨래방 동소문동점,셀프빨래방,성북구,성북동,37.5921283,127.0128115
워시타임 성신여대입구역점,셀프빨래방,성북구,동선동,37.5957586,127.0169658
크린토피아 코인워시 정릉청수점,셀프빨래방,성북구,정릉4동,37.617021,127.0023565
크린토피아 코인워시 서경대점,셀프빨래방,성북구,정릉4동,37.6114628,127.009529
워시엔조이 보문점,셀프빨래방,성북구,보문동,37.5817174,127.0205752
코인워시24 성신여대점,셀프빨래방,성북구,동선동,37.5893654,127.0206494
코인와시24 KCLA성신여대,셀프빨래방,성북구,동선동,37.5893654,127.0206494
크린토피아 코인워시365 성신여대점,셀프빨래방,성북구,동선동,37.5894146,127.0203258
코인워시365 성북구청점,셀프빨래방,성북구,삼선동,37.588235,127.0154408
셀피아 성북돈암점,셀프빨래방,성북구,동선동,37.5936076,127.0200404
화이트365 성신여대점,셀프빨래방,성북구,동선동,37.5917687,127.019748
코런셀프빨래방 한성대점,셀프빨래방,성북구,삼선동,37.589844,127.0127563
BTAL셀프빨래방,셀프빨래방,성북구,정릉2동,37.5997012,127.0094456
비탈셀프빨래방,셀프빨래방,성북구,정릉2동,37.5997012,127.0094456
덱스터 종암점,셀프빨래방,성북구,종암동,37.593712,127.0344549
셀프빨래방24시 한성대점,셀프빨래방,성북구,삼선동,37.5863354,127.0094068
코인워시24빨래터 서경대점,셀프빨래방,성북구,정릉4동,37.6120427,127.013505
크린업24 정릉점,셀프빨래방,성북구,정릉4동,37.6137802,127.0098463
덱스터셀프빨래방 국민대점,셀프빨래방,성북구,정릉3동,37.6091209,127.0078558
린드리나인셀프빨래방 하월곡점,셀프빨래방,성북구,월곡1동,37.6050779,127.0369607
런드리나인 셀프빨래방 하월곡점,셀프빨래방,성북구,월곡2동,37.6055154,127.037226
크린토피아 코인워시 성북장위루첸점,셀프빨래방,성북구,장위3동,37.6214311,127.0463095
크린토피아 코인워시365 성북종암동점,셀프빨래방,성북구,종암동,37.5974931,127.0394692
화이트365 동덕여대점,셀프빨래방,성북구,월곡2동,37.6057759,127.0445287
크린업24 동덕여대점,셀프빨래방,성북구,월곡2동,37.605513,127.0438354
동네방네빨래방 장위1호점,셀프빨래방,성북구,장위1동,37.6140903,127.0414302
크린업24 장위점,셀프빨래방,성북구,장위1동,37.6137995,127.0448044
화이트운동화빨래방,셀프빨래방,성북구,장위1동,37.6137707,127.0462574
워시피플 셀프빨래방 성북구 장위월곡점,세탁소,성북구,장위1동,37.6162013,127.0432379
이지워시 셀프빨래방 장위점,셀프빨래방,성북구,장위1동,37.6146164,127.0451212
자작나무숲24시셀프빨래방,셀프빨래방,성북구,정릉3동,37.6050608,126.9985801
화이트365 정릉역점,셀프빨래방,성북구,정릉2동,37.6026648,127.0120697
에코클린24셀프빨래방 정릉점,셀프빨래방,성북구,정릉2동,37.6053139,127.0132214
24시 셀프빨래방 종암동,세탁소,성북구,종암동,37.601909,127.0335507
종암24시셀프빨래방,셀프빨래방,성북구,종암동,37.5978501,127.0323197
위니아24크린샵 종암점,셀프빨래방,성북구,종암동,37.5940927,127.0342872
크린업24 종암고대점,셀프빨래방,성북구,종암동,37.5941063,127.0338568
워시맨 보문점,셀프빨래방,성북구,보문동,37.5843197,127.0191636
워시팡팡셀프빨래방 하월곡점,셀프빨래방,성북구,월곡1동,37.6046287,127.033278
런드리존 종암베로니스점,셀프빨래방,성북구,월곡1동,37.6034545,127.0334229
워시테리아 석관점,셀프빨래방,성북구,석관동,37.607208,127.0511629
런드리데이,셀프빨래방,성북구,석관동,37.6092589,127.0563925
빨래하는날,셀프빨래방,성북구,석관동,37.6092589,127.0563925
셀빨래방 오금점,셀프빨래방,송파구,오금동,37.4997915,127.1372233
오금동셀프빨래방,셀프빨래방,송파구,오금동,37.5052324,127.1336582
워시피플 셀프빨래방 송파오금동점,셀프빨래방,송파구,오금동,37.5026858,127.1388139
문정동빨래방,셀프빨래방,송파구,문정1동,37.4875586,127.1241944
동전빨래방,셀프빨래방,송파구,잠실본동,37.5052085,127.0828563
잠실24시셀프빨래방,셀프빨래방,송파구,삼전동,37.505691,127.0937596
워시엔조이 셀프빨래방 석촌점,셀프빨래방,송파구,석촌동,37.5013996,127.0988799
더런드리셀프빨래방 송파동점,셀프빨래방,송파구,송파1동,37.5039712,127.1114248
워시팡팡 셀프빨래방 24시 송파점,셀프빨래방,송파구,송파1동,37.5075299,127.1136474
더런드리셀프빨래방 방이점,셀프빨래방,송파구,방이2동,37.510331,127.1170047
워시프렌즈 송파구문정동점,셀프빨래방,송파구,문정2동,37.4826158,127.1228264
화이트24셀프빨래방 문정점,셀프빨래방,송파구,문정2동,37.4829139,127.1218733
이지워시 셀프빨래방 문정점,셀프빨래방,송파구,문정2동,37.4822689,127.1221036
워시팡팡셀프빨래방24시 삼전점,셀프빨래방,송파구,삼전동,37.5014184,127.0962019
버블맨24셀프빨래방,셀프빨래방,송파구,문정2동,37.4807918,127.1208423
프레시런드리 24 셀프빨래방,셀프빨래방,송파구,문정2동,37.4807918,127.1208423
새마을빨래방,셀프빨래방,송파구,잠실본동,37.5086907,127.0835954
버블존 24시코인워시빨래방,셀프빨래방,송파구,석촌동,37.5053571,127.1012751
에코런드렛 셀프빨래방&amp;아이스크림,셀프빨래방,송파구,가락본동,37.4961402,127.1211482
코인워시24셀프빨래방 방이1동점,셀프빨래방,송파구,방이1동,37.507707,127.1223366
24시 셀프빨래방 풍납점,셀프빨래방,송파구,풍납2동,37.5333975,127.11713
셀프24시빨래방,셀프빨래방,송파구,가락2동,37.4956387,127.126046
워시피플셀프빨래방 송파풍납동점,셀프빨래방,송파구,풍납2동,37.5308871,127.1128286
코인워시셀프존 신월점,셀프빨래방,양천구,신월1동,37.5299151,126.8339338
워시팡팡무인셀프빨래방 신월점,셀프빨래방,양천구,신월1동,37.5316558,126.8338744
워시피플 셀프빨래방 관악 봉천 은천점,세탁소,양천구,신정4동,37.5282416,126.8620448
워시피플셀프빨래방 신월사거리점,셀프빨래방,양천구,신월3동,37.5336142,126.8270195
24시 셀프빨래방,세탁소,양천구,신월1동,37.5322742,126.8326576
코런24시셀프빨래방,셀프빨래방,양천구,목3동,37.5427305,126.8631374
백의민족 셀프빨래방 신정점,셀프빨래방,양천구,신정7동,37.507492,126.8645577
양천목동 빨래방(파리공원)워시프렌즈,셀프빨래방,양천구,목5동,37.5318082,126.8756617
화이트24셀프빨래방,셀프빨래방,양천구,목4동,37.5359152,126.8682359
화이트 24시 셀프빨래방 목동점,셀프빨래방,양천구,목4동,37.5359152,126.8682359
워시프렌즈 양천구목4동점,셀프빨래방,양천구,목4동,37.5391036,126.8696592
더런드리셀프빨래방 목동점,셀프빨래방,양천구,목2동,37.5418163,126.8689593
셀빨래방 신정점,셀프빨래방,양천구,신정2동,37.5180402,126.8726221
덱스터24시셀프빨래방 신정점,셀프빨래방,양천구,신정4동,37.5272525,126.8605163
워시프렌즈 셀프빨래방 신정목동점,셀프빨래방,양천구,신정4동,37.5251779,126.8562082
아쿠아워시셀프빨래방 신월신정점,셀프빨래방,양천구,신월4동,37.5211016,126.8400954
솔이네셀프빨래방 신월신정점,셀프빨래방,양천구,신월2동,37.5252723,126.8433975
셀프빨래방 스피드워시24 신정점,셀프빨래방,양천구,신정4동,37.5247571,126.8592816
워시프렌즈셀프빨래방 신정역점,셀프빨래방,양천구,신정4동,37.5248079,126.8508031
워시프렌즈 셀프빨래방 신정점,셀프빨래방,양천구,신정1동,37.5204658,126.8609641
빨리셀프크리닝 신월7동점,셀프빨래방,양천구,신월7동,37.5207623,126.8343086
셀프드라이크리닝 신월점,셀프빨래방,양천구,신월7동,37.5192138,126.8370086
워시쿱셀프프빨래방 신월동점,셀프빨래방,양천구,신월7동,37.5211735,126.8328161
코인365셀프빨래방 신월점,셀프빨래방,양천구,신월5동,37.5404729,126.8269239
워시타임 여의도점,셀프빨래방,영등포구,여의동,37.5213527,126.9373261
에코런드렛 셀프빨래방 영등포점,셀프빨래방,영등포구,영등포동,37.5176921,126.9126477
워시팡팡무인셀프빨래방 신길역점,셀프빨래방,영등포구,영등포동,37.5177407,126.9134607
워시엔조이 셀프빨래방 당산2동점,셀프빨래방,영등포구,당산2동,37.5278925,126.899677
워시앤드라이 당산점,셀프빨래방,영등포구,당산2동,37.5276769,126.9065475
코인빨래방,셀프빨래방,영등포구,영등포동,37.5235908,126.9098437
워시피플 셀프빨래방 당산역점,셀프빨래방,영등포구,당산2동,37.5323543,126.8999007
워시큐 빨래방 당산역점,셀프빨래방,영등포구,당산2동,37.53294,126.9051262
이지셀프빨래방,셀프빨래방,영등포구,신길6동,37.4987893,126.917808
워시프렌즈 셀프빨래방 신길삼거리점,셀프빨래방,영등포구,신길1동,37.5136802,126.9187163
더 런드리 셀프 빨래방 도림동점,셀프빨래방,영등포구,도림동,37.5072412,126.898737
호텔런드리셀프빨래방,셀프빨래방,영등포구,신길1동,37.511206,126.9169112
셀프 코인 빨래방,셀프빨래방,영등포구,도림동,37.5100201,126.897799
에코런드렛 빨래방&amp;아이스크림까페 당산직영점,셀프빨래방,영등포구,당산2동,37.5296307,126.9072003
셀프빨래방 양평동점,셀프빨래방,영등포구,양평1동,37.5220934,126.8844551
크린워시24셀프빨래방 신길점,셀프빨래방,영등포구,신길1동,37.5126426,126.9222195
셀빨래방 당산점,셀프빨래방,영등포구,당산1동,37.5234518,126.8982341
워시프렌즈셀프빨래방 양평동점,셀프빨래방,영등포구,양평1동,37.5248985,126.8833325
뽀송한빨래방,셀프빨래방,영등포구,영등포본동,37.5167625,126.9146045
셀빨래방 신길점,셀프빨래방,영등포구,신길1동,37.5141609,126.9212659
스플래쉬파티 이태원점,셀프빨래방,용산구,이태원2동,37.5375158,126.9889833
24시셀프빨래방플러스 한남점,셀프빨래방,용산구,한남동,37.5315959,127.0070001
더화이트셀프빨래방 원효로점,셀프빨래방,용산구,원효로1동,37.5379387,126.9679734
런드리24 용산트리스퀘어점,셀프빨래방,용산구,한강로동,37.5358259,126.9716393
런드리24 헤링턴스퀘어점,셀프빨래방,용산구,한강로동,37.5269056,126.9665662
해피런드리데이,셀프빨래방,용산구,용산2가동,37.5446001,126.9826302
화이트365 이태원해방촌점,셀프빨래방,용산구,용산2가동,37.5428043,126.9874553
크린토피아 코인워시365 용산해방촌점,셀프빨래방,용산구,용산2가동,37.5434818,126.9880358
워시피플 후암동108계단점,셀프빨래방,용산구,후암동,37.5464728,126.9820331
크린토피아 코인워시365 이태원보광점,셀프빨래방,용산구,보광동,37.5307956,126.9968811
크린토피아 코인워시365 용문시장점,셀프빨래방,용산구,용문동,37.5375828,126.9619029
코인워시24빨래터 숙대점,셀프빨래방,용산구,원효로1동,37.5407218,126.9686798
루미니빨래방,셀프빨래방,용산구,원효로1동,37.5414179,126.9693725
워시엔조이 용산남영점,셀프빨래방,용산구,원효로1동,37.5418376,126.969303
크린토피아 코인워시365 이촌2동점,셀프빨래방,용산구,이촌2동,37.5259425,126.9548122
셀프빨래방 보광점,셀프빨래방,용산구,보광동,37.5260917,126.9974961
화이트365 숙대입구역점,셀프빨래방,용산구,청파동,37.544214,126.9677761
24시동전빨래방,셀프빨래방,용산구,청파동,37.5529397,126.9661022
펭귄하우스 용산트럼프월드점,셀프빨래방,용산구,한강로동,37.523147,126.9629433
워시프레시 신용산점,셀프빨래방,용산구,한강로동,37.5270405,126.9648922
런드리24 펭귄하우스 래미안용산점,셀프빨래방,용산구,한강로동,37.5288174,126.9666538
셀프빨래방 후암점,셀프빨래방,용산구,후암동,37.5504232,126.9767077
런드리24 의식주테크랩,셀프빨래방,용산구,한강로동,37.5262304,126.9636531
우리동네휴빨래방,셀프빨래방,용산구,남영동,37.5475599,126.972387
AMPM워시큐 셀프빨래방 이태원점,셀프빨래방,용산구,이태원2동,37.5398403,126.989385
워시엔조이 경리단길점,셀프빨래방,용산구,이태원2동,37.5394171,126.9915476
런드리24 펭귄하우스 용산산천점,셀프빨래방,용산구,원효로2동,37.5344473,126.9516903
워시앤클린 용산점,셀프빨래방,용산구,원효로2동,37.5354782,126.9534744
24시셀프빨래방 성심여고점,셀프빨래방,용산구,원효로2동,37.5338018,126.9527318
런드리플러스,셀프빨래방,용산구,효창동,37.5411305,126.9624851
탑워시케어 셀프빨래방 후암동점,셀프빨래방,용산구,후암동,37.5491823,126.9799555
워시피플,셀프빨래방,은평구,응암3동,37.5859133,126.9192107
워시타임셀프빨래방 갈현점,셀프빨래방,은평구,갈현2동,37.6142772,126.9115264
크린토피아 코인365 셀프 빨래방 은평갈현동점,셀프빨래방,은평구,갈현2동,37.6170843,126.9128798
셀피아 은평녹번점,셀프빨래방,은평구,녹번동,37.6063059,126.9306436
워시프렌즈 24시셀프빨래방 응암백련산점,셀프빨래방,은평구,응암1동,37.5972504,126.92415
셀프24시 무인빨래방,세탁소,은평구,불광1동,37.6167358,126.9328221
워시피플셀프빨래방 불광동점,셀프빨래방,은평구,불광1동,37.6150687,126.9330007
마마운동화 이불빨래방 불광점,셀프빨래방,은평구,불광1동,37.6153803,126.9326701
워시엔조이 녹번동점,셀프빨래방,은평구,녹번동,37.603306,126.9248118
워시팡팡무인셀프빨래방 대조점,셀프빨래방,은평구,대조동,37.6108598,126.9206898
워시타임셀프빨래방,셀프빨래방,은평구,불광2동,37.6220977,126.9270989
셀프빨래방 불광점,셀프빨래방,은평구,불광2동,37.6220977,126.9270989
SH동그라미빨래방,셀프빨래방,은평구,불광2동,37.624791,126.9284037
워시앤케어 24시셀프빨래방 은평구산점,셀프빨래방,은평구,구산동,37.6097771,126.9124848
워시프렌즈 서울갈현동점,셀프빨래방,은평구,갈현2동,37.6126498,126.91615
코런셀프빨래방 갈현점,셀프빨래방,은평구,갈현2동,37.6153654,126.9172261
화이트365 녹번역점,셀프빨래방,은평구,응암1동,37.6011337,126.9299999
워시맨,셀프빨래방,은평구,응암1동,37.5997523,126.9228116
퀴클린24셀프빨래방,셀프빨래방,은평구,응암1동,37.6002681,126.9256813
화이트365 셀프빨래방 응암점,셀프빨래방,은평구,응암1동,37.5985453,126.919792
더런드리 응암점,셀프빨래방,은평구,응암1동,37.5976796,126.9206222
24시셀프빨래터 응암3호점,셀프빨래방,은평구,응암3동,37.5871281,126.9193639
워시엔조이 은평응암점,셀프빨래방,은평구,응암2동,37.5899411,126.9195147
크린토피아 코인워시 응암점,셀프빨래방,은평구,응암3동,37.5947874,126.9174374
코인워시24 응암점,셀프빨래방,은평구,응암3동,37.5950601,126.9176228
버블맨24 응암점,셀프빨래방,은평구,응암2동,37.5959776,126.9216903
신사워시24시셀프빨래방,셀프빨래방,은평구,증산동,37.5889477,126.9113472
셀프빨래방 워시피플 구파발역점,셀프빨래방,은평구,진관동,37.6397529,126.9199455
더런드리셀프빨래방,셀프빨래방,은평구,역촌동,37.6020382,126.9188082
에코런드렛빨래방앤아이스크림은 평진관동점,셀프빨래방,은평구,진관동,37.6333644,126.9178522
에코런드렛빨래방&amp;아이스크림 은평진관동점,셀프빨래방,은평구,진관동,37.6333644,126.9178522
워시프레쉬 셀프빨래방 은평점,셀프빨래방,은평구,대조동,37.6147054,126.9220434
워시피플 셀프빨래방 은평연신내역점,셀프빨래방,은평구,불광2동,37.6215792,126.9203697
스웨덴 런드리 운종가,셀프빨래방,종로구,숭인2동,37.5727419,127.0224194
런드리24 펭귄하우스 숭인점,셀프빨래방,종로구,숭인2동,37.574592,127.0223775
성대후문점런드리 익스프레스샵,셀프빨래방,종로구,혜화동,37.5889091,126.9951729
화이트365 성대점,셀프빨래방,종로구,혜화동,37.5886179,126.9951625
코인워시24 광화문점,셀프빨래방,종로구,사직동,37.5748205,126.9705761
크린업24 경복궁역점,셀프빨래방,종로구,사직동,37.5726308,126.9724408
코인워시24 셀프빨래방 성균관대점,셀프빨래방,종로구,혜화동,37.5863624,126.9969187
런드리익스프레스샵 성대정문점,셀프빨래방,종로구,혜화동,37.5842766,126.9968838
이지워시 교남점,셀프빨래방,종로구,교남동,37.5717267,126.9616255
빨래터,셀프빨래방,종로구,종로5.6가동,37.5748096,127.0039553
런드리투데이 광화문,셀프빨래방,종로구,종로1.2.3.4가동,37.5708445,126.9799237
위니아24크린샵 숭인점,셀프빨래방,종로구,숭인2동,37.5724078,127.0164417
AMPM워시큐 신영점,셀프빨래방,종로구,부암동,37.6062314,126.9608977
코인워시24빨래터 창신점,셀프빨래방,종로구,창신2동,37.5737579,127.0104533
크린토피아 코인워시365 독립문현대점,셀프빨래방,종로구,무악동,37.5743447,126.9591031
셀프빨래방24 경복궁점,셀프빨래방,종로구,사직동,37.5771635,126.9694373
AMPM워시큐 누하점,셀프빨래방,종로구,청운효자동,37.5787555,126.969113
워시프렌즈 서울혜화점,셀프빨래방,종로구,혜화동,37.5874357,127.0004599
AMPM워시큐 청계블루,셀프빨래방,중구,황학동,37.5702952,127.0220917
크린토피아 코인워시365 신당6동점,셀프빨래방,중구,동화동,37.5624239,127.0172987
화이트365 신당역점,셀프빨래방,중구,신당동,37.5668676,127.0171229
워시프렌즈 장충동국대점,셀프빨래방,중구,장충동,37.5587198,127.0022129
크린토피아 코인워시 신당약수점,셀프빨래방,중구,약수동,37.5540448,127.0118368
코인워시24시빨래터 서부역점,셀프빨래방,중구,중림동,37.556273,126.966883
마이리틀빨래방,셀프빨래방,중구,필동,37.5613263,126.9985982
워시프렌즈 셀프빨래방 신당상왕십리점,셀프빨래방,중구,신당5동,37.56478,127.02471
워시엔조이 황학동점,셀프빨래방,중구,황학동,37.5705244,127.0186906
런드리나인 브라운스톤 서울역점,셀프빨래방,중구,중림동,37.5608188,126.9682259
화이트365 신당점,셀프빨래방,중구,동화동,37.5613847,127.0180287
에코런드렛 빨래방 신당점,셀프빨래방,중구,신당5동,37.5650659,127.0224529
워시앤드라이 코인워시,셀프빨래방,중랑구,면목2동,37.5866718,127.0785794
워시쿱 셀프빨래방 면목점,셀프빨래방,중랑구,면목2동,37.5882413,127.0814964
24셀프빨래방 면목점,셀프빨래방,중랑구,면목본동,37.5885134,127.091945
워시엔조이 셀프빨래방 면목4동점,셀프빨래방,중랑구,면목4동,37.5760624,127.0808229
버블클린,셀프빨래방,중랑구,면목2동,37.5889564,127.0768358
워시쿱 태릉시장점,셀프빨래방,중랑구,중화2동,37.5988388,127.0755942
셀프24시빨래방 워시쿱중화점,셀프빨래방,중랑구,중화1동,37.5997682,127.0822468
워시앤조이셀프빨래방 중랑중화점,세탁소,중랑구,중화1동,37.6043695,127.0799654
워시엔조이 면목5동점,셀프빨래방,중랑구,면목5동,37.584116,127.0814042
셀빨래방 면목용마산점,셀프빨래방,중랑구,면목4동,37.5724537,127.0843301
런드리데이 면목동점셀프빨래방얼음왕국,세탁소,중랑구,면목4동,37.5745241,127.0817205
화이트365 사가정역점,셀프빨래방,중랑구,면목7동,37.5766282,127.0829928
런드리24 면목근린공원점,셀프빨래방,중랑구,면목제3.8동,37.58306,127.0845269
24시셀프빨래방 상봉역점,셀프빨래방,중랑구,상봉2동,37.5954524,127.0873369
셀프빨래방,세탁소,중랑구,상봉2동,37.5955693,127.0848773
우리동네빨래방 상봉점,셀프빨래방,중랑구,상봉2동,37.5955693,127.0848773
가나안24시셀프빨래방,셀프빨래방,중랑구,면목7동,37.5779459,127.0824243
셀프빨래방 상봉점,셀프빨래방,중랑구,상봉2동,37.5935213,127.0895552
24시 셀프 빨래방,세탁소,중랑구,망우본동,37.5949169,127.0958599
우리셀프빨래방 협동조합 망우점,셀프빨래방,중랑구,망우본동,37.5949169,127.0958599
워시프렌즈 셀프빨래방 중랑구 망우점,셀프빨래방,중랑구,망우본동,37.5966993,127.0974774
중화동빨래방,셀프빨래방,중랑구,중화1동,37.6023495,127.0823138
워시클린 셀프빨래방 중랑구상봉동점,셀프빨래방,중랑구,상봉2동,37.59449,127.0911162
셀프빨래방 중랑하늘점,셀프빨래방,중랑구,묵1동,37.6145997,127.0809575
워시화이트 셀프빨래방 중랑구망우동점,셀프빨래방,중랑구,망우본동,37.6074691,127.1058739
셀빨래방 망우점,셀프빨래방,중랑구,망우3동,37.5942028,127.1010646
워시스토리 서울면목서일대점,셀프빨래방,중랑구,면목제3.8동,37.5858711,127.0952206
워시프렌즈 셀프빨래방 중랑구 신내동점,셀프빨래방,중랑구,신내1동,37.6003142,127.0987882
24시셀프빨래방 묵동점,셀프빨래방,중랑구,묵2동,37.6086758,127.0762107
워쉬앤워쉬 셀프빨래방,셀프빨래방,중랑구,중화2동,37.6005601,127.0781674
런드리나인 중랑점,셀프빨래방,중랑구,면목2동,37.5909648,127.0729566
워시&amp;워시 상봉점,셀프빨래방,중랑구,상봉2동,37.5923129,127.0758556
24시셀프빨래방 중랑점,셀프빨래방,중랑구,상봉2동,37.5929086,127.0780109
