name,type,gu_name,dong_name,latitude,longitude
런드리익스프레스샵 논현점,셀프빨래방,강남구,논현1동,37.5070516,127.0293596
크린토피아 코인워시365 논현역점,셀프빨래방,강남구,논현1동,37.5098222,127.0277507
크린업24 강남논현점,셀프빨래방,강남구,논현1동,37.5099898,127.0258803
워시엔조이 강남논현점,셀프빨래방,강남구,논현1동,37.5102822,127.0239352
크린업24 강남역삼점,셀프빨래방,강남구,역삼1동,37.4970034,127.0298357
24시셀프빨래대장 일원점,셀프빨래방,강남구,일원본동,37.4828994,127.0834454
더런드리 논현점,셀프빨래방,강남구,논현1동,37.5111198,127.0293267
워시엔죠이셀프빨래방 역삼1호점,셀프빨래방,강남구,역삼1동,37.4917309,127.0372698
자탁소셀프빨래방 역삼직영점,셀프빨래방,강남구,역삼2동,37.4936191,127.0424151
빨래터빨래방 역삼점,셀프빨래방,강남구,역삼1동,37.5020995,127.0339263
크린토피아 코인워시365 청담경원점,셀프빨래방,강남구,청담동,37.5235931,127.0450641
워시엔조이 청담점,셀프빨래방,강남구,청담동,37.522158,127.0457381
어반런드렛 청담,셀프빨래방,강남구,청담동,37.5254831,127.0489544
세탁나눔방24시,셀프빨래방,강남구,청담동,37.5264397,127.04968
워시큐셀프빨래방 신논현점,셀프빨래방,강남구,논현1동,37.5057599,127.027426
아쿠아워시 강남언주역점,셀프빨래방,강남구,역삼1동,37.5067636,127.0331066
크린토피아 코인워시 강남언주역점,셀프빨래방,강남구,논현1동,37.5079461,127.0322315
크린토피아 코인워시365 역삼1동점,셀프빨래방,강남구,역삼1동,37.5066527,127.0415582
펭귄에이전시 (penguin agency),셀프빨래방,강남구,삼성2동,37.5137167,127.0486405
위니아24크린샵 삼성점,셀프빨래방,강남구,삼성2동,37.5103691,127.0534108
화이트365 삼성점,셀프빨래방,강남구,삼성2동,37.5118015,127.0465731
코인워시24셀프빨래터 강남대치점,셀프빨래방,강남구,대치4동,37.4988282,127.0533586
아쿠아워시 논현점,셀프빨래방,강남구,논현2동,37.5106397,127.0361861
버블맨24셀프빨래방 언주역점,셀프빨래방,강남구,역삼1동,37.5060377,127.0367484
빨래터빨래방 역삼본점,셀프빨래방,강남구,역삼2동,37.5005674,127.0423818
런드리나인셀프빨래방 일원점,셀프빨래방,강남구,일원1동,37.490887,127.0873361
런드리9 셀프빨래방 일원점,셀프빨래방,강남구,일원1동,37.490887,127.0873361
에코런드렛셀프빨래방 강남자곡동점,셀프빨래방,강남구,세곡동,37.4737132,127.1034188
낭만빨래방 역삼역점,셀프빨래방,강남구,역삼1동,37.4971759,127.0336379
위니아24크린샵 역삼점,셀프빨래방,강남구,역삼1동,37.5049603,127.0396529
워시엔조이 선릉역점,셀프빨래방,강남구,역삼1동,37.5051548,127.0442448
크린토피아 코인워시 선릉역점,셀프빨래방,강남구,역삼1동,37.5056945,127.0462538
런드리존 논현점,셀프빨래방,강남구,논현1동,37.5103819,127.0274448
화이트365 강남논현점,셀프빨래방,강남구,논현2동,37.5114375,127.0330551
화이트365 강남점,셀프빨래방,강남구,논현2동,37.5183238,127.0376459
더런드리 셀프빨래방 암사점,셀프빨래방,강동구,암사1동,37.5532288,127.1300076
셀빨래방 암사동점,셀프빨래방,강동구,암사1동,37.5541113,127.1357689
화이트24셀프빨래방 천호점,셀프빨래방,강동구,천호3동,37.5403805,127.1282011
아쿠아워시 셀프빨래방 명일동점,셀프빨래방,강동구,명일1동,37.5501562,127.1461581
24시셀프빨래방 천호2호점,셀프빨래방,강동구,천호2동,37.5468463,127.1322039
셀빨래방 고덕점,셀프빨래방,강동구,고덕1동,37.5604684,127.1517976
코인워시셀프빨래방 천호길동점,셀프빨래방,강동구,천호1동,37.54792,127.1412891
이지워시 셀프빨래방 명일점,셀프빨래방,강동구,명일2동,37.5486854,127.1542121
셀빨래방 성내점,셀프빨래방,강동구,성내3동,37.5299209,127.1366084
이지워시 셀프빨래방 둔촌점,셀프빨래방,강동구,둔촌2동,37.5326059,127.1393231
워시스토리셀프빨래방 강동성내타운점,셀프빨래방,강동구,성내3동,37.5336301,127.1346185
워시피플셀프빨래방,셀프빨래방,강동구,명일1동,37.5475763,127.1445742
워시엔조이 셀프빨래방 천호역점,셀프빨래방,강동구,천호2동,37.5428092,127.1237211
워시쿱 24시 셀프빨래방 암사점,셀프빨래방,강동구,암사1동,37.5501863,127.1300022
천호동 셀프빨래방 런드리라운지24 천호3동점,셀프빨래방,강동구,천호3동,37.539228,127.1320283
셀빨래방,셀프빨래방,강동구,천호3동,37.542161,127.1376986
워시팡팡무인셀프빨래방 성내점,셀프빨래방,강동구,성내2동,37.5342938,127.1257315
24시셀프빨래방,셀프빨래방,강동구,성내2동,37.5334398,127.1268991
위니아대우24크린샵셀프빨래방 서울둔촌점,셀프빨래방,강동구,둔촌2동,37.5307829,127.1416631
워시쿱셀프빨래방미아점무인아이스크림할인점,식품판매,강북구,송중동,37.6222006,127.0287701
워시팡팡 셀프빨래방,세탁소,강북구,송천동,37.6222035,127.0260022
크린토피아 코인워시 미아역점,셀프빨래방,강북구,미아동,37.6297048,127.0239136
뽀송이 셀프빨래방,세탁소,강북구,우이동,37.6578698,127.0134608
크린업24 미아뉴타운점,셀프빨래방,강북구,삼각산동,37.6185505,127.0188472
화이트365 수유시장점,셀프빨래방,강북구,삼양동,37.6301531,127.022125
크린토피아 코인워시365 수유1동주민센터점,셀프빨래방,강북구,수유1동,37.6300038,127.0169774
화이트365 화계역점,셀프빨래방,강북구,수유1동,37.6326045,127.0153626
화이트365 미아점,셀프빨래방,강북구,미아동,37.6246146,127.0249659
빨래방24시 송천점,셀프빨래방,강북구,송천동,37.6186991,127.0238523
크린업24 길음뉴타운점,셀프빨래방,강북구,송천동,37.6117497,127.0230935
위니아대우24크린샵 미아점,셀프빨래방,강북구,송중동,37.6135321,127.0342565
더런드리 미아점,셀프빨래방,강북구,송중동,37.6146152,127.0348918
런드리나인 셀프빨래방 오패산점,셀프빨래방,강북구,송중동,37.6249469,127.0321441
크린토피아 코인워시365 강북미아해링턴점,셀프빨래방,강북구,송중동,37.616937,127.0346104
워시하우스 미아사거리점,셀프빨래방,강북구,송중동,37.6145884,127.0325606
24시셀프코인빨래방,셀프빨래방,강북구,번3동,37.6271971,127.0399267
스피드퀸,셀프빨래방,강북구,번3동,37.6271971,127.0399267
코런셀프빨래방,셀프빨래방,강서구,화곡1동,37.5340725,126.8417257
AMPM워시큐 셀프빨래방 발산역점,셀프빨래방,강서구,가양1동,37.5618344,126.8388113
워시프렌즈 서울마곡동점,셀프빨래방,강서구,가양1동,37.5655159,126.8400405
에코런드렛 셀프빨래방 화곡동점,셀프빨래방,강서구,화곡8동,37.5357709,126.8489506
브로스셀프빨래방 화곡점,셀프빨래방,강서구,화곡3동,37.5436333,126.8365611
워시팡팡 셀프빨래방발산점,세탁소,강서구,발산1동,37.5530873,126.8326184
에코런드렛 빨래방&amp;아이스크림 화곡4동점,셀프빨래방,강서구,화곡4동,37.5309931,126.8601403
24시셀프빨래방 방화동,셀프빨래방,강서구,방화2동,37.5632082,126.8072819
24시셀프빨래방 화곡점,셀프빨래방,강서구,화곡4동,37.5319853,126.8592546
워시앤디 셀프빨래방 까치산점,셀프빨래방,강서구,화곡1동,37.5306105,126.842514
워시프렌즈 서울까치산점,셀프빨래방,강서구,화곡8동,37.5349549,126.8500332
아인워시 24시셀프빨래방 화곡점,셀프빨래방,강서구,화곡2동,37.5316347,126.8546487
워시팡팡셀프빨래방 남부시장점,셀프빨래방,강서구,화곡4동,37.533809,126.8616585
에코런드렛 셀프빨래방&amp;아이스크림 마곡직영점,셀프빨래방,강서구,가양1동,37.559888,126.8291698
화이트24셀프빨래방 등촌점,셀프빨래방,강서구,등촌1동,37.5556209,126.8591396
우리셀프빨래방협동조합 강서구청점,셀프빨래방,강서구,화곡본동,37.5474583,126.848581
셀빨래방 화곡점,셀프빨래방,강서구,화곡6동,37.5488915,126.8504397
워시타임셀프빨래방 김포공항동점,셀프빨래방,강서구,공항동,37.5539043,126.8144736
백의민족 셀프빨래방 등촌점,셀프빨래방,강서구,등촌2동,37.5455753,126.8613306
화이트24셀프빨래방 마곡나루역점,셀프빨래방,강서구,가양1동,37.5689315,126.8261437
24시셀프빨래방 신이주단지점,셀프빨래방,강서구,공항동,37.5548614,126.8179212
화이트24셀프빨래방 개화산역점,셀프빨래방,강서구,방화2동,37.572303,126.8069941
화이트24셀프빨래방 양천향교역점,셀프빨래방,강서구,가양1동,37.568266,126.8403596
미스터셀프크리닝 방화2점,셀프빨래방,강서구,방화1동,37.5698141,126.8152452
화이트24 셀프빨래방 양천향교점,셀프빨래방,강서구,가양1동,37.5708356,126.8403756
워시프레쉬 화곡점,셀프빨래방,강서구,화곡본동,37.5425889,126.8477588
워시팡팡무인셀프빨래방 화곡본점,셀프빨래방,강서구,화곡8동,37.5387912,126.8478197
아쿠아워시 서울강서화곡동점,셀프빨래방,강서구,화곡6동,37.5545091,126.8520186
이지워시 셀프빨래방 화곡점,셀프빨래방,강서구,화곡1동,37.5385782,126.8354767
런드리킹 셀프빨래방 신사점,셀프빨래방,관악구,신사동,37.4837267,126.9216598
워시프렌즈 서울삼성동점,셀프빨래방,관악구,삼성동,37.4644976,126.9269064
워시피플셀프빨래방 관악봉천은천점,셀프빨래방,관악구,보라매동,37.4869358,126.9393778
늘푸른 셀프드라이크리닝 신림동점,셀프빨래방,관악구,난곡동,37.4691916,126.9242383
파란빨래방 난곡사거리점,셀프빨래방,관악구,미성동,37.479464,126.9128484
런드리라운지24셀프빨래방 낙성대점,셀프빨래방,관악구,행운동,37.4762018,126.9665166
워시프렌즈셀프빨래방 서울신림점,셀프빨래방,관악구,신사동,37.485323,126.9198081
화이트빨래방,셀프빨래방,관악구,신림동,37.4859247,126.9308676
에코런드렛셀프빨래방 관악구신림점,셀프빨래방,관악구,신림동,37.4861555,126.9335779
워시 프레쉬 셀프빨래방 신림역점,세탁소,관악구,서원동,37.4825552,126.9338871
워시프레쉬 셀프빨래방 신림역2호점,셀프빨래방,관악구,서원동,37.484215,126.933964
파란빨래방,셀프빨래방,관악구,낙성대동,37.4776204,126.9553142
하이브 셀프빨래방,셀프빨래방,관악구,남현동,37.47577,126.9755237
퍼펙트30분빨래방 당곡역점,셀프빨래방,관악구,보라매동,37.4910757,126.9287129
워시원 서울대학동점,셀프빨래방,관악구,대학동,37.4677405,126.9364431
워시프렌즈 서울대학동점,셀프빨래방,관악구,대학동,37.4664422,126.9361442
무인셀프 365일빨래방,셀프빨래방,관악구,대학동,37.4669936,126.9374894
셀빨래방 보라매점,셀프빨래방,관악구,보라매동,37.4912113,126.9249903
클린빨래방,셀프빨래방,관악구,서림동,37.4749068,126.9407491
워시피플셀프빨래방 신림보라매점,셀프빨래방,관악구,보라매동,37.4885979,126.9305018
센트럴빨래방 파란신림점,셀프빨래방,관악구,신림동,37.4870925,126.9304952
더런드리셀프빨래방 봉천은천점,셀프빨래방,관악구,은천동,37.4841842,126.9454916
워시엔조이 셀프빨래방 봉천중앙점,셀프빨래방,관악구,은천동,37.483488,126.9449953
버블맨24셀프빨래방 봉천점,셀프빨래방,관악구,중앙동,37.4833224,126.9492909
착한EM빨래방,셀프빨래방,관악구,중앙동,37.4829015,126.9506717
파란셀프빨래방,셀프빨래방,관악구,대학동,37.4688674,126.93892
클린업24시 셀프빨래방 서울대점,셀프빨래방,관악구,서림동,37.4716647,126.9384035
크린업24 서울대대학동점,셀프빨래방,관악구,대학동,37.4680788,126.9364282
런드리카페 셀프빨래방 신림점,셀프빨래방,관악구,대학동,37.4680295,126.9345628
버블맨24 셀프빨래방,셀프빨래방,관악구,서림동,37.4749363,126.9370368
화이트빨래방 신림역점,셀프빨래방,관악구,서원동,37.4820835,126.9306623
워시엔조이 신림역2호점,셀프빨래방,관악구,신림동,37.4858711,126.928162
런드리라운지24 셀프빨래방 신림점,셀프빨래방,관악구,신림동,37.4875944,126.9294281
셀프크리닝,셀프빨래방,관악구,신원동,37.481772,126.9275911
워시피플 셀프빨래방 봉천동점,셀프빨래방,관악구,청룡동,37.4797059,126.9486168
24시간셀프빨래방 은천점,셀프빨래방,관악구,은천동,37.4838184,126.9438376
셀프빨래방24,셀프빨래방,관악구,청룡동,37.4819881,126.9398842
워시앤조이셀프빨래방 관악조원점,셀프빨래방,관악구,조원동,37.481346,126.9087317
이지워시셀프빨래방 관악청룡점,셀프빨래방,관악구,청룡동,37.4789865,126.9448754
자탁소 셀프빨래방 쑥고개점,셀프빨래방,관악구,청룡동,37.4802306,126.9417547
더런드리 청룡점,셀프빨래방,관악구,청룡동,37.4806339,126.9458664
청림24시셀프빨래방,셀프빨래방,관악구,청림동,37.4886505,126.959506
24시셀프빨래플러스 청림점,셀프빨래방,관악구,청림동,37.4886505,126.959506
워시팡팡 셀프빨래방 서울대입구점,셀프빨래방,관악구,행운동,37.4818377,126.9564952
자탁소 셀프빨래방 낙성대행운점,셀프빨래방,관악구,행운동,37.4794233,126.9598971
워시피플 셀프빨래방 봉천낙성대행운점,셀프빨래방,관악구,행운동,37.4814478,126.9600223
런드리킹셀프빨래방 신림대학동점,셀프빨래방,관악구,대학동,37.4686183,126.9355923
월드크리닝 서울신림점,셀프빨래방,관악구,대학동,37.4702264,126.9359625
워시스토리 서울광장점,셀프빨래방,광진구,광장동,37.5475301,127.1043067
모지트,셀프빨래방,광진구,군자동,37.5547631,127.0756709
클린클린24시 셀프빨래방 건대점,셀프빨래방,광진구,화양동,37.5445946,127.0707222
워시팡팡 24시빨래방 군자점,셀프빨래방,광진구,중곡1동,37.561574,127.0802376
24H중곡센터1 워시앤드라이,셀프빨래방,광진구,중곡3동,37.5660476,127.0834527
워시프렌즈 셀프빨래방,셀프빨래방,광진구,자양4동,37.5378412,127.0689943
코인워시24셀프발래방 건대점,셀프빨래방,광진구,화양동,37.5452142,127.0686164
화이트365 건대후문점,셀프빨래방,광진구,화양동,37.5451597,127.0759972
샤인워시 화양점,셀프빨래방,광진구,화양동,37.5465685,127.0725567
워시앤조이셀프빨래방,세탁소,광진구,화양동,37.5467638,127.0703412
워시엔조이 화양점,셀프빨래방,광진구,화양동,37.5467638,127.0703412
위워시 군자역점,셀프빨래방,광진구,중곡1동,37.5588379,127.0776401
코인워시24빨래터 KCLA광진점,셀프빨래방,광진구,자양4동,37.53776,127.0664117
햇빛촌24시셀프빨래터,셀프빨래방,광진구,중곡3동,37.5711256,127.0814969
워시피플셀프빨래방광진구화양동점,세탁소,광진구,화양동,37.5478143,127.0678101
24시셀프빨래방 자양점,셀프빨래방,광진구,자양4동,37.539323,127.0633098
화이트365 건대입구역점,셀프빨래방,광진구,화양동,37.5430664,127.0681086
유니셀프 화양점,셀프빨래방,광진구,화양동,37.5439134,127.0655825
워시엔조이 군자점,셀프빨래방,광진구,군자동,37.5545503,127.0723461
24시셀프빨래방 워시쿱얼음왕국중곡1동점,식품판매,광진구,중곡1동,37.5594159,127.0762533
워시프렌즈 중곡동점,셀프빨래방,광진구,중곡1동,37.5642171,127.0785097
런드리밍 중곡2호점,셀프빨래방,광진구,중곡3동,37.5676438,127.079643
아쿠아워시 서울자양점,셀프빨래방,광진구,자양2동,37.5291558,127.0817827
워시테리아 군자점,셀프빨래방,광진구,군자동,37.5568004,127.0760705
우리셀프빨래협동조합 세종대점,셀프빨래방,광진구,군자동,37.5551345,127.0752618
코인워시 24 세종대점,셀프빨래방,광진구,군자동,37.5551345,127.0752618
화이트365 건대동문회관점,셀프빨래방,광진구,자양3동,37.5383893,127.0749108
위니아24시크린샵 서울구의점,셀프빨래방,광진구,구의3동,37.5392349,127.092202
크린업24 화양점,셀프빨래방,광진구,화양동,37.5450219,127.0673412
워시엔조이 건대자양점,셀프빨래방,광진구,자양1동,37.5357864,127.0780866
워시팡팡 자양광진점,셀프빨래방,광진구,자양1동,37.5349697,127.0785493
워시엔조이 중곡군자역점,셀프빨래방,광진구,중곡2동,37.556527,127.08307
화이트365 중곡점,셀프빨래방,광진구,중곡2동,37.5576685,127.0864123
워시프렌즈 셀프빨래방 중곡사거리점,셀프빨래방,광진구,중곡2동,37.5590182,127.0869917
호박빨래방,셀프빨래방,광진구,자양1동,37.5379004,127.0829701
버블맨24셀프빨래방 자양점,셀프빨래방,광진구,자양1동,37.5349018,127.0826783
런드리플립플랍셀프빨래방 구의점,셀프빨래방,광진구,구의1동,37.5439839,127.0893113
런드리밍,셀프빨래방,광진구,중곡2동,37.5576509,127.0813194
코인워시24 능동어린이대공원점,셀프빨래방,광진구,능동,37.5548459,127.0810984
햇빛촌24시 셀프빨래터 중곡2호점,셀프빨래방,광진구,중곡2동,37.5548106,127.0874879
빨리셀프크리닝 개봉점,셀프빨래방,구로구,개봉2동,37.4923701,126.8534008
우리셀프빨래방협동조합 개봉점,셀프빨래방,구로구,개봉3동,37.4839497,126.8535462
크린업24 오류동역점,셀프빨래방,구로구,오류1동,37.4955852,126.8466467
24시셀프빨래방 오류점,셀프빨래방,구로구,오류1동,37.4948295,126.8420242
빨래방,셀프빨래방,구로구,고척1동,37.5046497,126.863331
이지워시 셀프빨래방 구로동점,셀프빨래방,구로구,구로3동,37.4885093,126.8908012
더런드리셀프빨래방 구로본동점,셀프빨래방,구로구,구로2동,37.4904604,126.8830769
워시프렌즈셀프빨래방 서울구로4동점,셀프빨래방,구로구,구로2동,37.4909823,126.8872144
워시팡팡 무인셀프빨래방 구로초점,셀프빨래방,구로구,구로2동,37.4962947,126.8849176
뽀송뽀송24시빨래방,셀프빨래방,구로구,구로2동,37.4982099,126.885865
하이빌빨래방,셀프빨래방,구로구,구로2동,37.4982099,126.885865
워시프렌즈 서울구로구청점,셀프빨래방,구로구,구로4동,37.49556,126.8914829
구일셀프빨래방,셀프빨래방,구로구,구로1동,37.4959404,126.8722666
화이트24셀프빨래방 구일점,셀프빨래방,구로구,구로1동,37.4959404,126.8722666
워시프렌즈셀프빨래방 구일역점,셀프빨래방,구로구,구로1동,37.4920247,126.8757919
워시팡팡 셀프빨래방 궁동점,셀프빨래방,구로구,수궁동,37.4974746,126.8300876
워시쿱셀프빨래방 궁동점,셀프빨래방,구로구,수궁동,37.4952585,126.8319808
워시팡팡셀프빨래방 온수점,셀프빨래방,구로구,수궁동,37.492434,126.8197458
워시프레쉬셀프빨래방 신도림포스빌,셀프빨래방,구로구,구로5동,37.5055472,126.891336
코인워시24시빨래방,셀프빨래방,구로구,구로3동,37.4803881,126.8989291
워시프렌즈셀프빨래방 구로구고척점,셀프빨래방,구로구,고척1동,37.5031383,126.862561
워시코인24시 샐프빨래방,세탁소,구로구,고척2동,37.5075882,126.8539526
코인워시24셀프빨래방 목동고척점,셀프빨래방,구로구,고척2동,37.5075882,126.8539526
워시팡팡셀프빨래방 금천1호점,셀프빨래방,금천구,독산1동,37.4719602,126.8896414
워시프렌즈 셀프빨래방 금천 독산1동점,셀프빨래방,금천구,독산1동,37.472392,126.8946132
워시프렌즈 셀프빨래방 서울독산동점,셀프빨래방,금천구,독산1동,37.4528688,126.8901904
남문24시셀프빨래방,셀프빨래방,금천구,독산3동,37.4717184,126.9029146
워시팡팡셀프빨래방 독산3동점,셀프빨래방,금천구,독산3동,37.4763126,126.9033544
현대셀프크리닝,셀프빨래방,금천구,시흥1동,37.455304,126.9056584
행복셀프빨래방,셀프빨래방,금천구,시흥4동,37.4559061,126.9059194
워시피플셀프빨래방 금천독산4동점,셀프빨래방,금천구,독산4동,37.470311,126.9004106
셀프빨래방 가산푸르지오시티점,셀프빨래방,금천구,가산동,37.4753002,126.8908539
24시쎌프빨래방,셀프빨래방,금천구,독산3동,37.4769876,126.9083588
워시엔조이 셀프빨래방 독산2호점,셀프빨래방,금천구,독산1동,37.4685577,126.8922437
워시프렌즈셀프빨래방 금천가산미소지움점,셀프빨래방,금천구,가산동,37.4762916,126.8787002
미소지움셀프빨래방,셀프빨래방,금천구,가산동,37.4762916,126.8787002
위시팡팡셀프빨래방,셀프빨래방,노원구,공릉2동,37.6246193,127.0789422
워시쿱 서울과기대점,셀프빨래방,노원구,하계1동,37.6356688,127.0744147
크린토피아 코인워시365 서울과기대점,셀프빨래방,노원구,하계1동,37.635655,127.0728696
워시스토리 서울노원점,셀프빨래방,노원구,상계2동,37.653283,127.0709421
워시피플셀프빨래방 노원중계동점,셀프빨래방,노원구,중계1동,37.6537579,127.0732234
워시쿱 서울공릉동점,셀프빨래방,노원구,공릉1동,37.6193093,127.0732571
워시프렌즈 셀프빨래방 공릉과기대점,셀프빨래방,노원구,공릉1동,37.6290382,127.0734406
코인24시빨래방 당고개역점,셀프빨래방,노원구,상계3.4동,37.6703059,127.0785559
워시프렌즈 서울상계2동점,셀프빨래방,노원구,상계2동,37.6569377,127.0696338
월드크린셀프크리닝 상계점,셀프빨래방,노원구,상계2동,37.6594432,127.0615323
코인워시24셀프빨래방 중계상계점,셀프빨래방,노원구,상계2동,37.6592553,127.0675206
워시프렌즈셀프빨래방 노원월계2동점,셀프빨래방,노원구,월계2동,37.6325606,127.0517479
크린업24 상계점,셀프빨래방,노원구,상계5동,37.6637089,127.0738729
워시엔조이 상계역점,셀프빨래방,노원구,상계5동,37.6634178,127.0729613
더런드리셀프빨래방 노원상계점,셀프빨래방,노원구,상계5동,37.6619478,127.0668693
워시엔조이 셀프빨래방 상계동점,셀프빨래방,노원구,상계2동,37.661327,127.0663816
더런드리 쌍문점,셀프빨래방,도봉구,쌍문3동,37.6510471,127.0341196
빨래방위드디,셀프빨래방,도봉구,창3동,37.6413781,127.0409952
워시엔조이 셀프빨래방 신도봉점,셀프빨래방,도봉구,도봉1동,37.670489,127.0424797
셀프빨래방 창동점,셀프빨래방,도봉구,창2동,37.6440613,127.0376339
워시프랜즈셀프빨래방 도봉구창동점,세탁소,도봉구,창2동,37.644952,127.0342309
버블맨24 샐프빨래방 쌍문3호점,셀프빨래방,도봉구,쌍문3동,37.6487613,127.0308901
더런드리 셀프빨래방 창동점,셀프빨래방,도봉구,창5동,37.6572113,127.041798
워시엔조이 셀프빨래방 도봉창동점,셀프빨래방,도봉구,창5동,37.6561229,127.0426065
워시프렌즈 셀프빨래방 도봉구 방학동점,셀프빨래방,도봉구,방학1동,37.669094,127.0447525
워시24시 셀프빨래방,셀프빨래방,도봉구,도봉2동,37.6828886,127.0475086
프리머스셀프빨래방,셀프빨래방,도봉구,창3동,37.6361277,127.0398381
버블맨24셀프빨래방 창동점,셀프빨래방,도봉구,창1동,37.6510272,127.0413835
코인워시24빨래터,셀프빨래방,동대문구,회기동,37.5920533,127.0545461
런드리24 제기점,셀프빨래방,동대문구,제기동,37.5849944,127.038228
크린토피아 코인워시 답십리점,셀프빨래방,동대문구,답십리1동,37.572855,127.0524012
크린토피아 코인워시 장안시장점,셀프빨래방,동대문구,장안1동,37.5684929,127.0652065
워시타임 서울장안동점,셀프빨래방,동대문구,장안1동,37.5693186,127.0655821
셀프빨래방24시 장안점,셀프빨래방,동대문구,장안2동,37.569573,127.0731675
런드리익스프레스샵 서울시립대점,셀프빨래방,동대문구,휘경2동,37.5871071,127.0602997
워시피플 동대문휘경동점,셀프빨래방,동대문구,휘경1동,37.5907851,127.0625522
코인워시24 휘경점,셀프빨래방,동대문구,휘경1동,37.5905011,127.0607127
워시팡팡 휘경점,셀프빨래방,동대문구,휘경2동,37.5876544,127.0563864
워시엔조이 용두점,셀프빨래방,동대문구,용신동,37.5763779,127.0335233
위니아24크린샵 서울장안점,셀프빨래방,동대문구,장안2동,37.580028,127.0701654
아쿠아워시셀프빨래방 서울전농동점,셀프빨래방,동대문구,전농1동,37.5819805,127.0520067
워시엔조이 전농점,셀프빨래방,동대문구,전농1동,37.5808029,127.0518833
코인워시24빨래방 고려대점,셀프빨래방,동대문구,제기동,37.5851248,127.0319419
런드리익스프레스샵 고대정문점,셀프빨래방,동대문구,제기동,37.5885142,127.0357178
화이트365 제기동점,셀프빨래방,동대문구,용신동,37.5771555,127.0332807
크린업24 제기동점,셀프빨래방,동대문구,제기동,37.5826703,127.0348095
크린토피아 코인워시365 이문대림점,셀프빨래방,동대문구,이문2동,37.6044037,127.062614
아쿠아워시 장안동점,셀프빨래방,동대문구,장안1동,37.571438,127.0701279
에코런드렛셀프빨래방 장안점,셀프빨래방,동대문구,장안1동,37.5685136,127.0688024
워시팡팡무인셀프빨래방 동대문장안,세탁소,동대문구,장안1동,37.5641178,127.0712954
셀빨래방 장안장평점,셀프빨래방,동대문구,장안1동,37.5675083,127.0712187
워시엔조이 장안점,셀프빨래방,동대문구,장안2동,37.5678615,127.0723007
우리셀프빨래방협동조합 장안점,셀프빨래방,동대문구,장안1동,37.5692035,127.0686966
크린업24 장안점,셀프빨래방,동대문구,장안1동,37.5699615,127.0694712
워시팡팡셀프빨래방 장안2호점,셀프빨래방,동대문구,장안2동,37.5737869,127.0724966
화이트365 장안점,셀프빨래방,동대문구,장안1동,37.5640849,127.067874
호박무인빨래방,셀프빨래방,동대문구,전농1동,37.5757813,127.0571608
위워시 회기역점,셀프빨래방,동대문구,휘경2동,37.5872251,127.0555009
워시프렌즈 셀프빨래방 청량리점,셀프빨래방,동대문구,청량리동,37.5854487,127.0504364
런드리업 셀프빨래방 제기점,셀프빨래방,동대문구,제기동,37.5854089,127.0343173
버블워시빨래방,셀프빨래방,동대문구,이문1동,37.5987037,127.057933
버블워시24 외대점,셀프빨래방,동대문구,이문1동,37.5987037,127.057933
런드리익스프레스샵 이문점,셀프빨래방,동대문구,이문1동,37.5984005,127.0559278
크린토피아 코인워시 이문2동점,셀프빨래방,동대문구,이문1동,37.5983547,127.0555825
크린라이프 답십리점,셀프빨래방,동대문구,답십리1동,37.5698022,127.0494665
더런드리 답십리점,셀프빨래방,동대문구,답십리1동,37.5694964,127.0498995
뽀송빨래터,셀프빨래방,동대문구,용신동,37.5756044,127.0414094
워시빌리지 답십리점,셀프빨래방,동대문구,답십리1동,37.5704338,127.0518314
워시엔조이 장한평점,셀프빨래방,동대문구,장안1동,37.5638565,127.063113
워시엔조이 청계리버리치점,셀프빨래방,동대문구,용신동,37.5702681,127.0307088
크린토피아 코인워시 동대문용두캐슬리치점,셀프빨래방,동대문구,용신동,37.5784517,127.0306241
런드리존 장안센트럴점,셀프빨래방,동대문구,장안2동,37.5738784,127.0671453
24시셀프빨래방 이문점,셀프빨래방,동대문구,이문1동,37.5989582,127.0674935
워시프렌즈셀프빨래방 동대문장한평점,셀프빨래방,동대문구,장안1동,37.5688814,127.0683157
크린토피아 코인워시365 동대문전농배봉초교점,셀프빨래방,동대문구,전농2동,37.5782251,127.0667016
크린앤화이트24시코인셀프빨래방,셀프빨래방,동대문구,장안2동,37.5775692,127.0688885
24시맑은셀프빨래방,셀프빨래방,동대문구,장안2동,37.5775692,127.0688885
워시쿱 장안직영점,셀프빨래방,동대문구,장안1동,37.5633072,127.0612041
에코런드렛셀프빨래방 답십리점,셀프빨래방,동대문구,답십리2동,37.5651861,127.0562375
화이트365 경희대점,셀프빨래방,동대문구,회기동,37.5912672,127.0512791
버블맨24 회기동점,셀프빨래방,동대문구,회기동,37.5908707,127.0542732
셀프빨래방24시,세탁소,동대문구,이문1동,37.5935965,127.0577732
스피드24클리닝,셀프빨래방,동대문구,이문1동,37.5935965,127.0577732
화이트365 휘경점,셀프빨래방,동대문구,휘경1동,37.5906666,127.0579035
런드리익스프레스샵 회기점,셀프빨래방,동대문구,휘경1동,37.5909396,127.0568589
셀프빨래방(사당역점),"가정,생활",동작구,사당1동,37.476408,126.9738885
24시셀프빨래방플러스 노량진점,셀프빨래방,동작구,노량진1동,37.5127569,126.9417006
블링블링24시셀프빨래방,셀프빨래방,동작구,노량진2동,37.5121656,126.937662
합격빨래방워시앤프리 노량진점,셀프빨래방,동작구,노량진1동,37.5124134,126.943281
AMPM워시큐 본동점,셀프빨래방,동작구,노량진1동,37.5110308,126.9549284
화이트빨래방 대방점,셀프빨래방,동작구,대방동,37.5009737,126.9273747
셀피아셀프빨래방 사당점,셀프빨래방,동작구,사당1동,37.4813289,126.9757644
워시피플 셀프빨래방 사당이수점,셀프빨래방,동작구,사당2동,37.4901693,126.9812861
24시간코인세탁소,셀프빨래방,동작구,노량진2동,37.5124006,126.9355117
런드리익스프레스샵 노량진점,셀프빨래방,동작구,노량진1동,37.5121384,126.9461939
에코클린 24 셀프빨래방,셀프빨래방,동작구,노량진1동,37.5124643,126.9474133
더런드리 노량진점,셀프빨래방,동작구,노량진1동,37.5103043,126.9468658
워시피플 동작구보라매점,셀프빨래방,동작구,신대방2동,37.4952832,126.9266895
에코런드렛 빨래방&amp;아이스크림 사당점,셀프빨래방,동작구,사당4동,37.4809986,126.9709315
참빨래셀프빨래방 사당점,셀프빨래방,동작구,사당1동,37.4793484,126.9745223
버블맨24시셀프빨래방 사당점,셀프빨래방,동작구,사당4동,37.4806336,126.9721983
워시프렌즈셀프빨래방 서울사당점,셀프빨래방,동작구,사당1동,37.4807786,126.9781901
빨리셀프크리닝,셀프빨래방,동작구,상도1동,37.4927842,126.9562369
삼성24시셀프빨래방 장승배기점,셀프빨래방,동작구,상도2동,37.5045536,126.9363648
삼성24시셀프빨래방 2호점,셀프빨래방,동작구,상도2동,37.503753,126.9454581
워시엔조이 상도역점,셀프빨래방,동작구,상도1동,37.5023027,126.9512141
24시셀프빨래방플러스 흑석점,셀프빨래방,동작구,흑석동,37.5066266,126.9621838
워시프렌즈 셀프빨래방 상도동점,셀프빨래방,동작구,상도4동,37.4973217,126.9351867
워시클리어셀프빨래방,셀프빨래방,동작구,신대방1동,37.486599,126.9071775
런드리나인 셀프빨래방 런드리스페이스점,셀프빨래방,동작구,대방동,37.5112868,126.9274558
24시셀프빨래방플러스 상도점,셀프빨래방,동작구,상도2동,37.5014493,126.9438142
워시피플셀프빨래방 흑석중앙대점,셀프빨래방,동작구,흑석동,37.5096318,126.9622042
크린라이프 중앙대본점,셀프빨래방,동작구,상도1동,37.5049479,126.9515929
크린토피아 코인워시365 신촌그랑자이점,셀프빨래방,마포구,대흥동,37.5557713,126.9433549
24시 빨래터 이대역점,셀프빨래방,마포구,대흥동,37.5533071,126.9454044
워시엔조이 마포용강점,셀프빨래방,마포구,용강동,37.5422755,126.9382349
코인워시24빨래터 합정역점,셀프빨래방,마포구,합정동,37.5476309,126.9144439
크린토피아 코인워시 마포염리자이점,셀프빨래방,마포구,용강동,37.5433654,126.946188
워시플랜트,셀프빨래방,마포구,서교동,37.5571757,126.921722
워시엔조이 마포합정점,셀프빨래방,마포구,망원1동,37.5533302,126.9083816
코인워시24빨래방 공덕점,셀프빨래방,마포구,아현동,37.5474542,126.9530943
크린토피아 코인워시365 마포애오개역점,셀프빨래방,마포구,공덕동,37.5525007,126.956863
런드리고24 마포역점,셀프빨래방,마포구,용강동,37.5399848,126.9454475
화이트365 마포역점,셀프빨래방,마포구,용강동,37.5399848,126.9454475
셀빨래방 염리점,셀프빨래방,마포구,염리동,37.5489465,126.9491329
크린업24 마포아현점,셀프빨래방,마포구,공덕동,37.5511529,126.9565422
화이트365 공덕점,셀프빨래방,마포구,공덕동,37.5490767,126.9596108
감성빨래방,셀프빨래방,마포구,상암동,37.5768849,126.8961548
마포구청 스타셀프빨래방,셀프빨래방,마포구,성산2동,37.564232,126.9037055
크린업24 마포대흥점,셀프빨래방,마포구,대흥동,37.5484479,126.9411041
크린업24 성산점,셀프빨래방,마포구,성산1동,37.564204,126.915682
24시간빨래하는날,셀프빨래방,마포구,연남동,37.5630927,126.9181589
더런드리 연남점,셀프빨래방,마포구,연남동,37.5643706,126.9180179
런드리익스프레스샵 연남점,셀프빨래방,마포구,연남동,37.5636252,126.9243548
크린토피아 코인워시365 마포건영월드컵점,셀프빨래방,마포구,성산2동,37.5680838,126.9124042
크린토피아 코인워시 합정역점,셀프빨래방,마포구,합정동,37.5465038,126.9130667
원더런드리,셀프빨래방,마포구,공덕동,37.5575861,126.9606911
런드리익스프레스샵 신촌점,셀프빨래방,마포구,서교동,37.554569,126.9336117
몬투노샵,셀프빨래방,마포구,대흥동,37.5549479,126.9379781
크린토피아 코인워시 마포아현초교점,셀프빨래방,마포구,아현동,37.5559403,126.9548075
아쿠아워시 24시 셀프빨래방 아현점,셀프빨래방,마포구,아현동,37.5527458,126.9528639
런드리24 합정해링턴점,셀프빨래방,마포구,서교동,37.5508138,126.916494
워시엔조이 마포연남점,셀프빨래방,마포구,연남동,37.5610343,126.9199526
호스텔클레오 코인런드리,셀프빨래방,마포구,서교동,37.5613828,126.9266646
24시셀프빨래방 상수역점,셀프빨래방,마포구,서강동,37.5459462,126.9231041
워시피플 마포구홍대점,셀프빨래방,마포구,서강동,37.5530711,126.9272691
버블맨24 홍대점,셀프빨래방,마포구,서강동,37.5544795,126.9302525
경의선 빨래방,셀프빨래방,마포구,서교동,37.5547591,126.9314807
빨래살롱,셀프빨래방,마포구,서교동,37.5536943,126.9142647
화이트365 홍대입구역점,셀프빨래방,마포구,서교동,37.5569002,126.9226192
이지워시셀프빨래방 상암점,셀프빨래방,마포구,상암동,37.5748583,126.8953856
런드리24 펭귄하우스 마포성산점,셀프빨래방,마포구,성산1동,37.5588788,126.9163414
버블맨24 마포서교점,셀프빨래방,마포구,성산1동,37.5588788,126.9163414
뽀송빨래방,셀프빨래방,마포구,신수동,37.5450075,126.9353094
크린토피아 코인워시 홈플러스EX마포용강점,셀프빨래방,마포구,용강동,37.5410713,126.9412851
코인워시24 만리동점,셀프빨래방,마포구,공덕동,37.5529761,126.9613037
크린토피아 코인워시 만리한겨레점,셀프빨래방,마포구,공덕동,37.5479361,126.9607398
24시셀프빨래방 만리점,셀프빨래방,마포구,공덕동,37.5487411,126.9635607
워시큐 망원점,셀프빨래방,마포구,망원1동,37.5525734,126.9045638
우리동네빨래방,셀프빨래방,마포구,망원1동,37.5561992,126.9039166
크린토피아 코인워시 남가좌현대점,셀프빨래방,서대문구,남가좌2동,37.5760115,126.9208234
크린토피아 코인워시 남가좌파크뷰자이점,셀프빨래방,서대문구,남가좌1동,37.574402,126.9179078
코인워시24 북가좌점,셀프빨래방,서대문구,북가좌2동,37.5770955,126.9109727
코인워시24빨래터 서대문역점,셀프빨래방,서대문구,충현동,37.5657405,126.9646557
코인셀프빨래방,셀프빨래방,서대문구,충현동,37.5643103,126.9601713
셀빨래방 독립문점,셀프빨래방,서대문구,천연동,37.5684456,126.961683
화이트365 서대문역점,셀프빨래방,서대문구,천연동,37.5668277,126.9639753
워시팡팡 셀프빨래방 명지대점,셀프빨래방,서대문구,남가좌2동,37.5821547,126.9238834
코인워시 24빨래터 명지대점,셀프빨래방,서대문구,홍은2동,37.5816119,126.9247916
워시큐셀프빨래방 명지대점,셀프빨래방,서대문구,남가좌2동,37.5836956,126.9233825
AMPM워시큐 명지대점,셀프빨래방,서대문구,남가좌2동,37.5836956,126.9233825
더런드리 DMC점,셀프빨래방,서대문구,남가좌1동,37.5699013,126.9178357
코인워시24빨래터 북아현점,셀프빨래방,서대문구,충현동,37.5641865,126.9538154
런드리24펭귄하우스 아현점,셀프빨래방,서대문구,북아현동,37.5580681,126.9513991
워시스토리셀프빨래방 연희연세대점,세탁소,서대문구,연희동,37.563121,126.9312236
코인워시24 상명대점,셀프빨래방,서대문구,홍제3동,37.5968772,126.9493252
아쿠아워시 24시 셀프빨래방 홍제점,셀프빨래방,서대문구,홍제3동,37.5918297,126.946262
워시엔조이 홍대역점,셀프빨래방,서대문구,신촌동,37.5590628,126.9284147
크린토피아 코인워시 북아현이편한세상신촌점,셀프빨래방,서대문구,북아현동,37.5576747,126.9529582
크린업24 창천점,셀프빨래방,서대문구,신촌동,37.5573689,126.9392762
버블맨24 신촌역점,셀프빨래방,서대문구,신촌동,37.5577101,126.9422991
화이트365 신촌점,셀프빨래방,서대문구,신촌동,37.558297,126.9394785
런드리데이 신촌점,셀프빨래방,서대문구,신촌동,37.5584008,126.9338351
이지워시셀프빨래방 홍은정원단지점,셀프빨래방,서대문구,홍은2동,37.5866276,126.9346617
워시큐 연희브라운스톤점,셀프빨래방,서대문구,연희동,37.5652133,126.9302076
화이트365 연희점,셀프빨래방,서대문구,연희동,37.5663532,126.9309751
세탁풍경 연희점,셀프빨래방,서대문구,연희동,37.5667634,126.9321058
워시프렌즈 셀프빨래방 연희점,셀프빨래방,서대문구,연희동,37.5693976,126.9321874
코인워시24빨래터 연희점,셀프빨래방,서대문구,연희동,37.5617072,126.9279347
크린업24 북가좌점,셀프빨래방,서대문구,북가좌2동,37.5850892,126.9143999
AMPM 워시큐 이대점,셀프빨래방,서대문구,신촌동,37.557358,126.9441565
런드리익스프레스샵 이대점,셀프빨래방,서대문구,신촌동,37.558131,126.9437627
런드리24 펭귄하우스 이대1호점,셀프빨래방,서대문구,신촌동,37.558131,126.9437627
크린토피아 코인워시365 남가좌래미안1차점,셀프빨래방,서대문구,북가좌2동,37.5799749,126.9159072
워시엔조이 연희점,셀프빨래방,서대문구,연희동,37.5702694,126.9305364
화이트365 명지대점,셀프빨래방,서대문구,남가좌2동,37.5791275,126.9252836
크린토피아 코인워시365 롯데수퍼홍제점,셀프빨래방,서대문구,홍제1동,37.5851683,126.9473981
이지워시 셀프빨래방 홍제점,셀프빨래방,서대문구,홍제1동,37.5876881,126.9444053
크린토피아 코인워시 포방시장점,셀프빨래방,서대문구,홍은1동,37.6005712,126.9491333
이지워시셀프빨래방 홍은점,셀프빨래방,서대문구,홍은1동,37.5990018,126.9446543
런드리24 펭귄랜덤하우스코리아,셀프빨래방,서초구,서초2동,37.4959829,127.0280101
워시엔조이 셀프빨래방 신사잠원점,셀프빨래방,서초구,잠원동,37.5172524,127.0180857
크린토피아 코인워시 반포언구비점,셀프빨래방,서초구,반포1동,37.5048308,127.0206501
셀빨래방 잠원점,셀프빨래방,서초구,잠원동,37.513828,127.0163293
셀프빨래터 방배점,셀프빨래방,서초구,방배본동,37.4913354,126.9863353
화이트365 방배점,셀프빨래방,서초구,방배본동,37.4938492,126.9854329
워시프렌즈 서초우면점,셀프빨래방,서초구,양재1동,37.4685941,127.0275071
워시엔조이 셀프빨래방 서초사랑점,셀프빨래방,서초구,서초3동,37.4896931,127.0076047
셀빨래방 방배점,셀프빨래방,서초구,방배1동,37.4855469,126.9966041
에코런드렛빨래방&amp;아이스크림 방배점,셀프빨래방,서초구,방배1동,37.4842598,126.9916402
위니아24크린샵 방배2호점,셀프빨래방,서초구,방배본동,37.4940268,126.9839603
워시피플 셀프빨래방 서초구 서초우면양재점,세탁소,서초구,서초3동,37.4931705,127.008038
워시프렌즈 셀프빨래방 서초1동점,셀프빨래방,서초구,서초1동,37.4905455,127.0212392
더런드리 강남반포점,셀프빨래방,서초구,반포1동,37.5081033,127.0197562
위워시 반포점,셀프빨래방,서초구,반포1동,37.506605,127.0212232
빨래터빨래방 신논현점,셀프빨래방,서초구,서초4동,37.5035142,127.023276
크린토피아 코인워시 서초푸르지오써밋점,셀프빨래방,서초구,서초4동,37.5015196,127.0217535
워시엔조이 방배점,셀프빨래방,서초구,방배4동,37.4921878,126.9900273
크린토피아 코인워시 서울교대점,셀프빨래방,서초구,서초1동,37.4935094,127.0186785
크린토피아 코인워시 반포미도점,셀프빨래방,서초구,반포4동,37.5006953,127.0104311
자탁소셀프빨래방 잠원점,셀프빨래방,서초구,잠원동,37.5112224,127.017286
크린토피아 코인워시 잠원본점,셀프빨래방,서초구,잠원동,37.5119361,127.0185027
런드리힐 셀프빨래방,셀프빨래방,서초구,양재1동,37.4597249,127.0244643
크린업24 반포점,셀프빨래방,서초구,반포1동,37.5060257,127.0208803
워시엔조이 반포점,셀프빨래방,서초구,반포1동,37.5094284,127.018684
코인워시24셀프빨래방,셀프빨래방,서초구,양재1동,37.4611529,127.0256508
다온런드리셀프빨래방24,셀프빨래방,서초구,서초2동,37.4893134,127.029944
더화이트 송정점,셀프빨래방,성동구,송정동,37.5506345,127.0671769
에코런드렛셀프빨래방&amp;아이스크림 신금호역점,셀프빨래방,성동구,금호2.3가동,37.5550456,127.0196502
크린토피아 코인워시 서울숲힐스테이트점,셀프빨래방,성동구,성수1가1동,37.5411138,127.0506252
코인워시24 한양대점,셀프빨래방,성동구,사근동,37.5611772,127.0402231
크린토피아 코인워시 왕십리역점,셀프빨래방,성동구,사근동,37.561431,127.0410405
크린토피아 코인워시 왕십리텐즈힐점,셀프빨래방,성동구,왕십리도선동,37.5691642,127.0263479
셀프빨래방워시쿱 홍익점,셀프빨래방,성동구,왕십리도선동,37.5654172,127.0309472
24시셀프빨래방 행당점,셀프빨래방,성동구,왕십리2동,37.5610978,127.0302788
화이트365 하왕십리점,셀프빨래방,성동구,왕십리2동,37.5605573,127.0292832
런드리익스프레스샵 한양여대점,셀프빨래방,성동구,사근동,37.5610607,127.0475318
화이트365 사근점,셀프빨래방,성동구,사근동,37.5611097,127.0477285
블루워시 성수점,셀프빨래방,성동구,성수1가2동,37.5491362,127.0482072
셀피아 서울성수동점,셀프빨래방,성동구,성수2가1동,37.5375487,127.0551975
런드리24 펭귄하우스 성수성덕정길점,셀프빨래방,성동구,성수2가1동,37.5367898,127.0561894
우리셀프빨래방,"서비스,산업",성동구,성수2가1동,37.5413684,127.055611
더화이트셀프빨래방 성수동본점,셀프빨래방,성동구,성수1가2동,37.5494959,127.0498269
크린토피아 코인워시365 왕십리센트라스점,셀프빨래방,성동구,왕십리도선동,37.5666029,127.0240825
워시하우스 왕십리점,셀프빨래방,성동구,왕십리도선동,37.5666029,127.0240825
런드리24 아크로서울포레스트점,셀프빨래방,성동구,성수1가1동,37.5441547,127.0433578
크린토피아 코인워시 왕십리홍익점,셀프빨래방,성동구,왕십리도선동,37.5654967,127.0356023
위워시 왕십리점,셀프빨래방,성동구,왕십리도선동,37.564434,127.0342463
우리셀프빨래방협동조합 용답점,셀프빨래방,성동구,용답동,37.5630783,127.0535882
AMPM워시큐 답십리점,셀프빨래방,성동구,용답동,37.5662759,127.0523809
코인워시24 셀프빨래방 용답점,셀프빨래방,성동구,용답동,37.5649036,127.052308
금호셀프빨래방,셀프빨래방,성동구,금호4가동,37.5480851,127.0187753
AMPM워시큐 장한평역점,셀프빨래방,성동구,용답동,37.5609927,127.0651008
런드리24 펭귄하우스 성동점,셀프빨래방,성동구,행당1동,37.5612456,127.0342104
화이트365 안암점,셀프빨래방,성북구,안암동,37.5861209,127.0300528
스토리셀프빨래방,셀프빨래방,성북구,보문동,37.5843732,127.0208558
워시프렌즈 셀프빨래방 성신여대점,셀프빨래방,성북구,삼선동,37.588851,127.0181074
워시팡팡 셀프빨래방24시 안암점,셀프빨래방,성북구,안암동,37.5848811,127.0216545
크린토피아 코인워시 길음래미안점,셀프빨래방,성북구,길음1동,37.6047525,127.0230211
워시콥셀프빨래방석관동얼음왕국,셀프빨래방,성북구,석관동,37.6110143,127.0619897
더런드리 꿈의숲,셀프빨래방,성북구,장위1동,37.6186689,127.0445071
크린토피아 코인워시 돈암초교점,셀프빨래방,성북구,성북동,37.5926759,127.0122857
워시프렌즈 셀프빨래방 동소문동점,셀프빨래방,성북구,성북동,37.5921283,127.0128115
워시타임 성신여대입구역점,셀프빨래방,성북구,동선동,37.5957586,127.0169658
크린토피아 코인워시 정릉청수점,셀프빨래방,성북구,정릉4동,37.617021,127.0023565
크린토피아 코인워시 서경대점,셀프빨래방,성북구,정릉4동,37.6114628,127.009529
워시엔조이 보문점,셀프빨래방,성북구,보문동,37.5817174,127.0205752
코인워시24 성신여대점,셀프빨래방,성북구,동선동,37.5893654,127.0206494
코인와시24 KCLA성신여대,셀프빨래방,성북구,동선동,37.5893654,127.0206494
크린토피아 코인워시365 성신여대점,셀프빨래방,성북구,동선동,37.5894146,127.0203258
코인워시365 성북구청점,셀프빨래방,성북구,삼선동,37.588235,127.0154408
셀피아 성북돈암점,셀프빨래방,성북구,동선동,37.5936076,127.0200404
화이트365 성신여대점,셀프빨래방,성북구,동선동,37.5917687,127.019748
코런셀프빨래방 한성대점,셀프빨래방,성북구,삼선동,37.589844,127.0127563
BTAL셀프빨래방,셀프빨래방,성북구,정릉2동,37.5997012,127.0094456
비탈셀프빨래방,셀프빨래방,성북구,정릉2동,37.5997012,127.0094456
덱스터 종암점,셀프빨래방,성북구,종암동,37.593712,127.0344549
셀프빨래방24시 한성대점,셀프빨래방,성북구,삼선동,37.5863354,127.0094068
코인워시24빨래터 서경대점,셀프빨래방,성북구,정릉4동,37.6120427,127.013505
크린업24 정릉점,셀프빨래방,성북구,정릉4동,37.6137802,127.0098463
덱스터셀프빨래방 국민대점,셀프빨래방,성북구,정릉3동,37.6091209,127.0078558
린드리나인셀프빨래방 하월곡점,셀프빨래방,성북구,월곡1동,37.6050779,127.0369607
런드리나인 셀프빨래방 하월곡점,셀프빨래방,성북구,월곡2동,37.6055154,127.037226
크린토피아 코인워시 성북장위루첸점,셀프빨래방,성북구,장위3동,37.6214311,127.0463095
크린토피아 코인워시365 성북종암동점,셀프빨래방,성북구,종암동,37.5974931,127.0394692
화이트365 동덕여대점,셀프빨래방,성북구,월곡2동,37.6057759,127.0445287
크린업24 동덕여대점,셀프빨래방,성북구,월곡2동,37.605513,127.0438354
동네방네빨래방 장위1호점,셀프빨래방,성북구,장위1동,37.6140903,127.0414302
크린업24 장위점,셀프빨래방,성북구,장위1동,37.6137995,127.0448044
화이트운동화빨래방,셀프빨래방,성북구,장위1동,37.6137707,127.0462574
워시피플 셀프빨래방 성북구 장위월곡점,세탁소,성북구,장위1동,37.6162013,127.0432379
이지워시 셀프빨래방 장위점,셀프빨래방,성북구,장위1동,37.6146164,127.0451212
자작나무숲24시셀프빨래방,셀프빨래방,성북구,정릉3동,37.6050608,126.9985801
화이트365 정릉역점,셀프빨래방,성북구,정릉2동,37.6026648,127.0120697
에코클린24셀프빨래방 정릉점,셀프빨래방,성북구,정릉2동,37.6053139,127.0132214
24시 셀프빨래방 종암동,세탁소,성북구,종암동,37.601909,127.0335507
종암24시셀프빨래방,셀프빨래방,성북구,종암동,37.5978501,127.0323197
위니아24크린샵 종암점,셀프빨래방,성북구,종암동,37.5940927,127.0342872
크린업24 종암고대점,셀프빨래방,성북구,종암동,37.5941063,127.0338568
워시맨 보문점,셀프빨래방,성북구,보문동,37.5843197,127.0191636
워시팡팡셀프빨래방 하월곡점,셀프빨래방,성북구,월곡1동,37.6046287,127.033278
런드리존 종암베로니스점,셀프빨래방,성북구,월곡1동,37.6034545,127.0334229
워시테리아 석관점,셀프빨래방,성북구,석관동,37.607208,127.0511629
런드리데이,셀프빨래방,성북구,석관동,37.6092589,127.0563925
빨래하는날,셀프빨래방,성북구,석관동,37.6092589,127.0563925
셀빨래방 오금점,셀프빨래방,송파구,오금동,37.4997915,127.1372233
오금동셀프빨래방,셀프빨래방,송파구,오금동,37.5052324,127.1336582
워시피플 셀프빨래방 송파오금동점,셀프빨래방,송파구,오금동,37.5026858,127.1388139
문정동빨래방,셀프빨래방,송파구,문정1동,37.4875586,127.1241944
동전빨래방,셀프빨래방,송파구,잠실본동,37.5052085,127.0828563
잠실24시셀프빨래방,셀프빨래방,송파구,삼전동,37.505691,127.0937596
워시엔조이 셀프빨래방 석촌점,셀프빨래방,송파구,석촌동,37.5013996,127.0988799
더런드리셀프빨래방 송파동점,셀프빨래방,송파구,송파1동,37.5039712,127.1114248
워시팡팡 셀프빨래방 24시 송파점,셀프빨래방,송파구,송파1동,37.5075299,127.1136474
더런드리셀프빨래방 방이점,셀프빨래방,송파구,방이2동,37.510331,127.1170047
워시프렌즈 송파구문정동점,셀프빨래방,송파구,문정2동,37.4826158,127.1228264
화이트24셀프빨래방 문정점,셀프빨래방,송파구,문정2동,37.4829139,127.1218733
이지워시 셀프빨래방 문정점,셀프빨래방,송파구,문정2동,37.4822689,127.1221036
워시팡팡셀프빨래방24시 삼전점,셀프빨래방,송파구,삼전동,37.5014184,127.0962019
버블맨24셀프빨래방,셀프빨래방,송파구,문정2동,37.4807918,127.1208423
프레시런드리 24 셀프빨래방,셀프빨래방,송파구,문정2동,37.4807918,127.1208423
새마을빨래방,셀프빨래방,송파구,잠실본동,37.5086907,127.0835954
버블존 24시코인워시빨래방,셀프빨래방,송파구,석촌동,37.5053571,127.1012751
에코런드렛 셀프빨래방&amp;아이스크림,셀프빨래방,송파구,가락본동,37.4961402,127.1211482
코인워시24셀프빨래방 방이1동점,셀프빨래방,송파구,방이1동,37.507707,127.1223366
24시 셀프빨래방 풍납점,셀프빨래방,송파구,풍납2동,37.5333975,127.11713
셀프24시빨래방,셀프빨래방,송파구,가락2동,37.4956387,127.126046
워시피플셀프빨래방 송파풍납동점,셀프빨래방,송파구,풍납2동,37.5308871,127.1128286
코인워시셀프존 신월점,셀프빨래방,양천구,신월1동,37.5299151,126.8339338
워시팡팡무인셀프빨래방 신월점,셀프빨래방,양천구,신월1동,37.5316558,126.8338744
워시피플 셀프빨래방 관악 봉천 은천점,세탁소,양천구,신정4동,37.5282416,126.8620448
워시피플셀프빨래방 신월사거리점,셀프빨래방,양천구,신월3동,37.5336142,126.8270195
24시 셀프빨래방,세탁소,양천구,신월1동,37.5322742,126.8326576
코런24시셀프빨래방,셀프빨래방,양천구,목3동,37.5427305,126.8631374
백의민족 셀프빨래방 신정점,셀프빨래방,양천구,신정7동,37.507492,126.8645577
양천목동 빨래방(파리공원)워시프렌즈,셀프빨래방,양천구,목5동,37.5318082,126.8756617
화이트24셀프빨래방,셀프빨래방,양천구,목4동,37.5359152,126.8682359
화이트 24시 셀프빨래방 목동점,셀프빨래방,양천구,목4동,37.5359152,126.8682359
워시프렌즈 양천구목4동점,셀프빨래방,양천구,목4동,37.5391036,126.8696592
더런드리셀프빨래방 목동점,셀프빨래방,양천구,목2동,37.5418163,126.8689593
셀빨래방 신정점,셀프빨래방,양천구,신정2동,37.5180402,126.8726221
덱스터24시셀프빨래방 신정점,셀프빨래방,양천구,신정4동,37.5272525,126.8605163
워시프렌즈 셀프빨래방 신정목동점,셀프빨래방,양천구,신정4동,37.5251779,126.8562082
아쿠아워시셀프빨래방 신월신정점,셀프빨래방,양천구,신월4동,37.5211016,126.8400954
솔이네셀프빨래방 신월신정점,셀프빨래방,양천구,신월2동,37.5252723,126.8433975
셀프빨래방 스피드워시24 신정점,셀프빨래방,양천구,신정4동,37.5247571,126.8592816
워시프렌즈셀프빨래방 신정역점,셀프빨래방,양천구,신정4동,37.5248079,126.8508031
워시프렌즈 셀프빨래방 신정점,셀프빨래방,양천구,신정1동,37.5204658,126.8609641
빨리셀프크리닝 신월7동점,셀프빨래방,양천구,신월7동,37.5207623,126.8343086
셀프드라이크리닝 신월점,셀프빨래방,양천구,신월7동,37.5192138,126.8370086
워시쿱셀프프빨래방 신월동점,셀프빨래방,양천구,신월7동,37.5211735,126.8328161
코인365셀프빨래방 신월점,셀프빨래방,양천구,신월5동,37.5404729,126.8269239
워시타임 여의도점,셀프빨래방,영등포구,여의동,37.5213527,126.9373261
에코런드렛 셀프빨래방 영등포점,셀프빨래방,영등포구,영등포동,37.5176921,126.9126477
워시팡팡무인셀프빨래방 신길역점,셀프빨래방,영등포구,영등포동,37.5177407,126.9134607
워시엔조이 셀프빨래방 당산2동점,셀프빨래방,영등포구,당산2동,37.5278925,126.899677
워시앤드라이 당산점,셀프빨래방,영등포구,당산2동,37.5276769,126.9065475
코인빨래방,셀프빨래방,영등포구,영등포동,37.5235908,126.9098437
워시피플 셀프빨래방 당산역점,셀프빨래방,영등포구,당산2동,37.5323543,126.8999007
워시큐 빨래방 당산역점,셀프빨래방,영등포구,당산2동,37.53294,126.9051262
이지셀프빨래방,셀프빨래방,영등포구,신길6동,37.4987893,126.917808
워시프렌즈 셀프빨래방 신길삼거리점,셀프빨래방,영등포구,신길1동,37.5136802,126.9187163
더 런드리 셀프 빨래방 도림동점,셀프빨래방,영등포구,도림동,37.5072412,126.898737
호텔런드리셀프빨래방,셀프빨래방,영등포구,신길1동,37.511206,126.9169112
셀프 코인 빨래방,셀프빨래방,영등포구,도림동,37.5100201,126.897799
에코런드렛 빨래방&amp;아이스크림까페 당산직영점,셀프빨래방,영등포구,당산2동,37.5296307,126.9072003
셀프빨래방 양평동점,셀프빨래방,영등포구,양평1동,37.5220934,126.8844551
크린워시24셀프빨래방 신길점,셀프빨래방,영등포구,신길1동,37.5126426,126.9222195
셀빨래방 당산점,셀프빨래방,영등포구,당산1동,37.5234518,126.8982341
워시프렌즈셀프빨래방 양평동점,셀프빨래방,영등포구,양평1동,37.5248985,126.8833325
뽀송한빨래방,셀프빨래방,영등포구,영등포본동,37.5167625,126.9146045
셀빨래방 신길점,셀프빨래방,영등포구,신길1동,37.5141609,126.9212659
스플래쉬파티 이태원점,셀프빨래방,용산구,이태원2동,37.5375158,126.9889833
24시셀프빨래방플러스 한남점,셀프빨래방,용산구,한남동,37.5315959,127.0070001
더화이트셀프빨래방 원효로점,셀프빨래방,용산구,원효로1동,37.5379387,126.9679734
런드리24 용산트리스퀘어점,셀프빨래방,용산구,한강로동,37.5358259,126.9716393
런드리24 헤링턴스퀘어점,셀프빨래방,용산구,한강로동,37.5269056,126.9665662
해피런드리데이,셀프빨래방,용산구,용산2가동,37.5446001,126.9826302
화이트365 이태원해방촌점,셀프빨래방,용산구,용산2가동,37.5428043,126.9874553
크린토피아 코인워시365 용산해방촌점,셀프빨래방,용산구,용산2가동,37.5434818,126.9880358
워시피플 후암동108계단점,셀프빨래방,용산구,후암동,37.5464728,126.9820331
크린토피아 코인워시365 이태원보광점,셀프빨래방,용산구,보광동,37.5307956,126.9968811
크린토피아 코인워시365 용문시장점,셀프빨래방,용산구,용문동,37.5375828,126.9619029
코인워시24빨래터 숙대점,셀프빨래방,용산구,원효로1동,37.5407218,126.9686798
루미니빨래방,셀프빨래방,용산구,원효로1동,37.5414179,126.9693725
워시엔조이 용산남영점,셀프빨래방,용산구,원효로1동,37.5418376,126.969303
크린토피아 코인워시365 이촌2동점,셀프빨래방,용산구,이촌2동,37.5259425,126.9548122
셀프빨래방 보광점,셀프빨래방,용산구,보광동,37.5260917,126.9974961
화이트365 숙대입구역점,셀프빨래방,용산구,청파동,37.544214,126.9677761
24시동전빨래방,셀프빨래방,용산구,청파동,37.5529397,126.9661022
펭귄하우스 용산트럼프월드점,셀프빨래방,용산구,한강로동,37.523147,126.9629433
워시프레시 신용산점,셀프빨래방,용산구,한강로동,37.5270405,126.9648922
런드리24 펭귄하우스 래미안용산점,셀프빨래방,용산구,한강로동,37.5288174,126.9666538
셀프빨래방 후암점,셀프빨래방,용산구,후암동,37.5504232,126.9767077
런드리24 의식주테크랩,셀프빨래방,용산구,한강로동,37.5262304,126.9636531
우리동네휴빨래방,셀프빨래방,용산구,남영동,37.5475599,126.972387
AMPM워시큐 셀프빨래방 이태원점,셀프빨래방,용산구,이태원2동,37.5398403,126.989385
워시엔조이 경리단길점,셀프빨래방,용산구,이태원2동,37.5394171,126.9915476
런드리24 펭귄하우스 용산산천점,셀프빨래방,용산구,원효로2동,37.5344473,126.9516903
워시앤클린 용산점,셀프빨래방,용산구,원효로2동,37.5354782,126.9534744
24시셀프빨래방 성심여고점,셀프빨래방,용산구,원효로2동,37.5338018,126.9527318
런드리플러스,셀프빨래방,용산구,효창동,37.5411305,126.9624851
탑워시케어 셀프빨래방 후암동점,셀프빨래방,용산구,후암동,37.5491823,126.9799555
워시피플,셀프빨래방,은평구,응암3동,37.5859133,126.9192107
워시타임셀프빨래방 갈현점,셀프빨래방,은평구,갈현2동,37.6142772,126.9115264
크린토피아 코인365 셀프 빨래방 은평갈현동점,셀프빨래방,은평구,갈현2동,37.6170843,126.9128798
셀피아 은평녹번점,셀프빨래방,은평구,녹번동,37.6063059,126.9306436
워시프렌즈 24시셀프빨래방 응암백련산점,셀프빨래방,은평구,응암1동,37.5972504,126.92415
셀프24시 무인빨래방,세탁소,은평구,불광1동,37.6167358,126.9328221
워시피플셀프빨래방 불광동점,셀프빨래방,은평구,불광1동,37.6150687,126.9330007
마마운동화 이불빨래방 불광점,셀프빨래방,은평구,불광1동,37.6153803,126.9326701
워시엔조이 녹번동점,셀프빨래방,은평구,녹번동,37.603306,126.9248118
워시팡팡무인셀프빨래방 대조점,셀프빨래방,은평구,대조동,37.6108598,126.9206898
워시타임셀프빨래방,셀프빨래방,은평구,불광2동,37.6220977,126.9270989
셀프빨래방 불광점,셀프빨래방,은평구,불광2동,37.6220977,126.9270989
SH동그라미빨래방,셀프빨래방,은평구,불광2동,37.624791,126.9284037
워시앤케어 24시셀프빨래방 은평구산점,셀프빨래방,은평구,구산동,37.6097771,126.9124848
워시프렌즈 서울갈현동점,셀프빨래방,은평구,갈현2동,37.6126498,126.91615
코런셀프빨래방 갈현점,셀프빨래방,은평구,갈현2동,37.6153654,126.9172261
화이트365 녹번역점,셀프빨래방,은평구,응암1동,37.6011337,126.9299999
워시맨,셀프빨래방,은평구,응암1동,37.5997523,126.9228116
퀴클린24셀프빨래방,셀프빨래방,은평구,응암1동,37.6002681,126.9256813
화이트365 셀프빨래방 응암점,셀프빨래방,은평구,응암1동,37.5985453,126.919792
더런드리 응암점,셀프빨래방,은평구,응암1동,37.5976796,126.9206222
24시셀프빨래터 응암3호점,셀프빨래방,은평구,응암3동,37.5871281,126.9193639
워시엔조이 은평응암점,셀프빨래방,은평구,응암2동,37.5899411,126.9195147
크린토피아 코인워시 응암점,셀프빨래방,은평구,응암3동,37.5947874,126.9174374
코인워시24 응암점,셀프빨래방,은평구,응암3동,37.5950601,126.9176228
버블맨24 응암점,셀프빨래방,은평구,응암2동,37.5959776,126.9216903
신사워시24시셀프빨래방,셀프빨래방,은평구,증산동,37.5889477,126.9113472
셀프빨래방 워시피플 구파발역점,셀프빨래방,은평구,진관동,37.6397529,126.9199455
더런드리셀프빨래방,셀프빨래방,은평구,역촌동,37.6020382,126.9188082
에코런드렛빨래방앤아이스크림은 평진관동점,셀프빨래방,은평구,진관동,37.6333644,126.9178522
에코런드렛빨래방&amp;아이스크림 은평진관동점,셀프빨래방,은평구,진관동,37.6333644,126.9178522
워시프레쉬 셀프빨래방 은평점,셀프빨래방,은평구,대조동,37.6147054,126.9220434
워시피플 셀프빨래방 은평연신내역점,셀프빨래방,은평구,불광2동,37.6215792,126.9203697
스웨덴 런드리 운종가,셀프빨래방,종로구,숭인2동,37.5727419,127.0224194
런드리24 펭귄하우스 숭인점,셀프빨래방,종로구,숭인2동,37.574592,127.0223775
성대후문점런드리 익스프레스샵,셀프빨래방,종로구,혜화동,37.5889091,126.9951729
화이트365 성대점,셀프빨래방,종로구,혜화동,37.5886179,126.9951625
코인워시24 광화문점,셀프빨래방,종로구,사직동,37.5748205,126.9705761
크린업24 경복궁역점,셀프빨래방,종로구,사직동,37.5726308,126.9724408
코인워시24 셀프빨래방 성균관대점,셀프빨래방,종로구,혜화동,37.5863624,126.9969187
런드리익스프레스샵 성대정문점,셀프빨래방,종로구,혜화동,37.5842766,126.9968838
이지워시 교남점,셀프빨래방,종로구,교남동,37.5717267,126.9616255
빨래터,셀프빨래방,종로구,종로5.6가동,37.5748096,127.0039553
런드리투데이 광화문,셀프빨래방,종로구,종로1.2.3.4가동,37.5708445,126.9799237
위니아24크린샵 숭인점,셀프빨래방,종로구,숭인2동,37.5724078,127.0164417
AMPM워시큐 신영점,셀프빨래방,종로구,부암동,37.6062314,126.9608977
코인워시24빨래터 창신점,셀프빨래방,종로구,창신2동,37.5737579,127.0104533
크린토피아 코인워시365 독립문현대점,셀프빨래방,종로구,무악동,37.5743447,126.9591031
셀프빨래방24 경복궁점,셀프빨래방,종로구,사직동,37.5771635,126.9694373
AMPM워시큐 누하점,셀프빨래방,종로구,청운효자동,37.5787555,126.969113
워시프렌즈 서울혜화점,셀프빨래방,종로구,혜화동,37.5874357,127.0004599
AMPM워시큐 청계블루,셀프빨래방,중구,황학동,37.5702952,127.0220917
크린토피아 코인워시365 신당6동점,셀프빨래방,중구,동화동,37.5624239,127.0172987
화이트365 신당역점,셀프빨래방,중구,신당동,37.5668676,127.0171229
워시프렌즈 장충동국대점,셀프빨래방,중구,장충동,37.5587198,127.0022129
크린토피아 코인워시 신당약수점,셀프빨래방,중구,약수동,37.5540448,127.0118368
코인워시24시빨래터 서부역점,셀프빨래방,중구,중림동,37.556273,126.966883
마이리틀빨래방,셀프빨래방,중구,필동,37.5613263,126.9985982
워시프렌즈 셀프빨래방 신당상왕십리점,셀프빨래방,중구,신당5동,37.56478,127.02471
워시엔조이 황학동점,셀프빨래방,중구,황학동,37.5705244,127.0186906
런드리나인 브라운스톤 서울역점,셀프빨래방,중구,중림동,37.5608188,126.9682259
화이트365 신당점,셀프빨래방,중구,동화동,37.5613847,127.0180287
에코런드렛 빨래방 신당점,셀프빨래방,중구,신당5동,37.5650659,127.0224529
워시앤드라이 코인워시,셀프빨래방,중랑구,면목2동,37.5866718,127.0785794
워시쿱 셀프빨래방 면목점,셀프빨래방,중랑구,면목2동,37.5882413,127.0814964
24셀프빨래방 면목점,셀프빨래방,중랑구,면목본동,37.5885134,127.091945
워시엔조이 셀프빨래방 면목4동점,셀프빨래방,중랑구,면목4동,37.5760624,127.0808229
버블클린,셀프빨래방,중랑구,면목2동,37.5889564,127.0768358
워시쿱 태릉시장점,셀프빨래방,중랑구,중화2동,37.5988388,127.0755942
셀프24시빨래방 워시쿱중화점,셀프빨래방,중랑구,중화1동,37.5997682,127.0822468
워시앤조이셀프빨래방 중랑중화점,세탁소,중랑구,중화1동,37.6043695,127.0799654
워시엔조이 면목5동점,셀프빨래방,중랑구,면목5동,37.584116,127.0814042
셀빨래방 면목용마산점,셀프빨래방,중랑구,면목4동,37.5724537,127.0843301
런드리데이 면목동점셀프빨래방얼음왕국,세탁소,중랑구,면목4동,37.5745241,127.0817205
화이트365 사가정역점,셀프빨래방,중랑구,면목7동,37.5766282,127.0829928
런드리24 면목근린공원점,셀프빨래방,중랑구,면목제3.8동,37.58306,127.0845269
24시셀프빨래방 상봉역점,셀프빨래방,중랑구,상봉2동,37.5954524,127.0873369
셀프빨래방,세탁소,중랑구,상봉2동,37.5955693,127.0848773
우리동네빨래방 상봉점,셀프빨래방,중랑구,상봉2동,37.5955693,127.0848773
가나안24시셀프빨래방,셀프빨래방,중랑구,면목7동,37.5779459,127.0824243
셀프빨래방 상봉점,셀프빨래방,중랑구,상봉2동,37.5935213,127.0895552
24시 셀프 빨래방,세탁소,중랑구,망우본동,37.5949169,127.0958599
우리셀프빨래방 협동조합 망우점,셀프빨래방,중랑구,망우본동,37.5949169,127.0958599
워시프렌즈 셀프빨래방 중랑구 망우점,셀프빨래방,중랑구,망우본동,37.5966993,127.0974774
중화동빨래방,셀프빨래방,중랑구,중화1동,37.6023495,127.0823138
워시클린 셀프빨래방 중랑구상봉동점,셀프빨래방,중랑구,상봉2동,37.59449,127.0911162
셀프빨래방 중랑하늘점,셀프빨래방,중랑구,묵1동,37.6145997,127.0809575
워시화이트 셀프빨래방 중랑구망우동점,셀프빨래방,중랑구,망우본동,37.6074691,127.1058739
셀빨래방 망우점,셀프빨래방,중랑구,망우3동,37.5942028,127.1010646
워시스토리 서울면목서일대점,셀프빨래방,중랑구,면목제3.8동,37.5858711,127.0952206
워시프렌즈 셀프빨래방 중랑구 신내동점,셀프빨래방,중랑구,신내1동,37.6003142,127.0987882
24시셀프빨래방 묵동점,셀프빨래방,중랑구,묵2동,37.6086758,127.0762107
워쉬앤워쉬 셀프빨래방,셀프빨래방,중랑구,중화2동,37.6005601,127.0781674
런드리나인 중랑점,셀프빨래방,중랑구,면목2동,37.5909648,127.0729566
워시&amp;워시 상봉점,셀프빨래방,중랑구,상봉2동,37.5923129,127.0758556
24시셀프빨래방 중랑점,셀프빨래방,중랑구,상봉2동,37.5929086,127.0780109
다이소 강남구청역점,다이소,강남구,삼성2동,37.517,127.0418
다이소 강남대로점,다이소,서초구,서초4동,37.49878,127.0267
다이소 강남역2호점,다이소,강남구,역삼1동,37.49877,127.029
다이소 거여점,다이소,송파구,거여2동,37.49287,127.1451
다이소 경기마트길음점,다이소,성북구,길음1동,37.60312,127.0205
다이소 교대역점,다이소,서초구,서초4동,37.49497,127.0171
다이소 구의역점,다이소,광진구,자양2동,37.53654,127.0847
다이소 군자역점,다이소,광진구,능동,37.55674,127.0797
다이소 길동점,다이소,강동구,길동,37.53882,127.1407
다이소 낙성대점,다이소,관악구,인헌동,37.47597,126.9657
다이소 남대문시장점,다이소,중구,회현동,37.56073,126.9794
다이소 내방역점,다이소,서초구,방배1동,37.48729,126.9932
다이소 노량진점,다이소,동작구,노량진1동,37.51342,126.9447
다이소 당산점,다이소,영등포구,당산2동,37.53413,126.901
다이소 대치점,다이소,강남구,대치1동,37.49826,127.0601
다이소 도곡본점,다이소,강남구,도곡1동,37.49146,127.0389
다이소 독산점,다이소,금천구,독산1동,37.46981,126.8975
다이소 동대문점,다이소,종로구,창신2동,37.57222,127.012
다이소 동서울터미널점,다이소,광진구,구의3동,37.53345,127.0934
다이소 둔촌점,다이소,강동구,성내3동,37.52521,127.1348
다이소 롯데마트 강변점,다이소,광진구,구의3동,37.53573,127.0957
다이소 롯데마트 송파점,다이소,송파구,문정2동,37.49174,127.1178
다이소 롯데마트 잠실점,다이소,송파구,잠실3동,37.51142,127.0975
다이소 롯데마트청량리점,다이소,동대문구,전농1동,37.57903,127.0465
다이소 롯데슈퍼가락점,다이소,송파구,가락본동,37.5029,127.1253
다이소 롯데슈퍼전농점,다이소,동대문구,전농2동,37.57646,127.0598
다이소 망원점,다이소,마포구,망원1동,37.55541,126.9063
다이소 명동 본점,다이소,중구,명동,37.56399,126.9847
다이소 명동M플라자점,다이소,중구,명동,37.56254,126.9852
다이소 발산역점,다이소,강서구,우장산동,37.55804,126.8384
다이소 방배역점,다이소,서초구,방배1동,37.48147,126.997
다이소 방이시장점,다이소,송파구,방이2동,37.51176,127.114
다이소 봉천1호점,다이소,관악구,행운동,37.48409,126.9553
다이소 봉천2호점,다이소,관악구,은천동,37.48259,126.9425
다이소 GS슈퍼관악점,다이소,관악구,청룡동,37.47945,126.9491
다이소 사당1호점,다이소,동작구,사당1동,37.47686,126.9816
다이소 사당2호점,다이소,동작구,사당1동,37.47693,126.9774
다이소 사평역점,다이소,서초구,반포1동,37.50416,127.0154
다이소 서울대입구점,다이소,관악구,낙성대동,37.48037,126.9543
다이소 석촌점,다이소,송파구,석촌동,37.50142,127.1076
다이소 선유도역점,다이소,영등포구,양평2동,37.53813,126.8934
다이소 성신여대역점,다이소,성북구,동선동,37.59181,127.0168
다이소 수유2호점,다이소,강북구,수유3동,37.63677,127.0233
다이소 수유시장점,다이소,강북구,미아동,37.63171,127.0244
다이소 신당역점,다이소,중구,신당5동,37.56545,127.0202
다이소 신길점,다이소,영등포구,신길4동,37.50592,126.9114
다이소 신림점,다이소,관악구,삼성동,37.47179,126.9333
다이소 신림역점,다이소,관악구,서원동,37.48376,126.9283
다이소 신월점,다이소,양천구,신월1동,37.53365,126.8357
다이소 신촌 명물거리점,다이소,서대문구,신촌동,37.55832,126.9381
다이소 신촌본점,다이소,마포구,서교동,37.55532,126.9356
다이소 신촌3호점,다이소,서대문구,신촌동,37.55559,126.9364
다이소 신촌4호점,다이소,서대문구,신촌동,37.55878,126.9423
다이소 쌍문역점,다이소,도봉구,쌍문3동,37.64952,127.0349
다이소 아성산업점,다이소,강남구,도곡1동,37.49146,127.0389
다이소 아차산역점,다이소,광진구,구의2동,37.55153,127.0902
다이소 안암동점,다이소,성북구,안암동,37.58393,127.0297
다이소 양재2호점,다이소,서초구,양재1동,37.48451,127.0366
다이소 압구정로데오점,다이소,강남구,압구정동,37.52855,127.0365
다이소 영동프라자점,다이소,강남구,논현1동,37.51,127.0238
다이소 오류동점,다이소,구로구,오류1동,37.49638,126.8439
다이소 옥수역점,다이소,성동구,옥수동,37.54079,127.0185
다이소 외대역점,다이소,동대문구,이문1동,37.59589,127.0619
다이소 응암역점,다이소,은평구,신사1동,37.59877,126.9153
다이소 이대역점,다이소,서대문구,신촌동,37.55709,126.9463
다이소 잠실점,다이소,송파구,잠실본동,37.50851,127.0868
다이소 종각역점,다이소,종로구,종로1.2.3.4가동,37.56992,126.9847
다이소 창동3호점,다이소,도봉구,창2동,37.64279,127.0367
다이소 천호점,다이소,강동구,천호2동,37.54145,127.1248
다이소 청담역점,다이소,강남구,청담동,37.51937,127.0515
다이소 청량리점,다이소,동대문구,전농1동,37.5797,127.045
다이소 코엑스몰점,다이소,강남구,삼성1동,37.51281,127.0572
다이소 하나로클럽양재점,다이소,서초구,양재2동,37.46309,127.0435
다이소 한성대입구역점,다이소,성북구,삼선동,37.58875,127.0074
다이소 한티역점,다이소,강남구,대치4동,37.49808,127.0524
다이소 혜화점,다이소,종로구,혜화동,37.58324,126.9987
다이소 홈플러스영등포점,다이소,영등포구,문래동,37.51824,126.8959
다이소 홍제점,다이소,서대문구,홍제2동,37.58721,126.9464
다이소 홍제역점,다이소,서대문구,홍제1동,37.58867,126.9439
CU 역삼세명점,편의점,강남구,역삼2동,37.4969316312304,127.041922868076
CU 역삼시티점,편의점,강남구,역삼1동,37.49957597403522,127.03053176295856
CU 역삼점,편의점,강남구,역삼1동,37.50468379014726,127.0469679213698
CU 역삼황제펭귄점,편의점,강남구,역삼1동,37.5067902982726,127.036938414866
CU 역삼포스틸점,편의점,강남구,역삼1동,37.49906858777519,127.03425442031283
CU 역삼신웅점,편의점,강남구,역삼2동,37.50146701933633,127.04012611274632
CU 역삼강남점,편의점,강남구,역삼1동,37.499724980184,127.029186062117
CU 역삼본점,편의점,강남구,역삼1동,37.5040614211494,127.025740591839
CU 강남시티점,편의점,강남구,역삼1동,37.5042684278351,127.044641275415
CU 역삼하나점,편의점,강남구,역삼1동,37.50430794448064,127.03422740894705
CU 역삼경남점,편의점,강남구,역삼2동,37.50027953609066,127.04257840015669
CU 역삼한서점,편의점,강남구,역삼2동,37.4981903949566,127.039128063967
CU 역삼센타점,편의점,강남구,역삼1동,37.4959611400576,127.033825545228
CU 역삼윤슬점,편의점,강남구,역삼2동,37.5016559045206,127.043589094264
CU 역삼푸르지오점,편의점,강남구,역삼2동,37.4969479879745,127.046373903216
CU 역삼역촌점,편의점,강남구,역삼1동,37.5059661048947,127.033137895312
CU 한티래미안점,편의점,강남구,역삼2동,37.4970658663037,127.05111337625
CU 역삼비엘점,편의점,강남구,역삼1동,37.4929444630436,127.030923708953
CU 역삼목화점,편의점,강남구,역삼1동,37.5089110945517,127.042780101724
CU 역삼벚꽃길점,편의점,강남구,역삼1동,37.4912863909069,127.034940632641
CU 역삼황제시티점,편의점,강남구,역삼1동,37.5074779245701,127.039238094873
CU 역삼건화점,편의점,강남구,역삼2동,37.4934897650762,127.041979745685
CU 역삼유토빌점,편의점,강남구,역삼1동,37.498866137805,127.0332874262364
CU 역삼카이로스점,편의점,강남구,역삼1동,37.49171981567807,127.03159827453864
CU 강남푸르지오점,편의점,강남구,역삼1동,37.49781570574347,127.02935607938043
CU 선릉디오빌점,편의점,강남구,역삼2동,37.5033760036745,127.04803132327464
CU 역삼우인점,편의점,강남구,역삼1동,37.49649934908793,127.0293001527754
CU 선릉SK허브점,편의점,강남구,역삼2동,37.50335837785626,127.04926178205896
CU 역삼우리점,편의점,강남구,역삼1동,37.4960934289896,127.037344770403
CU 역삼형지점,편의점,강남구,역삼1동,37.4944528512203,127.039632718007
CU 역삼사랑점,편의점,강남구,역삼1동,37.50703048844,127.040824656754
CU 강남스타일점,편의점,강남구,역삼1동,37.49369230537607,127.0308991396612
CU 역삼드림점,편의점,강남구,역삼2동,37.50239964589457,127.04489575345968
CU 역삼제이점,편의점,강남구,역삼1동,37.4946729747209,127.035947505566
CU 역삼미래점,편의점,강남구,역삼1동,37.5038452011683,127.038846014447
CU 역삼경복점,편의점,강남구,역삼1동,37.50870649409675,127.0404274478213
CU 역삼퓨처스점,편의점,강남구,역삼1동,37.4985967120248,127.036425484755
CU 역삼디오빌점,편의점,강남구,역삼1동,37.4973710303014,127.03122521115
CU 선릉제일점,편의점,강남구,역삼1동,37.50550791791648,127.04769678826446
CU 역삼행복점,편의점,강남구,역삼1동,37.5056376048789,127.031803192293
CU 역삼타운점,편의점,강남구,역삼2동,37.4987043931801,127.043086400255
CU 역삼삼부자점,편의점,강남구,역삼1동,37.5057282414019,127.044149036266
CU 역삼푸른점,편의점,강남구,역삼1동,37.4904510077449,127.032298806412
CU 역삼에클라트점,편의점,강남구,역삼1동,37.498406171604174,127.03485800344346
CU 선릉역점,편의점,강남구,삼성2동,37.505070163692,127.04955922161
CU BGF사옥점,편의점,강남구,삼성2동,37.50579790106871,127.05021001822244
CU 삼성메가점,편의점,강남구,삼성2동,37.5102228779005,127.053973724367
CU 삼성리저브점,편의점,강남구,삼성2동,37.5080912813381,127.05552847054
CU 삼성마젤란점,편의점,강남구,삼성1동,37.5086774445845,127.05821170069744
CU 삼성우주점,편의점,강남구,삼성1동,37.5162268810927,127.060163126584
CU 삼성1호점,편의점,강남구,삼성2동,37.5064240529483,127.05239212307
CU 삼성대웅점,편의점,강남구,삼성1동,37.5147217796485,127.064387775732
CU 삼성위브점,편의점,강남구,삼성1동,37.5083497287246,127.0577024863072
CU 삼성힐스테이트점,편의점,강남구,삼성2동,37.5127532185633,127.051230394696
CU 삼성신코점,편의점,강남구,삼성1동,37.51530121772889,127.06421747338824
CU 삼성본점,편의점,강남구,삼성1동,37.5079246583156,127.057283683342
CU 삼성럭키점,편의점,강남구,삼성2동,37.5130872328757,127.045243744856
CU 삼성가멸점,편의점,강남구,삼성2동,37.5136293856212,127.050320456699
CU 강남CC점,편의점,강남구,삼성2동,37.511730201435135,127.04783308305733
CU 삼성백암점,편의점,강남구,삼성1동,37.5106844097416,127.065967787568
CU 삼성아이파크점,편의점,강남구,삼성2동,37.5160368689253,127.050317548618
CU 청담블루밍점,편의점,강남구,삼성1동,37.5167424566321,127.052159532454
CU 삼성한우리점,편의점,강남구,삼성1동,37.5109921595415,127.056281644574
CU 강남삼성점,편의점,강남구,삼성2동,37.515302649851634,127.043242987474
CU 대치점,편의점,강남구,대치2동,37.5073524420408,127.062757319766
CU 대치메트로칸점,편의점,강남구,대치2동,37.50700538188846,127.05961284446168
CU 뉴대치플러스점,편의점,강남구,대치2동,37.5063480459581,127.058819496507
CU 강남청담점,편의점,강남구,청담동,37.5217785239328,127.057217350052
CU 대치동부점,편의점,강남구,대치4동,37.5056478797708,127.055264273083
CU 청담자이점,편의점,강남구,청담동,37.5239667513851,127.055979162686
CU 강남해성점,편의점,강남구,대치2동,37.5065514790489,127.057382161621
CU 컬쳐랜드타워점,편의점,강남구,대치2동,37.503746373853005,127.06650001602492
CU 청담진흥점,편의점,강남구,청담동,37.52009405608278,127.05038927610916
CU 대치세정점,편의점,강남구,대치2동,37.5026798802557,127.059166078146
CU 청담청아점,편의점,강남구,청담동,37.51872099101474,127.04807509260672
CU 대치타운중앙점,편의점,강남구,대치4동,37.5035076155402,127.054131746498
CU 대치메가점,편의점,강남구,대치4동,37.502826919556,127.055076719822
CU 대치예스점,편의점,강남구,대치4동,37.50386135587125,127.05292640458364
CU 청담영동점,편의점,강남구,청담동,37.5253017699133,127.052640627831
CU 대치금강점,편의점,강남구,대치4동,37.5045650976614,127.050744139023
CU 청담카운티점,편의점,강남구,청담동,37.52334994605,127.049041886371
CU 청담삼환점,편의점,강남구,청담동,37.5221792299244,127.047606719442
CU 대치예영점,편의점,강남구,대치4동,37.4998720947369,127.059665979655
CU 청담오션점,편의점,강남구,청담동,37.5185401817088,127.045047950014
CU 청담강변점,편의점,강남구,청담동,37.5253393134778,127.049151791346
CU 청담노아점,편의점,강남구,청담동,37.5247933041965,127.044617301908
CU 청담보람점,편의점,강남구,청담동,37.5271769483758,127.040758704543
CU 청담엘점,편의점,강남구,청담동,37.52760958108642,127.04976645243757
CU 청담경원점,편의점,강남구,청담동,37.52359309051467,127.04482473754616
CU 청담럭키점,편의점,강남구,청담동,37.5268321383604,127.049476322894
CU 청담현대점,편의점,강남구,청담동,37.5268939567062,127.05237928457
CU 압구정로데오점,편의점,강남구,압구정동,37.5269830379577,127.038658900007
CU 압구정거리점,편의점,강남구,압구정동,37.5253112434833,127.037210001318
CU 논현골드점,편의점,강남구,논현2동,37.5174751843265,127.040079255973
CU 논현한진점,편의점,강남구,논현2동,37.5210151868457,127.037452209838
CU 신사세화점,편의점,강남구,압구정동,37.526411170473,127.034902706387
CU 논현대승점,편의점,강남구,논현2동,37.5185571587401,127.037740562395
CU클린업피부과의원 청담점,편의점,강남구,청담동,37.5262544438021,127.040405239419
CU 청담노아점 ATM,편의점,강남구,청담동,37.524798712766106,127.04461051750692
CU 청담청아점 ATM,편의점,강남구,청담동,37.5187381059196,127.04808528419616
CU ATM 청담자이점,편의점,강남구,청담동,37.5239883647079,127.056001803996
CU 청담보람점 ATM,편의점,강남구,청담동,37.52720398076363,127.040751931411
CU 청담영동점 ATM,편의점,강남구,청담동,37.52530179107431,127.0525931141728
CU 청담강변점 ATM,편의점,강남구,청담동,37.52531769413245,127.04914046437958
CU 청담경원점 ATM,편의점,강남구,청담동,37.5235929992511,127.045064562947
CU ATM 강남청담점,편의점,강남구,청담동,37.5217821695601,127.057131379755
CU ATM 청담삼환점,편의점,강남구,청담동,37.5221287901965,127.047565963112
CU 청담엘점 ATM,편의점,강남구,청담동,37.527596073682304,127.04974834246254
CU 압구정로데오점 ATM,편의점,강남구,압구정동,37.526973128412365,127.03865436968044
CU ATM 청담블루밍점,편의점,강남구,삼성1동,37.5167208305573,127.052164041996
CU 삼성아이파크점 ATM,편의점,강남구,삼성2동,37.516036868436494,127.05031867975585
CU 압구정거리점 ATM,편의점,강남구,압구정동,37.52529322878027,127.03719302320232
CU 논현골드점 ATM,편의점,강남구,논현2동,37.51747879255405,127.04006681514356
CU 논현한진점 ATM,편의점,강남구,논현2동,37.520842307478176,127.03709352965195
CU ATM 강남삼성점,편의점,강남구,삼성2동,37.515268415858,127.043231656456
CU 논현대승점 ATM,편의점,강남구,논현2동,37.51856527426533,127.03772020530896
CU 논현동화점,편의점,강남구,논현1동,37.5107509905003,127.023290754352
CU 학동역점,편의점,강남구,논현2동,37.51444630752157,127.03332262274746
CU 논현혜성점,편의점,강남구,논현1동,37.5061772479098,127.024488182075
CU 논현선정릉점,편의점,강남구,논현2동,37.51045661283796,127.04195644549748
CU 논현성원점,편의점,강남구,논현2동,37.5116616670313,127.040781936157
CU 논현광명점,편의점,강남구,논현1동,37.50754064556634,127.02361888079626
CU 논현우람점,편의점,강남구,논현1동,37.5125438582705,127.0280396080632
CU 강남논현타운점,편의점,강남구,논현1동,37.506295786545,127.026320426457
CU 논현세관사거리점,편의점,강남구,논현2동,37.5148004196703,127.036319115623
CU 논현성덕점,편의점,강남구,논현1동,37.50670821670619,127.0273339448978
CU 논현APEX점,편의점,강남구,논현1동,37.51844412457884,127.02587561656782
CU 논현제일점,편의점,강남구,논현2동,37.5084556786535,127.035889645477
CU 논현윤진점,편의점,강남구,논현1동,37.50812236399536,127.02913504229646
CU 논현두산위브점,편의점,강남구,논현2동,37.51192927502581,127.03805279511256
CU 논현행복점,편의점,강남구,논현1동,37.51251929068464,127.02903495371172
CU 논현역드림점,편의점,강남구,논현1동,37.51278950539881,127.02092288714256
CU 논현학사점,편의점,강남구,논현1동,37.5179115152607,127.026401425051
CU 논현한미점,편의점,강남구,논현1동,37.507512126970205,127.03350163274833
CU 논현센터점,편의점,강남구,논현2동,37.5158579527288,127.030843801565
CU 강남거평점,편의점,강남구,논현1동,37.5059169030284,127.028315351734
CU 논현세원점,편의점,강남구,논현2동,37.5129106247847,127.034615908012
CU 논현영동점,편의점,강남구,논현1동,37.5170939360756,127.023903548769
CU 논현평화점,편의점,강남구,논현1동,37.5091175077626,127.02731672686
CU 신사렉스점,편의점,강남구,논현1동,37.5143951851424,127.020405285467
CU 논현경복점,편의점,강남구,논현2동,37.5101735032218,127.039917004589
CU 논현세기점,편의점,강남구,논현1동,37.5111283413454,127.028204213888
CU 신사성환점,편의점,강남구,신사동,37.5170873455715,127.020627724677
CU 신사강남점,편의점,강남구,신사동,37.52028903023476,127.0274214760227
CU 가로수길점,편의점,강남구,신사동,37.5196816157579,127.023912292569
CU 신사프리미어점,편의점,강남구,신사동,37.5214834260698,127.024859699025
CU 신사중앙점,편의점,강남구,압구정동,37.521575603171,127.03128506911
CU 신사드림점,편의점,강남구,신사동,37.52199251911,127.019972962757
CU 압구정역점,편의점,강남구,압구정동,37.5267731365008,127.029128718743
CU 신사에비뉴점,편의점,강남구,신사동,37.523858850085,127.022978076835
CU 신사한남점,편의점,강남구,신사동,37.5229068525775,127.02103431135863
CU 강남소망점,편의점,강남구,압구정동,37.5245126587885,127.032078181788
CU 신사신구점,편의점,강남구,압구정동,37.52772130358393,127.03142226199596
CU 압구정CGV점,편의점,강남구,압구정동,37.52443950976367,127.02925451308384
CU 압구정미성점,편의점,강남구,신사동,37.5242811828134,127.019267665007
CU 신사현대점,편의점,강남구,압구정동,37.527248611136,127.030142555055
CU 대치삼성점,편의점,강남구,대치2동,37.49897570860241,127.06291767902266
CU 대치기량점,편의점,강남구,대치4동,37.5011592469208,127.05085944906
CU 대치본점,편의점,강남구,대치4동,37.4985426073982,127.058873309975
CU 대치태양점,편의점,강남구,대치4동,37.4991294676651,127.052491067371
CU 대치한국점,편의점,강남구,대치4동,37.503213791535394,127.05027162056768
CU 대치롯데점,편의점,강남구,대치4동,37.49774436633893,127.05306118319456
CU 대치샤인점,편의점,강남구,대치4동,37.4977626581675,127.054444240783
CU 대치은마동문점,편의점,강남구,대치2동,37.49839151537263,127.06839513169254
CU 대치쌍용점,편의점,강남구,대치2동,37.4985256961012,127.070050853264
CU 대치은마센트럴점,편의점,강남구,대치2동,37.49587344007776,127.0631118414164
CU 대치타운점,편의점,강남구,대치4동,37.4999317367029,127.055612899307
CU 대치은마점,편의점,강남구,대치1동,37.4983686056053,127.060863507122
CU 대치선경점,편의점,강남구,대치1동,37.4933873499346,127.06180933367
CU 대치현대점,편의점,강남구,대치2동,37.4996615937131,127.06077747796328
CU 타워팰리스점,편의점,강남구,도곡2동,37.4886409676633,127.054215997873
CU 도곡아크로타워점,편의점,강남구,도곡2동,37.4880188984662,127.051008839281
CU 도곡우성점,편의점,강남구,도곡2동,37.486850808445,127.051889989386
CU 개포우성점,편의점,강남구,도곡2동,37.4864504853018,127.050445819047
CU 강남세브란스점,편의점,강남구,도곡1동,37.4926157822499,127.046791876553
CU 개포사랑점,편의점,강남구,개포2동,37.4831056441497,127.060661176385
CU 매봉산점,편의점,강남구,도곡1동,37.4869724848118,127.045214422532
CU 도곡아이파크점,편의점,강남구,도곡1동,37.49207782835031,127.04214404884384
CU 매봉역점,편의점,강남구,도곡2동,37.4856713634578,127.045385501765
CU 양재점,편의점,강남구,도곡1동,37.48496497372552,127.03475678137497
CU 도곡대원점,편의점,강남구,도곡2동,37.4835668481182,127.044755588225
CU 양재디오빌점,편의점,강남구,도곡1동,37.48638170376551,127.03356342817388
CU SPC2023점,편의점,강남구,도곡1동,37.4860613342449,127.040904829106
CU 도곡럭키점,편의점,강남구,도곡1동,37.4905320909463,127.03835063353
CU 포이점,편의점,강남구,개포4동,37.4790316426347,127.048135578798
CU 대청수성점,편의점,강남구,개포3동,37.4941601690987,127.077505584673
CU 개포스카이점,편의점,강남구,개포1동,37.4776681574685,127.058673779662
CU 포이대원점,편의점,강남구,개포4동,37.475011196322086,127.05269125466847
CU 일원우성점,편의점,강남구,개포3동,37.491648532848,127.076937604346
CU 일원한솔점,편의점,강남구,일원본동,37.482388804886696,127.0797603379592
CU 일원가람점,편의점,강남구,일원본동,37.48286783502862,127.08410023444478
CU 일원다솜점,편의점,강남구,일원1동,37.4905687188693,127.08539905758
CU 일원마루공원점,편의점,강남구,일원1동,37.4950239506378,127.084490427073
CU 개포루체하임점,편의점,강남구,개포3동,37.490436988621234,127.08052762922529
CU 강남일원점,편의점,강남구,일원1동,37.4934763709845,127.086496980106
CU 강남행복점,편의점,강남구,일원1동,37.4913666102721,127.088394233547
CU 삼성암센터점,편의점,강남구,일원본동,37.489103619357,127.087939274265
CU 미가마트점,편의점,강남구,일원본동,37.4885324632939,127.085369602115
CU 수서까치마을점,편의점,강남구,일원본동,37.4841227721819,127.086823131346
CU 자곡힐스테이트점,편의점,강남구,세곡동,37.47102724499837,127.08958325962908
CU 강남남명학사점,편의점,강남구,세곡동,37.4720574475096,127.096023673025
CU 강남신동아점,편의점,강남구,수서동,37.48720582942918,127.0996273871571
CU 세곡푸르지오점,편의점,강남구,세곡동,37.4667799694849,127.09296824675
CU 강남자곡점,편의점,강남구,세곡동,37.4738146720156,127.10216567262
CU 수서나산점,편의점,강남구,수서동,37.48707612137413,127.10377123370182
CU 세곡지웰점,편의점,강남구,세곡동,37.46670148337675,127.10078143298986
CU 자곡현대점,편의점,강남구,세곡동,37.474731282521546,127.10492650713456
CU 수서럭키점,편의점,강남구,수서동,37.4903715903277,127.101134359136
CU 수서센트럴점,편의점,강남구,세곡동,37.47865301818671,127.10733106814112
CU 수서한아름점,편의점,강남구,수서동,37.4893319390857,127.104118097588
CU 율현중앙점,편의점,강남구,세곡동,37.471812907346425,127.10694144857136
CU 강남율현점,편의점,강남구,세곡동,37.4735492157304,127.107864146979
CU 세곡리엔점,편의점,강남구,세곡동,37.46434538919039,127.10384606334688
CU 길동한신점,편의점,강동구,길동,37.53598003778392,127.13720735034616
CU 길동미소점,편의점,강동구,길동,37.5349510325973,127.139567876153
CU 강동천중로점,편의점,강동구,길동,37.5395387737562,127.142708397333
CU 길동우성점,편의점,강동구,길동,37.5377605334538,127.140930870761
CU 길동SK점,편의점,강동구,길동,37.53644801175391,127.13612202002192
CU 강동풍차점,편의점,강동구,길동,37.5384744042187,127.136863426053
CU 강동오네뜨점,편의점,강동구,길동,37.5422685776742,127.144374691399
CU 길동마루점,편의점,강동구,길동,37.53672533277509,127.13937204775908
CU 길동엘리트점,편의점,강동구,길동,37.5406167632,127.145340077552
CU 강동성심병원점,편의점,강동구,길동,37.5363975443888,127.135348020037
CU 강동축복점,편의점,강동구,길동,37.5382980285729,127.146444420872
CU 강동개나리점,편의점,강동구,길동,37.5409707473668,127.138687463322
CU 강동프라자점,편의점,강동구,둔촌2동,37.5361367524859,127.14843153002
CU 강동해오름점,편의점,강동구,명일1동,37.5449797852683,127.143551607337
CU 둔촌점,편의점,강동구,둔촌2동,37.5335193525901,127.143321460319
CU 둔촌포레점,편의점,강동구,둔촌2동,37.53262645522804,127.1462658853116
CU 천호아이엔지점,편의점,강동구,천호1동,37.5428835428829,127.139474034093
CU 강동구민회관점,편의점,강동구,천호1동,37.54515116946079,127.14189983353673
CU 뉴굽은다리점,편의점,강동구,천호1동,37.5447234417642,127.140184693403
CU 둔촌예은점,편의점,강동구,둔촌2동,37.5323783034019,127.139120710721
CU 명일명성점,편의점,강동구,명일1동,37.547891833836026,127.1479139224392
CU 천호승리점,편의점,강동구,천호1동,37.5451116918843,127.138726818366
CU 성내으뜸점,편의점,강동구,성내3동,37.533856750057566,127.13610939034074
CU 둔촌하이츠점,편의점,강동구,둔촌2동,37.5301325350116,127.142541136274
CU 천호햇살점,편의점,강동구,천호1동,37.5479164887785,127.141017886269
CU 천호제일점,편의점,강동구,천호1동,37.5430429333668,127.135681391487
CU 성내센트럴점,편의점,강동구,성내3동,37.532602321447,127.135531234437
CU 천호3동점,편의점,강동구,천호3동,37.5397576218066,127.13434027337
CU 천호1동점,편의점,강동구,천호1동,37.54547993210378,127.13663860029868
CU 명일엘지점,편의점,강동구,명일1동,37.54955592173442,127.14651284115698
CU 강동하이빌점,편의점,강동구,천호3동,37.53717770384261,127.13386043319498
CU 천호빌리지점,편의점,강동구,천호1동,37.546698732772,127.137629843728
CU 명일한영점,편의점,강동구,명일2동,37.5476238098021,127.15457860089762
CU 강동역점,편의점,강동구,성내2동,37.5354779523955,127.132676181028
CU 명일상암로점,편의점,강동구,명일2동,37.5490371134105,127.152779955584
CU 둔촌미소점,편의점,강동구,둔촌2동,37.52964635834404,127.13767769987064
CU 성내하루점,편의점,강동구,성내2동,37.53389216343268,127.13270165689032
CU 강동센트럴점,편의점,강동구,천호1동,37.54852774219249,127.13608966578758
CU 강동힐탑점,편의점,강동구,천호3동,37.5365858454613,127.131365664521
CU 강동은혜점,편의점,강동구,암사1동,37.5476149577355,127.133788565969
CU 천호고분점,편의점,강동구,천호2동,37.5423857003709,127.130443454932
CU 천호우성점,편의점,강동구,천호3동,37.541080419866624,127.13020129957
CU 천호스타점,편의점,강동구,천호2동,37.545705024853,127.132024405535
CU 강동한솔점,편의점,강동구,암사1동,37.5513631302263,127.13998776923
CU 뉴강동블루점,편의점,강동구,천호3동,37.539563841737845,127.12956050054991
CU 강동이안컴홈스테이점,편의점,강동구,천호3동,37.537385870279,127.128970636073
CU 천호푸르지오점,편의점,강동구,천호2동,37.54049931924265,127.1260080561034
CU 강동천일점,편의점,강동구,천호2동,37.5449358837957,127.128474433354
CU 천호문구거리점,편의점,강동구,천호2동,37.5401847404639,127.122709197886
CU 천호파크뷰점,편의점,강동구,천호2동,37.5468224407187,127.126091121454
CU 천호강변점,편의점,강동구,천호2동,37.5435437913422,127.122587969276
CU 천호암사점,편의점,강동구,천호2동,37.5482197693947,127.127878045571
CU 암사브라운스톤점,편의점,강동구,천호2동,37.54906860719426,127.12944228557328
CU 강동천호대로점,편의점,강동구,성내2동,37.53720087713595,127.12674021564024
CU 강풀만화거리점,편의점,강동구,성내2동,37.5356116390452,127.129119192538
CU 성내시네마점,편의점,강동구,성내2동,37.5365071779696,127.124128794321
CU 암사상암로점,편의점,강동구,암사1동,37.5487893893747,127.130993270417
CU 성내새빛점,편의점,강동구,성내2동,37.5347253988244,127.125456390596
CU 성내최고점,편의점,강동구,성내2동,37.5343844948463,127.130740656597
CU 성내베스트점,편의점,강동구,성내2동,37.5329269400471,127.128861132148
CU 암사태성점,편의점,강동구,암사2동,37.5514707010788,127.127756852381
CU 성내풍성로점,편의점,강동구,성내2동,37.5331449316065,127.127245874062
CU 암사중앙점,편의점,강동구,암사1동,37.5511417160403,127.128697838398
CU 선사현대점,편의점,강동구,암사2동,37.5510988995436,127.124940629954
CU 강동어울림점,편의점,강동구,암사1동,37.551731652352686,127.13375744733656
CU 강일리버스트점,편의점,강동구,강일동,37.57044759478678,127.1723307344731
CU 강일5단지점,편의점,강동구,강일동,37.56682291341877,127.17778608582722
CU 강일풍성점,편의점,강동구,강일동,37.5648062283249,127.17855436281786
CU 고덕2단지점,편의점,강동구,강일동,37.55832020098784,127.17294564932791
CU 고덕풍경채점,편의점,강동구,고덕2동,37.56377276895353,127.16876585049263
CU 고덕에이스점,편의점,강동구,고덕2동,37.561443700924,127.170018052139
CU 강동그라시움점,편의점,강동구,고덕2동,37.55890744328986,127.16872997713988
CU 고덕아르테온1상가점,편의점,강동구,상일1동,37.5566765206248,127.168769085047
CU 강동유원센터점,편의점,강동구,고덕2동,37.5653488875304,127.160158046657
CU 고덕본점,편의점,강동구,고덕2동,37.56224733224219,127.1623777270194
CU 고덕알에프텍사옥점,편의점,강동구,고덕2동,37.5660595478873,127.160323692623
CU 그라시움점,편의점,강동구,고덕2동,37.55708439651426,127.16449535835552
CU 고덕일화사옥점,편의점,강동구,고덕2동,37.5665062098226,127.15983000972471
CU 고덕아르테온점,편의점,강동구,상일1동,37.5556552039511,127.165292353785
CU 리엔파크본점,편의점,강동구,상일2동,37.55420523151327,127.1802537984494
CU 고덕자이점,편의점,강동구,상일1동,37.5533184811622,127.168786409669
CU 고덕센트럴점,편의점,강동구,상일1동,37.55324643550009,127.16813099344502
CU 고덕베네루체점,편의점,강동구,상일1동,37.55019966559086,127.1684806200762
CU 고덕동남점,편의점,강동구,고덕1동,37.5605770429643,127.15556966009107
CU 삼성이앤에이점,편의점,강동구,상일2동,37.5489009097095,127.17557077416
CU 고덕벨리온점,편의점,강동구,명일2동,37.55469233392,127.155113791647
CU 강동고덕점,편의점,강동구,고덕1동,37.560389937424,127.152576772603
CU 고덕래미안점,편의점,강동구,고덕1동,37.55857086017448,127.1511492843254
CU 명일스타힐스점,편의점,강동구,명일2동,37.5522657353549,127.155959789057
CU 명일우량점,편의점,강동구,명일2동,37.55196730340989,127.15405454993488
CU 명일점,편의점,강동구,명일1동,37.5524770257034,127.142778331327
CU 암사진주점,편의점,강동구,암사1동,37.5545782996126,127.135778127651
CU 암사선사점,편의점,강동구,암사3동,37.5556469118273,127.134966348454
CU 암사승리점,편의점,강동구,암사1동,37.5540946120403,127.134071759643
CU 뉴강동미소점,편의점,강동구,암사1동,37.5518365509333,127.135790128806
CU 상일천호대로점,편의점,강동구,상일1동,37.5463137546724,127.170300530269
CU 뉴암사한강점,편의점,강동구,암사3동,37.5557163402781,127.130919382636
CU 강동스타점,편의점,강동구,암사1동,37.55344862917088,127.13001458034262
CU 암사소망점,편의점,강동구,암사1동,37.5536758932208,127.131449978406
CU 암사한일점,편의점,강동구,암사1동,37.5518133178898,127.130831074353
CU 성내둔촌점,편의점,강동구,성내3동,37.5243437053956,127.13398682579
CU 강동성내점,편의점,강동구,성내1동,37.5305202585485,127.128132923734
CU 성내한빛점,편의점,강동구,성내3동,37.5269280188666,127.133774237938
CU 성내제일점,편의점,강동구,성내3동,37.5288732458543,127.131397390947
CU 강동나이스점,편의점,강동구,성내1동,37.5299790897597,127.125303628104
CU 강동성내로점,편의점,강동구,성내1동,37.52733770749896,127.1241158615098
CU 성내샛별점,편의점,강동구,성내1동,37.5270134596994,127.12655667656
CU 성내타운점,편의점,강동구,성내3동,37.53126500363115,127.13256123814908
CU 성내포레스점,편의점,강동구,성내2동,37.532864211338826,127.12261687427156
CU 성내호원점,편의점,강동구,성내3동,37.5264806083897,127.131017604239
CU 성내발리점,편의점,강동구,성내3동,37.529114115274,127.13512216768
CU 성내점,편의점,강동구,성내2동,37.5308853971403,127.131202932416
CU 성내해오름점,편의점,강동구,성내3동,37.5286903942163,127.133759283954
CU 포레온센터점,편의점,강동구,둔촌1동,37.5235211874779,127.136264824247
CU 미아대성점,편의점,강북구,송중동,37.6226456402736,127.031227693535
CU 미아삼양점,편의점,강북구,삼양동,37.62010755221761,127.01840432093684
CU 미아해링턴점,편의점,강북구,송중동,37.61900948386932,127.0336693985952
CU 미아동성점,편의점,강북구,송중동,37.6236581086828,127.032126401166
CU 미아행운점,편의점,강북구,송천동,37.6216798535135,127.027305754652
CU 미아역점,편의점,강북구,미아동,37.6263335074846,127.027065036144
CU 미아동부센트레빌점,편의점,강북구,송천동,37.6134318928557,127.024645631458
CU 강북센터피스점,편의점,강북구,송천동,37.6126987531439,127.027522195032
CU 미아엄마손점,편의점,강북구,삼각산동,37.6163971709776,127.019112449486
CU 미아은혜점,편의점,강북구,삼양동,37.628987780994095,127.01774945876012
CU 미아북서울자이점,편의점,강북구,삼양동,37.62665947188115,127.01878203001496
CU 미아행복점,편의점,강북구,송중동,37.6225887110505,127.028318766134
CU 미아으뜸점,편의점,강북구,미아동,37.6246260049947,127.023475765118
CU 미아에이스점,편의점,강북구,송천동,37.62473122965494,127.01958355531455
CU 미아대양점,편의점,강북구,송중동,37.6207650161957,127.028716792853
CU 미아미아점,편의점,강북구,송중동,37.6122214258618,127.033709376589
CU 수유역푸르지오시티점,편의점,강북구,미아동,37.6339510505386,127.02428080793
CU SK북한산시티점,편의점,강북구,삼각산동,37.6199569218928,127.012849470456
CU 미아동부점,편의점,강북구,송천동,37.6151396464292,127.027024734084
CU 미아스타점,편의점,강북구,삼양동,37.630160084624194,127.02234350733852
CU 수유시장점,편의점,강북구,미아동,37.629869537742536,127.02450605224892
CU 미아창문점,편의점,강북구,송중동,37.6138176142037,127.037879262266
CU 미아봉실점,편의점,강북구,미아동,37.6313109935449,127.025086561666
CU 강북신성점,편의점,강북구,송중동,37.6193808808679,127.029599767997
CU 미아마인점,편의점,강북구,삼양동,37.62500521806796,127.0122488293326
CU 미아캐슬점,편의점,강북구,송중동,37.61648534167771,127.03529362465036
CU 창문여중고점,편의점,강북구,송중동,37.6134010970589,127.035827892073
CU 미아중앙점,편의점,강북구,송천동,37.6182501944701,127.025512592991
CU 강북오패산로점,편의점,강북구,미아동,37.6255327991783,127.029692830909
CU 미아폴라리스점,편의점,강북구,미아동,37.6252037388492,127.022441709251
CU SK매일주유소점,편의점,강북구,삼양동,37.6227995868232,127.01913447806
CU 수유대원점,편의점,강북구,수유1동,37.632617195928,127.02168715934
CU 번동덕릉로점,편의점,강북구,번2동,37.6347593878958,127.027676478206
CU 강북드림점,편의점,강북구,번1동,37.6350087436589,127.024589311538
CU 강북번우점,편의점,강북구,번2동,37.6342501966785,127.031785417806
CU 수유빨래골점,편의점,강북구,수유1동,37.6306924139952,127.017967375896
CU 번동베스트점,편의점,강북구,번2동,37.6323102881778,127.035260323071
CU 수유삼양점,편의점,강북구,수유1동,37.63411836425069,127.02098971342002
CU L강북지사4층점,편의점,강북구,번1동,37.63534048804263,127.0237011926197
CU 번동주공점,편의점,강북구,번2동,37.62895192834184,127.0393279234372
CU 에피소드수유점,편의점,강북구,수유3동,37.63687224706055,127.02327908231332
CU 번동북부점,편의점,강북구,번1동,37.6366520725848,127.02886792547947
CU L강북지사9층점,편의점,강북구,번1동,37.6353404880426,127.02370119262
CU 번동솔그린점,편의점,강북구,번3동,37.626902047029056,127.03973692276406
CU 강북수유점,편의점,강북구,수유3동,37.6377517273733,127.022668680059
CU 강북번동점,편의점,강북구,번1동,37.6399849939844,127.028130489471
CU 번동중앙점,편의점,강북구,번1동,37.6392741732198,127.031474848967
CU 북서울꿈의숲점,편의점,강북구,번3동,37.6210157079266,127.045268292238
CU 수유번동점,편의점,강북구,번1동,37.6394046079946,127.02876022191
CU L강북지사6층점,편의점,강북구,번1동,37.6353368777246,127.023732913909
CU 수유중앙점,편의점,강북구,수유3동,37.63868473233222,127.02473667933288
CU 수유빌리지점,편의점,강북구,인수동,37.6437102028973,127.015455092619
CU 수유헤아림점,편의점,강북구,수유3동,37.6367549181457,127.019408835007
CU 가오리사거리점,편의점,강북구,인수동,37.6405421714531,127.016705293904
CU 수유그린점,편의점,강북구,수유3동,37.6414816637852,127.02338815912
CU 화계역점,편의점,강북구,수유1동,37.6338029674061,127.015498357356
CU 수유대로점,편의점,강북구,수유2동,37.6460584528971,127.024425253877
CU 우이천벚꽃점,편의점,강북구,수유3동,37.6446766268801,127.027246185442
CU 우이하이츠점,편의점,강북구,인수동,37.6383667922493,127.012700819644
CU 강북제일점,편의점,강북구,수유2동,37.6452237274678,127.016407205409
CU 수유계성점,편의점,강북구,수유2동,37.6478464602353,127.022114245798
CU 강북이안점,편의점,강북구,수유1동,37.62657746124469,127.01204404850787
CU 우이시장점,편의점,강북구,수유2동,37.6473425994569,127.018062036149
CU 강북그랜드점,편의점,강북구,수유3동,37.641903103356,127.024478279416
CU 광산사거리점,편의점,강북구,수유3동,37.64334486700236,127.02355077166722
CU 수유한신점,편의점,강북구,인수동,37.6352916935462,127.013033381596
CU 수유효정점,편의점,강북구,인수동,37.643454100628,127.008878716293
CU 강북태광점,편의점,강북구,수유1동,37.62935237309436,127.0132271951259
CU 수유북부시장점,편의점,강북구,인수동,37.6361239671666,127.01502526378
CU 수유희망점,편의점,강북구,수유3동,37.6393451343506,127.020099508856
CU 수유타운점,편의점,강북구,수유2동,37.6454285335873,127.020373091344
CU 수유한천점,편의점,강북구,수유3동,37.6424173729133,127.029278054912
CU 강북신흥점,편의점,강북구,수유3동,37.6425333495293,127.026527046773
CU 강북인수점,편의점,강북구,인수동,37.6445648344501,127.011009046958
CU 수유미래점,편의점,강북구,인수동,37.636845186231,127.011139332046
CU 수유화계사점,편의점,강북구,인수동,37.6342749276785,127.01664497853
CU 수유베니키아점,편의점,강북구,수유2동,37.64756545006513,127.01592614032656
CU 수유행복점,편의점,강북구,우이동,37.6473107838572,127.013416211869
CU 광산사거리1호점,편의점,강북구,수유2동,37.6435074156281,127.021609877146
CU 수유사랑점,편의점,강북구,우이동,37.64629134860458,127.00819465526055
CU 강북예술회관점,편의점,강북구,인수동,37.6412597705066,127.013455912843
CU 국립재활원점,편의점,강북구,인수동,37.6396923637188,127.010428226674
CU 419사거리점,편의점,강북구,우이동,37.6494190957986,127.013321405844
CU 우이장학관점,편의점,강북구,우이동,37.66299700039613,127.01237973934998
CU 우이푸르지오점,편의점,강북구,우이동,37.65458731131989,127.01164060602814
CU 우이상아점,편의점,강북구,우이동,37.6579929732761,127.012144317743
CU 가양3단지점,편의점,강서구,가양2동,37.56444908377692,126.8554263162816
CU 가양휴먼빌점,편의점,강서구,가양2동,37.563653835536606,126.85133958646878
CU 양천향교점,편의점,강서구,가양1동,37.57013326958093,126.8405810631691
CU 강서지식산업센터점,편의점,강서구,가양1동,37.564826158141344,126.84860378008857
CU 가양시크릿점,편의점,강서구,가양1동,37.57051471405833,126.84283851118632
CU 강서웨스턴점,편의점,강서구,가양1동,37.5696604794509,126.848278182105
CU 가양현대점,편의점,강서구,가양3동,37.560702787753975,126.856942261002
CU KH가양주유소점,편의점,강서구,가양1동,37.56974140494467,126.84197193139548
CU 마곡DM시티점,편의점,강서구,가양1동,37.56876047392353,126.84081829935008
CU 강서오토플렉스점,편의점,강서구,가양1동,37.5659653513948,126.844699844093
CU 가양오피스점,편의점,강서구,가양1동,37.5670868026318,126.842442754007
CU 마곡엠코점,편의점,강서구,가양1동,37.56746566567372,126.8407599313978
CU 마곡디엠프라자점,편의점,강서구,가양1동,37.56672906196604,126.8384094048103
CU 마곡투웨니점,편의점,강서구,가양1동,37.56516140428001,126.83978576075651
CU 등촌SBS점,편의점,강서구,등촌3동,37.5624741927033,126.851149517846
CU 강서마곡점,편의점,강서구,가양1동,37.5715105829158,126.838367379397
CU 등촌5단지점,편의점,강서구,등촌3동,37.5616662052104,126.845007570453
CU 호서아이엔점,편의점,강서구,등촌3동,37.562625080642,126.840435209855
CU 마곡아르디에점,편의점,강서구,가양1동,37.56343341489656,126.83921108433356
CU 마곡바이셀프점,편의점,강서구,가양1동,37.57446353734624,126.83734444321684
CU 강서스타점,편의점,강서구,등촌3동,37.5586046582518,126.843669357265
CU 등촌주공점,편의점,강서구,등촌3동,37.5586046629298,126.849215080657
CU 발산센터점,편의점,강서구,등촌3동,37.55917285308972,126.840056632042
CU 발산열린점,편의점,강서구,가양1동,37.56013550391999,126.83769929152864
CU 마곡필굿점,편의점,강서구,가양1동,37.56062367652181,126.8369240740843
CU 서울식물원점,편의점,강서구,가양1동,37.56515796343591,126.83275679779987
CU 등촌에이스에이존점,편의점,강서구,등촌1동,37.5585664648461,126.856150704198
CU KBS스포츠월드점,편의점,강서구,화곡6동,37.55664218132903,126.84842454615264
CU 강서부민병원점,편의점,강서구,등촌3동,37.556671481720905,126.8509154709555
CU 우장산힐스테이트점,편의점,강서구,우장산동,37.5569410443143,126.842034051452
CU 마곡엠팰리체점,편의점,강서구,가양1동,37.55990613606946,126.83537507220224
CU 나눔등촌CGV점,편의점,강서구,등촌1동,37.557791257716325,126.85586359358064
CU 마곡사이언스점,편의점,강서구,가양1동,37.56056998251915,126.83395432204632
CU 강서다온점,편의점,강서구,우장산동,37.5575596756798,126.840431298889
CU 발산힐스테이트점,편의점,강서구,우장산동,37.55676790865887,126.83793860494389
CU 마곡사이언스타점,편의점,강서구,가양1동,37.560210680098,126.832180450133
CU 이대서울병원점,편의점,강서구,발산1동,37.55734384570443,126.83612540813712
CU 강서오피스점,편의점,강서구,화곡6동,37.5548752348809,126.85262229393
CU 이웰메디파크점,편의점,강서구,발산1동,37.55775577173414,126.8349542586496
CU 이대서울장례식장점,편의점,강서구,발산1동,37.55726292114971,126.83624442014172
CU 화곡아이파크점,편의점,강서구,화곡6동,37.5541586164916,126.850215419651
CU 마곡푸르지오점,편의점,강서구,가양1동,37.5603851684756,126.828209679873
CU 화곡정원점,편의점,강서구,화곡6동,37.5535193629304,126.852004790489
CU 마곡나루역캐슬파크점,편의점,강서구,가양1동,37.56794537623922,126.82756183827848
CU 강서하늘점,편의점,강서구,공항동,37.559240453701776,126.8102609948726
CU 공항빌리지점,편의점,강서구,공항동,37.5549900846252,126.818625034909
CU 마곡9단지점,편의점,강서구,공항동,37.5626642297071,126.817107874352
CU 공항타운점,편의점,강서구,공항동,37.5559333211772,126.813353370056
CU 뉴공항1호점,편의점,강서구,공항동,37.56094101137842,126.80993637879943
CU 송정역점,편의점,강서구,공항동,37.5614996230811,126.812185024945
CU 마곡13단지점,편의점,강서구,공항동,37.55858237622181,126.8192252251902
CU 대한항공씨앤디김포점,편의점,강서구,공항동,37.5517881904462,126.814722851276
CU 공항메트로점,편의점,강서구,공항동,37.56389399197974,126.81132106438643
CU 공항스타점,편의점,강서구,공항동,37.5576692755278,126.814901822618
CU 송정공항점,편의점,강서구,공항동,37.5602529884867,126.812400933512
CU 아시아나항공본사점,편의점,강서구,공항동,37.5456133639469,126.798059729368
CU 김포공항국내선점,편의점,강서구,공항동,37.55894005653292,126.80288817902118
CU M김포공항역2호점,편의점,강서구,공항동,37.5623133888185,126.801278876317
CU C김포아시아나격납고점,편의점,강서구,공항동,37.558936522469,126.802930064362
CU M김포공항역점,편의점,강서구,공항동,37.56206826015638,126.80124444061092
CU 방화오피스1호점,편의점,강서구,방화2동,37.5626967332327,126.807515436777
CU 방화오피스2호점,편의점,강서구,방화2동,37.56330028672689,126.80744597289578
CU 방화또오기점,편의점,강서구,방화1동,37.566514602301055,126.81506443756273
CU 마곡8단지점,편의점,강서구,방화1동,37.5637215739939,126.82035258806
CU 방화제일점,편의점,강서구,방화2동,37.5676344257353,126.81157423462356
CU 방화초교점,편의점,강서구,방화2동,37.5676374996186,126.807890970985
CU 신방화점,편의점,강서구,방화1동,37.56679105365016,126.81844814613264
CU 김포국제공항국제선,편의점,강서구,방화2동,37.566219376581365,126.80138282195264
CU 마곡미라벨점,편의점,강서구,방화1동,37.56235638749823,126.82382155006532
CU 방화리치점,편의점,강서구,방화2동,37.56995702822452,126.8126052512745
CU 나눔방화점,편의점,강서구,방화1동,37.5700147402463,126.815496113178
CU 퍼시픽호텔점,편의점,강서구,발산1동,37.5486314523578,126.819607986214
CU 메이필드호텔점,편의점,강서구,발산1동,37.547394405219386,126.81727871837712
CU 개화산아너스빌점,편의점,강서구,방화2동,37.57169020745565,126.80902385913068
CU 수명파크점,편의점,강서구,발산1동,37.55366154572733,126.82548751968672
CU 에쓰오일스카이주유소점,편의점,강서구,방화2동,37.5714861888131,126.804381020388
CU 방화플라워점,편의점,강서구,방화1동,37.57220023051819,126.81414252703824
CU 마곡르웨스트점,편의점,강서구,방화1동,37.5638093607194,126.825417444814
CU 개화산역점,편의점,강서구,방화1동,37.5727917322973,126.806021261341
CU 마곡한솔점,편의점,강서구,가양1동,37.5693115578465,126.822878108719
CU 수명산7단지점,편의점,강서구,발산1동,37.54763987093596,126.82225948441082
CU 마곡웰튼점,편의점,강서구,가양1동,37.5672825304792,126.825305203297
CU 강서도레미점,편의점,강서구,방화1동,37.5722252572826,126.819235269523
CU 방화행운점,편의점,강서구,방화1동,37.5743969942307,126.813660487749
CU 마곡1단지점,편의점,강서구,발산1동,37.555123210353,126.82935575052858
CU 마곡더랜드점,편의점,강서구,가양1동,37.56921627838408,126.8266725989493
CU 마곡퀸즈파크점,편의점,강서구,발산1동,37.5588079099042,126.830973720121
CU 등촌능안점,편의점,강서구,등촌2동,37.5459869758599,126.860859660993
CU 등촌오피스점,편의점,강서구,등촌1동,37.55408121737511,126.86524244680707
CU 등촌행복점,편의점,강서구,등촌1동,37.5550547729049,126.860992191291
CU NH서울타워점,편의점,강서구,등촌1동,37.55661818443247,126.86191505901762
CU 등촌보보카운티점,편의점,강서구,등촌1동,37.5521453727827,126.863238327035
CU 등촌디앤써밋점,편의점,강서구,등촌1동,37.5515557341284,126.864466138977
CU 등촌원룸점,편의점,강서구,등촌1동,37.55658785669815,126.86064189625633
CU 등촌심미점,편의점,강서구,등촌1동,37.55383528362256,126.86370602964776
CU 강서등촌점,편의점,강서구,등촌2동,37.5494898087111,126.860649454218
CU 등촌보람점,편의점,강서구,등촌1동,37.5556236504387,126.857505389656
CU 방화역점,편의점,강서구,방화3동,37.5783919343119,126.812482226793
CU 방화1호점,편의점,강서구,방화3동,37.57789850430913,126.81903363159644
CU 방화메아리점,편의점,강서구,방화3동,37.5784390904909,126.814959099446
CU 방화꽃길점,편의점,강서구,방화1동,37.5751634791229,126.810665489676
CU 개화점,편의점,강서구,방화3동,37.5803003275801,126.813677475249
CU 방화대성주유소점,편의점,강서구,가양1동,37.57293330366306,126.82331214233744
CU 마곡보타닉푸르지오1점,편의점,강서구,가양1동,37.56704515488024,126.82747449278536
CU 염창트리타워점,편의점,강서구,염창동,37.5486653634395,126.87769786752
CU 염창로보점,편의점,강서구,염창동,37.5481648049312,126.872118653459
CU 염창1호점,편의점,강서구,염창동,37.5498485225281,126.875256100702
CU 염창동아점,편의점,강서구,염창동,37.54944024051052,126.87684900151947
CU 염창하나점,편의점,강서구,염창동,37.5533031815829,126.87294054214
CU 강서블루나인점,편의점,강서구,염창동,37.557089210039,126.864075846821
CU 염창오피스점,편의점,강서구,염창동,37.54788219086978,126.87749998224324
CU 염창JK블라썸호텔점,편의점,강서구,염창동,37.5567959852443,126.867688935588
CU 염창중앙점,편의점,강서구,염창동,37.5527247123094,126.866384502744
CU 염창대로점,편의점,강서구,염창동,37.5552801726948,126.865794835691
CU 염창월드점,편의점,강서구,염창동,37.5508045280968,126.86946492127
CU 염창역점,편의점,강서구,염창동,37.5471908359699,126.873803018472
CU 염창세계로점,편의점,강서구,염창동,37.554551205623895,126.87223788902534
CU 화곡보리점,편의점,강서구,화곡6동,37.55044461151912,126.84732807388438
CU 강서경찰서점,편의점,강서구,화곡6동,37.5519784440622,126.850405378416
CU 화곡청산점,편의점,강서구,화곡1동,37.5410832602327,126.839197990661
CU 화곡더숨점,편의점,강서구,화곡본동,37.538239496284135,126.84510698882306
CU 화곡사거리점,편의점,강서구,화곡1동,37.5307171603756,126.846574079116
CU 뉴강서가로공원점,편의점,강서구,화곡1동,37.53736265309893,126.8402446598218
CU 강서태양점,편의점,강서구,화곡2동,37.5350905670157,126.853634262569
CU 화곡이슬점,편의점,강서구,화곡1동,37.5297413405824,126.84724130817452
CU 강서스카이점,편의점,강서구,화곡1동,37.52867705887162,126.8457014785728
CU 화곡대로점,편의점,강서구,우장산동,37.54604896143902,126.8448079342564
CU 까치산역점,편의점,강서구,화곡1동,37.5330009001249,126.845655235214
CU 화곡혜인점,편의점,강서구,화곡3동,37.5442373281752,126.833116986696
CU 화곡드림점,편의점,강서구,화곡8동,37.5385530980144,126.847223333871
CU 뉴화곡우리마을점,편의점,강서구,화곡1동,37.52889866606049,126.84158863295777
CU 화곡월정점,편의점,강서구,화곡1동,37.532721462538326,126.83684681655213
CU 곰달래본점,편의점,강서구,화곡4동,37.532282021247,126.861752895486
CU 화곡동도점,편의점,강서구,화곡본동,37.548787470959,126.847866715736
CU 화곡우리점,편의점,강서구,화곡4동,37.5346597234924,126.857925443354
CU 화곡행복점,편의점,강서구,화곡1동,37.532309671289006,126.8407826626568
CU 강서엠파이어시티점,편의점,강서구,화곡3동,37.54278317632572,126.8390008462159
CU 화곡대원점,편의점,강서구,화곡3동,37.54273555397529,126.83647308774816
CU 화곡수정점,편의점,강서구,화곡8동,37.5345894329576,126.847791471515
CU 강서해링턴점,편의점,강서구,화곡3동,37.545952667596666,126.83621937416032
CU 화곡곰달래점,편의점,강서구,화곡2동,37.5323564177941,126.857635652869
CU 화곡양서점,편의점,강서구,화곡1동,37.53414473039594,126.84191696047084
CU 화곡보리수점,편의점,강서구,화곡본동,37.54559307150349,126.84828623557372
CU 화곡일등점,편의점,강서구,우장산동,37.5422746973797,126.840761473907
CU 화곡와이즈점,편의점,강서구,화곡본동,37.5417189712693,126.842921605387
CU 화곡PMK점,편의점,강서구,화곡1동,37.5303571239116,126.841393218498
CU 강서아람점,편의점,강서구,화곡4동,37.5312863877087,126.86096164452
CU 화곡푸르지오점,편의점,강서구,화곡3동,37.5420723095631,126.831271760723
CU 화곡트윈캐슬점,편의점,강서구,화곡본동,37.54162809114969,126.85065349694864
CU 화곡행운점,편의점,강서구,화곡8동,37.5300880383998,126.850616547433
CU 강서사랑점,편의점,강서구,화곡8동,37.537176283811775,126.8499665301654
CU 강서한아름점,편의점,강서구,화곡4동,37.5356301163699,126.861734269295
CU 화곡초록마을점,편의점,강서구,화곡8동,37.53598726687987,126.84669452956872
CU 뉴화곡에스점,편의점,강서구,화곡1동,37.5281361588107,126.841394527139
CU 강서중앙점,편의점,강서구,화곡1동,37.5283733334815,126.839549968016
CU 소나무공원점,편의점,강서구,화곡본동,37.5470152969219,126.847237750147
CU 강서화곡점,편의점,강서구,화곡본동,37.5465240866119,126.846414949472
CU 화곡그랜드점,편의점,강서구,화곡3동,37.5477822717611,126.833412357183
CU 강서대로점,편의점,강서구,화곡1동,37.537050211678,126.838408975973
CU 까치산시장점,편의점,강서구,화곡8동,37.53212867119613,126.84909416539476
CU 화곡영광점,편의점,강서구,화곡4동,37.5362864310827,126.856026058723
CU 봉천두산점,편의점,관악구,은천동,37.4835448803728,126.943885934736
CU 관악드림점,편의점,관악구,성현동,37.4889345513396,126.949524242318
CU 서울대우신점,편의점,관악구,낙성대동,37.480038010142,126.95397572751
CU 관악첼시점,편의점,관악구,보라매동,37.4925043174316,126.931569528767
CU 관악동아타운점,편의점,관악구,성현동,37.4889303534886,126.957145360054
CU 관악무지개점,편의점,관악구,낙성대동,37.4777030227219,126.955089630614
CU 관악은천로점,편의점,관악구,은천동,37.4861151663473,126.937901548883
CU 당곡역점,편의점,관악구,보라매동,37.4894796823155,126.928602971678
CU 낙성대역점,편의점,관악구,인헌동,37.4758789040161,126.964257080313
CU 서울대파인점,편의점,관악구,청룡동,37.4809405355208,126.948896479227
CU 서울대입구역점,편의점,관악구,행운동,37.4811227824119,126.953866523462
CU 인헌센트럴점,편의점,관악구,인헌동,37.47393858268279,126.96579096690463
CU 낙성대입구점,편의점,관악구,낙성대동,37.4775388755066,126.959630048065
CU 뉴낙성인헌점,편의점,관악구,인헌동,37.4747686832775,126.966737960862
CU 관악은천길점,편의점,관악구,은천동,37.4863471327994,126.942257906285
CU 관악푸른점,편의점,관악구,인헌동,37.4752332416108,126.962516382589
CU 관악이글점,편의점,관악구,행운동,37.4795745823374,126.957982816455
CU 관악한샘점,편의점,관악구,성현동,37.4865977656371,126.955048124327
CU 관악트윈스점,편의점,관악구,중앙동,37.4835001776864,126.950726384632
CU 서울대이편한세상점,편의점,관악구,청룡동,37.47682485933749,126.94326689786236
CU 서울대글로벌생활관점,편의점,관악구,낙성대동,37.46488344002387,126.95750950296797
CU 관악구청점,편의점,관악구,청룡동,37.47874625694082,126.95025466440735
CU 관악허브점,편의점,관악구,보라매동,37.489632072297,126.931857095411
CU 관악하정점,편의점,관악구,중앙동,37.48206697327503,126.94724839033292
CU 관악프렌즈점,편의점,관악구,성현동,37.48649944053,126.952452113082
CU 관악향산점,편의점,관악구,은천동,37.4831513769987,126.94633633042
CU 관악써니점,편의점,관악구,청룡동,37.47978255244626,126.9426032659221
CU 관악파인빌점,편의점,관악구,중앙동,37.4864074030954,126.947861565242
CU 관악청림점,편의점,관악구,청림동,37.4909700892108,126.956746167239
CU 관악청룡점,편의점,관악구,청룡동,37.4813037109425,126.939503088807
CU 관악장군점,편의점,관악구,청룡동,37.4828782045993,126.938592786455
CU 낙성현대점,편의점,관악구,낙성대동,37.47518356693461,126.95942782099856
CU 뉴봉천역점,편의점,관악구,청룡동,37.4819586857779,126.94300975667
CU 행운야베스점,편의점,관악구,행운동,37.4785954256092,126.961325339957
CU 관악쑥고개점,편의점,관악구,청룡동,37.47932575799163,126.94452560884328
CU 관악봉천점,편의점,관악구,은천동,37.48474220740739,126.93998876407892
CU 관악딸부자점,편의점,관악구,행운동,37.4837437344924,126.956013148981
CU 봉천승리점,편의점,관악구,행운동,37.4824188263166,126.959880684053
CU 관악은천점,편의점,관악구,성현동,37.48711066905559,126.9489601186052
CU 관악코리아점,편의점,관악구,보라매동,37.4873184804846,126.935414132911
CU 서울대서연점,편의점,관악구,낙성대동,37.4769812890426,126.952715909277
CU 보라매우리점,편의점,관악구,보라매동,37.4879598654899,126.93196716297
CU 관악국회단지점,편의점,관악구,은천동,37.4876399721128,126.940230679413
CU 관악인헌길점,편의점,관악구,인헌동,37.47075058760755,126.96503727561796
CU 서울대파인2호점,편의점,관악구,청룡동,37.48046748588646,126.94885044671952
CU 서울대관정도서관점,편의점,관악구,대학동,37.45904382854208,126.95238021000458
CU 서울대학교신양점,편의점,관악구,대학동,37.4628599914251,126.951097118668
CU 신림역최강점,편의점,관악구,서원동,37.4837585881142,126.930630020347
CU 신림제이점,편의점,관악구,대학동,37.46829900769927,126.9386725389639
CU 관악뉴포레점,편의점,관악구,조원동,37.4840406515236,126.903708856696
CU 신림역점,편의점,관악구,서원동,37.48328944866041,126.9295902615375
CU 뉴관악리베로점,편의점,관악구,신림동,37.4870195824091,126.925128409658
CU 관악동방점,편의점,관악구,대학동,37.4687375021507,126.934751867142
CU 신림에코리움점,편의점,관악구,서원동,37.482196272436695,126.92916730199876
CU 관악해오름점,편의점,관악구,미성동,37.480238506745,126.91438771112
CU 신림역제일점,편의점,관악구,서원동,37.4837794433798,126.927841814572
CU 신림테라스점,편의점,관악구,대학동,37.4704862715863,126.936233499161
CU 신림사거리점,편의점,관악구,신림동,37.4856697506312,126.929318925896
CU 관악리치점,편의점,관악구,난곡동,37.4725797690409,126.917976685784
CU 관악이레점,편의점,관악구,서원동,37.48287088886498,126.93502223823218
CU 관악시흥대로점,편의점,관악구,조원동,37.4829256008313,126.902000762442
CU 신림동희점,편의점,관악구,서림동,37.4723492660516,126.935689286467
CU 뉴관악플러스점,편의점,관악구,미성동,37.4742569389256,126.913470909492
CU 관악스위트점,편의점,관악구,신림동,37.4874760193886,126.930411748675
CU 신림리더스점,편의점,관악구,서원동,37.475532117501,126.93019219695
CU 관악사랑점,편의점,관악구,대학동,37.46838944395164,126.937591783869
CU 신림장미점,편의점,관악구,대학동,37.47051954888285,126.9413351996962
CU 관악대로점,편의점,관악구,조원동,37.480644284853,126.906494501083
CU 관악네잎클로버점,편의점,관악구,신사동,37.486561894583176,126.92101427333154
CU 신림중앙점,편의점,관악구,대학동,37.467574311048,126.936430402675
CU 신대방역점,편의점,관악구,신사동,37.486230785151015,126.91393538236989
CU 신림CS점,편의점,관악구,미성동,37.481228318586304,126.91261491140176
CU 관악산점,편의점,관악구,대학동,37.468724454282,126.944482574599
CU 난곡정복점,편의점,관악구,미성동,37.4752961833527,126.916504036558
CU 남강학사점,편의점,관악구,난곡동,37.4724949510562,126.920432184041
CU 관악행운점,편의점,관악구,서림동,37.4716514405415,126.938235700071
CU 서울대301동점,편의점,관악구,대학동,37.4501094999741,126.952669540365
CU 남부순환로점,편의점,관악구,서원동,37.4840955848697,126.937103846457
CU 관악미림점,편의점,관악구,대학동,37.46778637301805,126.93215274947754
CU 관악신사로점,편의점,관악구,신사동,37.4889197194069,126.916909506512
CU 관악서림점,편의점,관악구,서림동,37.47281646312313,126.94001638792338
CU 신림행운점,편의점,관악구,신원동,37.4827398156322,126.92375443544
CU 관악선경점,편의점,관악구,대학동,37.4687990398546,126.942190015761
CU 관악킹점,편의점,관악구,미성동,37.4801469529126,126.911198402548
CU 관악미리내점,편의점,관악구,서림동,37.4751083571487,126.93774220931
CU 관악은하점,편의점,관악구,신사동,37.4845934647066,126.920080156131
CU 관악서원점,편의점,관악구,서원동,37.4792740624147,126.931825801202
CU 관악산으뜸휴게소점,편의점,관악구,대학동,37.4685813577258,126.9448331114316
CU 관악신림로점,편의점,관악구,신림동,37.4861277106822,126.929734587207
CU 관악남현점,편의점,관악구,남현동,37.47497012414194,126.98140635471708
CU 사당남현점,편의점,관악구,남현동,37.4750608962749,126.97999883444
CU 관악예술인점,편의점,관악구,남현동,37.4756326446222,126.973432570123
CU 관악하늘점,편의점,관악구,인헌동,37.4723655804212,126.966353532212
CU 관악낙성점,편의점,관악구,행운동,37.4781813604454,126.962564655075
CU 구의푸른점,편의점,광진구,구의2동,37.54876013323889,127.09122880528652
CU 구의공원점,편의점,광진구,구의3동,37.537614930720665,127.09446592072408
CU 구의지너스점,편의점,광진구,구의3동,37.5353785577602,127.093447075696
CU 아차산본점,편의점,광진구,구의2동,37.553270505427,127.093562210471
CU 구의본점,편의점,광진구,구의1동,37.539827711769256,127.0863241961785
CU 구의르네점,편의점,광진구,구의2동,37.545324481731,127.089056510779
CU 뉴광진구의로점,편의점,광진구,구의3동,37.5405044757307,127.092136398087
CU 구의중앙점,편의점,광진구,구의1동,37.53870899025189,127.0883278894254
CU 아차산빌리지점,편의점,광진구,구의2동,37.55247080465173,127.09533343444151
CU 구의프라임점,편의점,광진구,구의3동,37.5377197895711,127.097371655642
CU 자양로점,편의점,광진구,구의2동,37.5475603956901,127.088342859105
CU 광진스타점,편의점,광진구,구의3동,37.53817903364798,127.09208714639036
CU 뉴광진구의점,편의점,광진구,구의1동,37.5375045096513,127.084418398847
CU 구의그랜드점,편의점,광진구,구의1동,37.5436929300845,127.083920702468
CU 구의가락점,편의점,광진구,구의1동,37.5418102590107,127.08584671441676
CU 구의크레신점,편의점,광진구,구의1동,37.5369640279519,127.084252597293
CU 구의세종사이버대점,편의점,광진구,구의2동,37.550054435896,127.089437846527
CU 강변테크노마트점,편의점,광진구,구의3동,37.53569845912634,127.09564019526638
CU 구의그린점,편의점,광진구,구의1동,37.5448775107187,127.085501706887
CU 아차산역점,편의점,광진구,구의2동,37.55038098995283,127.09127944204064
CU 구의베스트점,편의점,광진구,구의3동,37.5439582336947,127.090678673476
CU 뉴광진하이엘점,편의점,광진구,구의3동,37.5341514620233,127.09221570048
CU 광진웰츠점,편의점,광진구,구의1동,37.5382473377949,127.083851236687
CU 중곡해피점,편의점,광진구,중곡4동,37.5531661082216,127.091106293758
CU 능동빌리지점,편의점,광진구,능동,37.5534352909762,127.08660357596416
CU 중곡중앙점,편의점,광진구,중곡4동,37.5567046334692,127.091871139155
CU 광진광장점,편의점,광진구,광장동,37.5467309031821,127.102437107123
CU 중곡긴고랑점,편의점,광진구,중곡4동,37.5587544537834,127.092955640606
CU 능동타운점,편의점,광진구,능동,37.5534998828022,127.083234568446
CU 광장현대점,편의점,광진구,광장동,37.5418481489859,127.097397391826
CU 용마행운점,편의점,광진구,중곡2동,37.5573798639064,127.085357543401
CU 광장파크빌점,편의점,광진구,광장동,37.5436356754749,127.101738097448
CU 어린이대공원중앙점,편의점,광진구,능동,37.55053983050526,127.08103812135067
CU 광장점,편의점,광진구,광장동,37.53997904847918,127.09791431871705
CU 중곡스미점,편의점,광진구,중곡2동,37.5563829382714,127.08342790865
CU 중곡베스트점,편의점,광진구,중곡2동,37.5591552986699,127.087179485952
CU 광진광남점,편의점,광진구,광장동,37.5418792073697,127.10117899889244
CU 능동캐슬점,편의점,광진구,능동,37.55329303351781,127.08007915681029
CU 장신대점,편의점,광진구,광장동,37.5477556610077,127.105145336841
CU 중곡2동점,편의점,광진구,중곡2동,37.5590176527719,127.083145635774
CU 중곡무니점,편의점,광진구,중곡4동,37.5612453075194,127.087589376698
CU 능동사거리점,편의점,광진구,능동,37.5552360628304,127.079370509416
CU 중곡오거리점,편의점,광진구,중곡2동,37.5618445188178,127.086299791976
CU 광진능동점,편의점,광진구,능동,37.55198233912813,127.07698260712404
CU 건대후문점,편의점,광진구,화양동,37.5452755982159,127.077911526244
CU 워커힐호텔점,편의점,광진구,광장동,37.55525993915067,127.11023055791011
CU 뉴광진구청점,편의점,광진구,자양1동,37.53916725639565,127.08257594927971
CU 세종대후문점,편의점,광진구,군자동,37.5536720555164,127.073615254957
CU 군자중앙점,편의점,광진구,군자동,37.55707546572417,127.07730813388216
CU 광진군자교점,편의점,광진구,군자동,37.5585984767706,127.073986798377
CU 광진군자로점,편의점,광진구,군자동,37.5522354997244,127.07127351782935
CU 군자본점,편의점,광진구,군자동,37.5578154749222,127.075466378236
CU 세종대대양AI센터점,편의점,광진구,군자동,37.55092011573159,127.07550469193188
CU 세종대학생회관점,편의점,광진구,군자동,37.5496292099003,127.07515257967611
CU 군자오거리점,편의점,광진구,군자동,37.5559210511578,127.073445442705
CU 중곡본점,편의점,광진구,중곡1동,37.5598194521649,127.080674676819
CU 광진중곡점,편의점,광진구,중곡1동,37.5608409377573,127.078362348587
CU 광진군자점,편의점,광진구,중곡1동,37.5615247425704,127.079784637261
CU 화양하이뷰점,편의점,광진구,화양동,37.54727848125765,127.07230422089027
CU 화양문화점,편의점,광진구,화양동,37.547752693205695,127.07033792855492
CU 중곡일동점,편의점,광진구,중곡1동,37.5635324873428,127.079302344167
CU 건대힐스점,편의점,광진구,화양동,37.5462180702723,127.075088049029
CU 광진원룸촌점,편의점,광진구,화양동,37.545909283939,127.073245512197
CU 광진화양점,편의점,광진구,화양동,37.5463480485398,127.068787454098
CU 중곡용마산점,편의점,광진구,중곡2동,37.5627871349827,127.083552761345
CU 화양원룸촌점,편의점,광진구,화양동,37.54581094310792,127.0719950116182
CU 중곡중마점,편의점,광진구,중곡3동,37.5661028719774,127.078186757183
CU 건대경영관점,편의점,광진구,화양동,37.54426224879673,127.07610902142066
CU 화양대박점,편의점,광진구,화양동,37.54485213976422,127.06921607740088
CU 한강르네상스뚝섬2호점,편의점,광진구,자양3동,37.53055917467663,127.06677950026273
CU 건대입구역점,편의점,광진구,자양4동,37.539730276367,127.070202532858
CU 잠실대교북단점,편의점,광진구,자양1동,37.5324512791862,127.085003286286
CU 자양롯데캐슬정문점,편의점,광진구,자양4동,37.5369079075327,127.062988004543
CU 자양태성점,편의점,광진구,자양3동,37.5335776643515,127.071174297339
CU 자양대박점,편의점,광진구,자양2동,37.5314209884512,127.079164247021
CU 자양한강점,편의점,광진구,자양2동,37.5288559620834,127.082922081795
CU 자양쥬니점,편의점,광진구,자양3동,37.5352838078028,127.070257198785
CU 자양진덕점,편의점,광진구,자양1동,37.53503831101533,127.08078374523028
CU 자양뚝섬로점,편의점,광진구,자양4동,37.5346552057512,127.065020401449
CU 건대로데오점,편의점,광진구,자양4동,37.5407634974728,127.065903758269
CU 자양장미점,편의점,광진구,자양4동,37.5351329985913,127.061155863848
CU 자양이튼점,편의점,광진구,자양3동,37.53724559042092,127.06974309434096
CU 자양팰리스점,편의점,광진구,자양1동,37.53735330916923,127.0816167340108
CU 자양동백점,편의점,광진구,자양1동,37.5366304645992,127.081966695341
CU 자양건대점,편의점,광진구,자양3동,37.5372874605224,127.074934266528
CU 건대정문점,편의점,광진구,자양1동,37.5390165978343,127.076158000632
CU 자양진영점,편의점,광진구,자양2동,37.5301623509356,127.080407403054
CU 자양써밋플레이스점,편의점,광진구,자양4동,37.5375366084833,127.068209102048
CU 자양뚝섬길점,편의점,광진구,자양2동,37.5325934434845,127.087732355083
CU 자양리안점,편의점,광진구,자양4동,37.54010434520988,127.06356775909562
CU 자양차이나점,편의점,광진구,자양4동,37.5380283372501,127.065408030042
CU 자양번영로점,편의점,광진구,자양1동,37.5346159779571,127.076366232067
CU 자양사거리점,편의점,광진구,자양2동,37.536315504916,127.083975795307
CU 뚝섬나들목점,편의점,광진구,자양3동,37.53331640510695,127.0680649649639
CU 자양으뜸점,편의점,광진구,자양3동,37.5316800078234,127.074340341604
CU 자양점,편의점,광진구,자양3동,37.5336046349855,127.072750367641
CU 자양사랑점,편의점,광진구,자양1동,37.53658075864272,127.07820344449952
CU 자양중앙점,편의점,광진구,자양2동,37.5322621333729,127.077029085171
CU 자양승일점,편의점,광진구,자양2동,37.53130667441276,127.08421116076698
CU 광진자양점,편의점,광진구,자양1동,37.5330359317949,127.078640986879
CU 자양월드점,편의점,광진구,자양3동,37.5311431330845,127.071218369893
CU 롯데캐슬이스트폴점,편의점,광진구,자양2동,37.5354067970288,127.088364726038
CU 건대화양점,편의점,광진구,화양동,37.5406493198638,127.070162660186
CU 건대한림타워점,편의점,광진구,화양동,37.5407905346761,127.069044858856
CU 건대의생명과학연구관점,편의점,광진구,화양동,37.54145894155585,127.07228162783936
CU 건대학생회관점,편의점,광진구,화양동,37.541756107579786,127.07819527144667
CU 화양공원점,편의점,광진구,화양동,37.5424081507033,127.070028524032
CU 건대상허도서관점,편의점,광진구,화양동,37.5421751295656,127.073909463272
CU 화양사랑점,편의점,광진구,화양동,37.542334887996,127.065819144757
CU 중곡3동점,편의점,광진구,중곡3동,37.570529045126,127.082764508182
CU 중곡대성점,편의점,광진구,중곡3동,37.5677040410745,127.082023371379
CU 중곡한성점,편의점,광진구,중곡3동,37.5686864909568,127.084066456843
CU 중곡신향점,편의점,광진구,중곡4동,37.5651592248325,127.087603014097
CU 뉴화양본점,편의점,광진구,화양동,37.543343136466,127.067363465868
CU 디지털오거리점,편의점,구로구,가리봉동,37.4801169291559,126.890456522923
CU 영진오피스점,편의점,구로구,가리봉동,37.47883657637578,126.8943939293612
CU 남구로사랑점,편의점,구로구,가리봉동,37.4844596918877,126.888426298798
CU 남구로명인점,편의점,구로구,가리봉동,37.4837629668713,126.891059490136
CU 구로오닉스점,편의점,구로구,구로3동,37.48443458706678,126.89244583603757
CU 구로희망점,편의점,구로구,구로3동,37.48567806702161,126.8925435532552
CU 한신IT타워점,편의점,구로구,구로3동,37.48251519999595,126.89417619325336
CU 남구로본점,편의점,구로구,구로4동,37.4854001716959,126.886354633282
CU 구로두산위브점,편의점,구로구,구로3동,37.4863364130738,126.891241186473
CU 구로연화점,편의점,구로구,구로2동,37.48559566825418,126.8853989138478
CU 구로태평양점,편의점,구로구,구로3동,37.4851900197919,126.894879090835
CU 구로벤쳐점,편의점,구로구,구로3동,37.4855281806623,126.894186642375
CU 남구로그림점,편의점,구로구,구로4동,37.4872534827732,126.887230382433
CU 구로JNK점,편의점,구로구,구로3동,37.48250154177688,126.89707402216597
CU 구로대륭7차점,편의점,구로구,구로3동,37.48716105960799,126.89446927626044
CU 구로우림1차점,편의점,구로구,구로3동,37.48677082924752,126.89537664359204
CU 구로두산점,편의점,구로구,구로4동,37.48936961688636,126.88974195680414
CU 구로원룸점,편의점,구로구,구로3동,37.48123003828468,126.89790450545154
CU 구로파트너점,편의점,구로구,구로3동,37.4828795369707,126.898663180191
CU 구로영서점,편의점,구로구,구로3동,37.4891691569889,126.892198202165
CU 구로드림점,편의점,구로구,구로2동,37.4879039281352,126.883432469588
CU 구로디지털점,편의점,구로구,구로3동,37.481100205136656,126.89884987276906
CU 구로예성점,편의점,구로구,구로3동,37.4857920677912,126.899215541649
CU 개봉현대점,편의점,구로구,개봉2동,37.4923088028481,126.860819080535
CU 개봉센트레빌점,편의점,구로구,개봉1동,37.496551072651926,126.8543676627846
CU 매봉초교점,편의점,구로구,개봉1동,37.5033590248388,126.84443830701676
CU 개봉북부점,편의점,구로구,개봉1동,37.49523445333216,126.85711472785144
CU 개봉우리점,편의점,구로구,개봉2동,37.4940992049878,126.848453783887
CU 개봉햇살점,편의점,구로구,개봉2동,37.4930129782079,126.855228279141
CU 오류동부점,편의점,구로구,오류1동,37.5000077068666,126.841366962967
CU 구로개봉점,편의점,구로구,개봉2동,37.4900071175629,126.85514475169
CU 개봉목감천점,편의점,구로구,개봉3동,37.4881441714127,126.859148824127
CU 개봉푸르뫼점,편의점,구로구,개봉1동,37.501433159725,126.842761760353
CU 개봉삼환점,편의점,구로구,개봉2동,37.49421902554871,126.85563756535068
CU 개봉영화점,편의점,구로구,개봉1동,37.4960553366697,126.859423461487
CU 개봉푸르지오점,편의점,구로구,개봉1동,37.4998202662963,126.84960930351
CU 개봉노을점,편의점,구로구,개봉2동,37.4912710508392,126.853537757267
CU 개봉영웅점,편의점,구로구,개봉1동,37.4987328583753,126.856206753915
CU 개봉스타즈점,편의점,구로구,개봉2동,37.492880053648,126.859308418579
CU 아이파크몰고척1호점,편의점,구로구,고척1동,37.49789766275818,126.8599877015423
CU 신원프라자점,편의점,구로구,고척1동,37.49903983793733,126.8635817701716
CU 아이파크몰고척2호점,편의점,구로구,고척1동,37.500724241057,126.858578969189
CU 구로경인점,편의점,구로구,고척2동,37.49981350356412,126.85282444417858
CU 구로리더스점,편의점,구로구,고척1동,37.5001053558245,126.864826080206
CU 개봉리치점,편의점,구로구,고척2동,37.5012960213123,126.850958917708
CU 오류행복점,편의점,구로구,오류1동,37.496936374934,126.84628586758
CU 구로성심병원점,편의점,구로구,고척1동,37.4996466851389,126.866358132183
CU 오류칸타빌점,편의점,구로구,오류1동,37.4959918642266,126.846088776572
CU 오류주민센터점,편의점,구로구,오류1동,37.49679968238095,126.8451055436128
CU 베르누이호텔점,편의점,구로구,오류1동,37.497433322228,126.845972732607
CU 고척대우점,편의점,구로구,고척2동,37.50278357024597,126.85603613086488
CU 구일퀸즈파크점,편의점,구로구,구로1동,37.49650999514315,126.8717883749367
CU 동양미래대학교점,편의점,구로구,고척1동,37.50065958634548,126.8681137538837
CU 구일점,편의점,구로구,구로1동,37.4945767808473,126.872941717321
CU 덕의초교점,편의점,구로구,고척2동,37.505289413041,126.856899908018
CU 구로하나점,편의점,구로구,오류2동,37.4908696948424,126.842031952598
CU 오류현대점,편의점,구로구,오류1동,37.49483275182367,126.84168096821313
CU 고척에이스점,편의점,구로구,고척2동,37.50392134300263,126.84867030224446
CU 오류아너스빌점,편의점,구로구,오류2동,37.4904129586884,126.84074498959454
CU 고척리가점,편의점,구로구,고척2동,37.5069035798351,126.862606112178
CU 구로메아리점,편의점,구로구,고척2동,37.5065728807939,126.848577863476
CU 구일우방점,편의점,구로구,구로1동,37.49718934100064,126.87514132382697
CU 구로오퍼스점,편의점,구로구,구로2동,37.5045389982114,126.87700761614772
CU 구로중앙유통점,편의점,구로구,구로2동,37.50152094902232,126.87731339112813
CU 구로미성점,편의점,구로구,신도림동,37.5076453469385,126.877571418328
CU SK구인주유소점,편의점,구로구,구로2동,37.5024352812342,126.879759232499
CU 구로점,편의점,구로구,구로2동,37.4993631460746,126.881835941857
CU 구로디지털단지역점,편의점,구로구,구로3동,37.4837936261581,126.90134385085
CU 구로대림점,편의점,구로구,구로3동,37.49125265211333,126.89460147328174
CU 신도림자이점,편의점,구로구,구로5동,37.5036471615604,126.891908222639
CU 구로와이즈점,편의점,구로구,구로4동,37.49580693244205,126.89030356400608
CU 구로랜드마크점,편의점,구로구,구로5동,37.5015825916091,126.886708969103
CU 구로현대점,편의점,구로구,구로5동,37.5048460883467,126.886767372081
CU 구로영림점,편의점,구로구,구로5동,37.4977293273214,126.891876042023
CU 구로소담점,편의점,구로구,구로4동,37.4963855234523,126.892420783228
CU 신도림포스빌2점,편의점,구로구,구로5동,37.50604973933447,126.89245441832888
CU 구로유앤미점,편의점,구로구,구로2동,37.4967227601962,126.882299225794
CU 고대구로병원1호점,편의점,구로구,구로2동,37.4921111189774,126.884746678724
CU 구로보건소점,편의점,구로구,구로5동,37.50038177078585,126.88883687802908
CU 구로조이점,편의점,구로구,구로2동,37.48993087587276,126.88402409110114
CU 구로동로점,편의점,구로구,구로4동,37.492595755649695,126.89031504523028
CU 구로성원점,편의점,구로구,구로2동,37.4936696162589,126.886354543346
CU 구로일번가점,편의점,구로구,구로5동,37.5015298299448,126.883413551753
CU 구로AK점,편의점,구로구,구로2동,37.4984896991872,126.884189533654
CU 신도림포스빌점,편의점,구로구,구로5동,37.5052148544128,126.891847151767
CU 구로플래티넘점,편의점,구로구,구로5동,37.50103992226658,126.89122099436528
CU 구로천일점,편의점,구로구,구로3동,37.48336349106789,126.89985196506372
CU 구로보광점,편의점,구로구,구로2동,37.4958526473226,126.885310868981
CU 구로구민회관점,편의점,구로구,구로5동,37.4967244009864,126.890566840051
CU 구로항아리점,편의점,구로구,구로5동,37.4987803759168,126.886617078157
CU 신도림아르디에점,편의점,구로구,신도림동,37.5073834788999,126.88788097450924
CU 신도림태영점,편의점,구로구,신도림동,37.5062627865395,126.883390357927
CU 신도림힐스테이트점,편의점,구로구,신도림동,37.5071777512735,126.884761973431
CU 신도림보미점,편의점,구로구,신도림동,37.5095224630762,126.885068273702
CU 신도림동아점,편의점,구로구,신도림동,37.5109639536864,126.88220674126
CU 구로포스큐점,편의점,구로구,구로5동,37.49829525766384,126.89198378956854
CU 오류삼천리점,편의점,구로구,오류2동,37.492343934996455,126.83950155535209
CU 천왕역점,편의점,구로구,오류2동,37.4882879707139,126.836484430821
CU 오류성공회대점,편의점,구로구,오류2동,37.4893350582737,126.825238128309
CU 구로금강점,편의점,구로구,오류2동,37.4891490537358,126.83306322219396
CU 온수역점,편의점,구로구,수궁동,37.4916656881572,126.824445682994
CU 구로궁동점,편의점,구로구,수궁동,37.4977975604267,126.830357044497
CU 항동3단지점,편의점,구로구,항동,37.48080026427184,126.82432525813454
CU 항동10단지점,편의점,구로구,항동,37.47955820924427,126.82583636852767
CU 온수점,편의점,구로구,수궁동,37.4920309541027,126.820487116883
CU 항동2단지점,편의점,구로구,항동,37.48205567331394,126.82152289320148
CU 항동다연점,편의점,구로구,항동,37.4853890517175,126.819513669941
CU 항동7단지점,편의점,구로구,항동,37.47584275544241,126.81651246031684
CU 가산이노플렉스점,편의점,금천구,가산동,37.4789350529371,126.88138083659004
CU 퍼블릭가산1호점,편의점,금천구,가산동,37.476381220192565,126.88744682653284
CU 금천디지털로점,편의점,금천구,가산동,37.4785687151674,126.889189149864
CU 가산디지털점,편의점,금천구,가산동,37.4790298159511,126.88992221513
CU 가산승일점,편의점,금천구,가산동,37.4800286345367,126.879360996724
CU 가산센트럴푸르지오점,편의점,금천구,가산동,37.47513450734079,126.89062772089616
CU 가산SKV1타워점,편의점,금천구,가산동,37.4676104945399,126.888085092555
CU KCC웰츠밸리점,편의점,금천구,가산동,37.4838924149947,126.879612573317
CU 금천하이시티점,편의점,금천구,가산동,37.4774584030449,126.88238597362
CU 가산원룸점,편의점,금천구,가산동,37.4771973095712,126.896052494852
CU 가산에이스타워점,편의점,금천구,가산동,37.4829651679929,126.881285145177
CU 가산플라츠점,편의점,금천구,가산동,37.4820529536196,126.881790847201
CU 가산아스크점,편의점,금천구,가산동,37.4767041924584,126.889794483139
CU 뉴금천가산점,편의점,금천구,가산동,37.47757049944506,126.89421595234712
CU 비즈메트로2차점,편의점,금천구,가산동,37.47241818635612,126.88151435829931
CU 금천서울점,편의점,금천구,가산동,37.4724173843678,126.890976476565
CU 가산원앤원점,편의점,금천구,가산동,37.4769715187012,126.879368172243
CU 가산세일점,편의점,금천구,가산동,37.4749508359907,126.89474420514
CU 가산벚꽃로점,편의점,금천구,가산동,37.4823639495625,126.882844104163
CU 가산유미어스점,편의점,금천구,가산동,37.48153116410094,126.87554614012876
CU 금천G밸리어반점,편의점,금천구,가산동,37.483956191904,126.875085333699
CU 가산아르센타워점,편의점,금천구,가산동,37.4708961230496,126.88397889613
CU 가산DK점,편의점,금천구,가산동,37.4810278017614,126.879310774155
CU 가산G밸리점,편의점,금천구,가산동,37.4716353550384,126.883473564764
CU 가산디폴리스점,편의점,금천구,가산동,37.4796115159013,126.876788448533
CU 대륭18차점,편의점,금천구,가산동,37.46757297405848,126.8865330996944
CU 가산현대아울렛점,편의점,금천구,가산동,37.47807996741192,126.88876251787796
CU 가산두산점,편의점,금천구,가산동,37.4736969212607,126.8920700717984
CU 가산W센터점,편의점,금천구,가산동,37.4814454302244,126.88065214347034
CU 가산ENC7점,편의점,금천구,가산동,37.4800182398977,126.88707618958
CU 가산하이엔드6차점,편의점,금천구,가산동,37.4759988340659,126.886132589092
CU 가산대륭점,편의점,금천구,가산동,37.480802475668,126.886509706283
CU 가산승리점,편의점,금천구,가산동,37.47600749367717,126.8803080649304
CU 가산대륭3차점,편의점,금천구,가산동,37.4779489848803,126.879242239092
CU 대륭승리점,편의점,금천구,가산동,37.4668145551147,126.8867750202
CU 가산굴다리점,편의점,금천구,가산동,37.4844773970947,126.882524218869
CU 대륭19차점,편의점,금천구,가산동,37.47473876903214,126.88199681637366
CU 가산뉴티캐슬점,편의점,금천구,가산동,37.4778963717063,126.880666832367
CU 퍼블릭가산2호점,편의점,금천구,가산동,37.47516545495851,126.8861892490107
CU 가산남성프라자점,편의점,금천구,가산동,37.475439613179,126.881855529317
CU 가산에스케이점,편의점,금천구,가산동,37.4756069750507,126.88344252708
CU 금천프라임점,편의점,금천구,독산1동,37.47591168662638,126.89825768365522
CU 금천예스점,편의점,금천구,독산1동,37.472222710631,126.894892731868
CU 독산푸르지오점,편의점,금천구,독산3동,37.4804802812112,126.908773998245
CU 독산우시장점,편의점,금천구,독산1동,37.466323650693,126.895746521419
CU 금천반수공원점,편의점,금천구,독산3동,37.4740187469166,126.902631909347
CU 독산소비자점,편의점,금천구,독산2동,37.4644846317092,126.89879200568
CU 독산4동점,편의점,금천구,독산4동,37.4703174626996,126.904924738143
CU 독산원룸점,편의점,금천구,독산1동,37.4718955348809,126.887911394184
CU 독산남문점,편의점,금천구,독산4동,37.4722479721037,126.903375799668
CU 독산메이퀸점,편의점,금천구,독산1동,37.4729816537871,126.897274738922
CU 독산어게인점,편의점,금천구,독산3동,37.4757549872634,126.903725140812
CU 독산마차길점,편의점,금천구,독산1동,37.4700265893834,126.893485012774
CU 롯데캐슬4차점,편의점,금천구,독산1동,37.46118222948248,126.89648610137644
CU 독산2동점,편의점,금천구,독산2동,37.4663470410734,126.90202240667
CU 독산센터점,편의점,금천구,독산4동,37.4708587427379,126.900276745451
CU 금천롯데캐슬2차점,편의점,금천구,독산1동,37.45784540760152,126.89403012341955
CU 독산승리점,편의점,금천구,독산1동,37.454407978125,126.890984539596
CU 독산AK점,편의점,금천구,독산4동,37.4683385431345,126.904551945406
CU 금천파크점,편의점,금천구,독산2동,37.4650388434311,126.906559154235
CU 독산역점,편의점,금천구,독산1동,37.46635390798509,126.89035226458071
CU 독산동길점,편의점,금천구,독산2동,37.4631545923311,126.902912759585
CU 독산대림점,편의점,금천구,독산1동,37.467426372170365,126.89161223002245
CU 금천E스타점,편의점,금천구,독산1동,37.47132799150219,126.8928681939316
CU 독산로하스점,편의점,금천구,독산3동,37.4788169218137,126.902996513207
CU 독산유원점,편의점,금천구,독산1동,37.4707396385476,126.888971225786
CU 독산2호점,편의점,금천구,독산1동,37.4701934133072,126.897719428755
CU 독산시장점,편의점,금천구,독산3동,37.4728069884763,126.899522383963
CU 금천수아주점,편의점,금천구,독산1동,37.467906843189,126.896906386538
CU 독산문성점,편의점,금천구,독산3동,37.477027670026914,126.90884602824556
CU 금천도당점,편의점,금천구,독산1동,37.46511340276161,126.8955311708849
CU 금천블르빌점,편의점,금천구,독산2동,37.4636745433914,126.899756154465
CU 금천조일점,편의점,금천구,독산3동,37.4753315672301,126.901603690453
CU 독산공단점,편의점,금천구,독산1동,37.4697956484598,126.889257493001
CU 독산제일점,편의점,금천구,독산2동,37.4621779057774,126.89863234794
CU 독산정훈점,편의점,금천구,독산2동,37.4648704718277,126.903344601557
CU 독산롯데캐슬점,편의점,금천구,독산1동,37.4647492532547,126.892362135398
CU 독산타운점,편의점,금천구,독산3동,37.4768513176589,126.901300972485
CU 금천한울점,편의점,금천구,시흥4동,37.4625758171828,126.904726560318
CU 금천히어로점,편의점,금천구,시흥1동,37.4606213504999,126.903404325559
CU 금천해피점,편의점,금천구,시흥1동,37.4593080993967,126.901733196385
CU 시흥본점,편의점,금천구,시흥1동,37.45491371182517,126.9015524602432
CU 금천교차로점,편의점,금천구,시흥1동,37.4575153113995,126.899855926959
CU 시흥동일점,편의점,금천구,시흥2동,37.4498780942839,126.914472049234
CU 시흥베르빌점,편의점,금천구,시흥1동,37.4577225096539,126.8977115497
CU 건영타운점,편의점,금천구,시흥5동,37.4499721336197,126.910066647448
CU 박미삼거리점,편의점,금천구,시흥5동,37.4477532358736,126.903588129227
CU 시흥독산로점,편의점,금천구,시흥5동,37.4496777795775,126.905796208917
CU 뉴시흥첼시점,편의점,금천구,시흥4동,37.4535753221179,126.907775945957
CU 시흥승리점,편의점,금천구,시흥5동,37.4502424843647,126.908950869341
CU 금천은행나무점,편의점,금천구,시흥1동,37.4516299357395,126.904252212757
CU 시흥박미점,편의점,금천구,시흥3동,37.4436146678955,126.904438714567
CU 금천독산로점,편의점,금천구,시흥1동,37.4572818836247,126.905239629525
CU 금천홈풀러스점,편의점,금천구,시흥1동,37.45320268322481,126.8994062101161
CU 금천석수점,편의점,금천구,시흥3동,37.43470404765877,126.90384441129191
CU 남서울풍림점,편의점,금천구,시흥1동,37.44706991384156,126.90206224294802
CU 시흥믿음점,편의점,금천구,시흥4동,37.4614541217645,126.908222917641
CU 시흥4동점,편의점,금천구,시흥4동,37.4623599066693,126.909740972329
CU 시흥탑동점,편의점,금천구,시흥5동,37.4520734706614,126.913930456661
CU 금천승리점,편의점,금천구,시흥3동,37.4421993434551,126.904648439154
CU 금천여름점,편의점,금천구,시흥1동,37.45005794861543,126.90130793223602
CU 시흥공구단지점,편의점,금천구,시흥3동,37.4424171473624,126.903242407193
CU 시흥금빛점,편의점,금천구,시흥1동,37.4536768078181,126.903969314504
CU 공릉미르점,편의점,노원구,공릉1동,37.6285948921128,127.070757294514
CU 뉴공릉굴다리점,편의점,노원구,공릉1동,37.6290472304272,127.07363175983178
CU 공릉녹주점,편의점,노원구,공릉1동,37.62060006319697,127.07284978016791
CU 노원공릉점,편의점,노원구,공릉1동,37.6212019378061,127.075688987269
CU 태릉엠코점,편의점,노원구,공릉1동,37.61864095646193,127.07627085936863
CU 공릉그랜드점,편의점,노원구,공릉2동,37.6243445665872,127.081134034408
CU 공릉사거리점,편의점,노원구,공릉1동,37.62519473388764,127.07343651804338
CU 공릉플러스점,편의점,노원구,공릉1동,37.626848808966,127.076487683498
CU 공릉화랑점,편의점,노원구,공릉1동,37.6193617293911,127.07903538715
CU 삼육대학생회관점,편의점,노원구,공릉2동,37.642125500291854,127.10712620141108
CU 서울여대후문점,편의점,노원구,공릉2동,37.6239959927925,127.08969740951
CU 공릉과기대점,편의점,노원구,공릉1동,37.62444481625889,127.07673443149751
CU 화랑대역점,편의점,노원구,공릉2동,37.6208252568708,127.083789844705
CU 공릉철길공원점,편의점,노원구,공릉2동,37.6233156641729,127.078432412959
CU 공릉건설점,편의점,노원구,공릉2동,37.62633890180142,127.07914246129376
CU 서울과기대점,편의점,노원구,공릉2동,37.6295842632136,127.076395326824
CU 태릉역점,편의점,노원구,공릉1동,37.6183483892109,127.074462793538
CU 공릉마중점,편의점,노원구,공릉1동,37.62304697858102,127.07311836591224
CU 공릉스타점,편의점,노원구,공릉1동,37.6267198508203,127.075268644465
CU 공릉행복점,편의점,노원구,공릉2동,37.6289301865596,127.076334616457
CU 공릉모아점,편의점,노원구,공릉1동,37.6263757475291,127.072268622203
CU 서울테크노파크점,편의점,노원구,공릉2동,37.6345657271515,127.080587743724
CU 삼육대생활관점,편의점,노원구,공릉2동,37.64414177678535,127.10424881423543
CU 서울과학기술대2관점,편의점,노원구,공릉2동,37.6307517724805,127.079380512747
CU 서울과학기술대1관점,편의점,노원구,하계1동,37.63419169098495,127.0767240604539
CU 서울여대점,편의점,노원구,공릉2동,37.6260944058536,127.093166309703
CU 월계삼호점,편의점,노원구,월계3동,37.626737463901456,127.06536787315696
CU 월계서광점,편의점,노원구,월계3동,37.62368833081725,127.06407837960263
CU 월계그랑빌점,편의점,노원구,월계3동,37.615818366701,127.0685965532958
CU 하계을지병원점,편의점,노원구,하계1동,37.6355558332671,127.07088172123
CU 석계역점,편의점,노원구,월계3동,37.6153474950712,127.066418052865
CU 과학기술대생활관점,편의점,노원구,하계1동,37.63554724634152,127.07599243746972
CU 광운대동문점,편의점,노원구,월계1동,37.6202082560676,127.06156076676
CU 하계대진점,편의점,노원구,하계1동,37.6367417961084,127.076234975641
CU 노원을지병원2호점,편의점,노원구,하계1동,37.63642583253622,127.06996258377934
CU 월계사슴점,편의점,노원구,월계3동,37.63176303007208,127.060555227742
CU 광운대원룸점,편의점,노원구,월계1동,37.62153814533509,127.05793937823356
CU 하계문화점,편의점,노원구,하계2동,37.63663008898018,127.06572662446172
CU 상계하모니점,편의점,노원구,상계1동,37.6711772609197,127.057275186609
CU 노원보미점,편의점,노원구,상계6.7동,37.6550607064147,127.058712223571
CU 상계주공점,편의점,노원구,상계6.7동,37.64875048972198,127.06172029555276
CU 노원스타점,편의점,노원구,상계2동,37.6554507854742,127.062315130976
CU 상계미네르바점,편의점,노원구,상계1동,37.6710928154255,127.052888525542
